~Version Information
# Data Copyright 2013 (C) geoLOGIC systems ltd.
 VERS  .     2.00 : LOG ASCII STANDARD -VERSION 2.0
 WRAP  .     NO   : ONE LINE PER DEPTH STEP
 PROD  .      geoLOGIC systems ltd.          : LAS Producer
 CREA  .      25/02/2013                     : LAS Creation date {MM/DD/YYYY}
~Well
#MNEM  .UNIT        Data                       Description of Mnemonic
#------.------ ----------------------------- : -------------------------
 STRT  .M          119.0000                  : START DEPTH
 STOP  .M          852.6000                  : STOP DEPTH
 STEP  .M            0.2000                  : STEP DEPTH
 NULL  .           -9999.69                  : NULL VALUE
 COMP  .      HUSKY OIL OPERATIONS LIMITED   : Company
 WELL  .      RENAISSANCE ET AL PROVOST 3-5-39: Well
 FLD   .      PROVOST                        : Field
 LOC   .                                     : Location
 PRVC  .      ALBERTA                        : Province
 SRVC  .      SCHLUMBERGER                   : Service Company
 DATE  .      03-JUN-83                      : Log Date
 UWI   .      100030503903W400               : Unique Well ID
 LIC   .      0101417                        : Licence Number
 LATI  .      52.3180156                     : Latitude
 LONG  .      -110.400359                    : Longitude
 GDAT  .      NAD27                          : Geodetic Datum
~Parameter
#MNEM  .UNIT        VALUE                      Description
#------.------ ----------------------------- : -------------------------
 RUN   .            1                        : Run Number
 EGL   .M           669.6000                 : Ground Level Elevation
 EREF  .M           673.5500                 : Elevation of Depth Reference
 EKB   .M           673.5000                 : Elevation of Kelly Bushing
 TDL   .M           851.3000                 : Total Depth Logger
 TDD   .M           855.0000                 : Total Depth Driller
 TLI   .M           0.0000                   : Top of Logged Interval
 BLI   .M           0.0000                   : Bottom of Logged Interval
~Curve
#MNEM  .UNIT        API Codes                  Curve description
#------.------ ----------------------------- : -------------------------
 DEPT  .M        0   1  0  0                 : 1 DEPTH
 AC    .US/M     60 520  0  1                : 2 SONIC INTERVAL TRANSIT TIME (COMPENSATED)
 GR    .GAPI     42 310  1  1                : 2 GAMMA RAY
 DEN   .K/M3     42 350  1  1                : 2 BULK DENSITY
~Ascii        DEPT           AC           GR          DEN
# ...
      574.6000       428.1600       105.9150      2190.0000
      574.8000       428.5600       108.8850      2185.2000
      575.0000       427.2800       109.9050      2190.0000
      575.2000       424.4800       110.1750      2230.3999
      575.4000       420.7600       112.3500      2254.8999
      575.6000       415.8800       110.7000      2269.3000
      575.8000       412.0800       107.8800      2230.1001
      576.0000       412.4000       110.2350      2193.5000
      576.2000       414.6800       116.2500      2183.7000
      576.4000       412.0800       120.3300      2213.5000
      576.6000       405.3200       123.0450      2253.3000
      576.8000       400.6400       124.8450      2267.1001
      577.0000       404.8000       124.9650      2245.0000
      577.2000       413.4000       127.5150      2223.7000
      577.4000       415.8000       132.6600      2213.2000
      577.6000       414.4800       135.3900      2207.8999
      577.8000       413.6000       137.4450      2211.3000
      578.0000       413.8400       140.4000      2228.1001
      578.2000       414.4800       142.3650      2245.3000
      578.4000       415.6800       143.5500      2258.3999
      578.6000       416.7200       138.7500      2267.6001
      578.8000       417.3600       137.4750      2276.1001
      579.0000       417.3200       140.8650      2283.2000
      579.2000       416.1200       143.6550      2281.2000
      579.4000       413.8000       142.8300      2266.5000
      579.6000       411.6000       139.4700      2261.8999
      579.8000       410.4800       139.7100      2262.8000
      580.0000       409.4000       143.2050      2269.2000
      580.2000       408.6400       144.5250      2290.6001
      580.4000       407.8400       143.4150      2314.3999
      580.6000       407.1600       141.9600      2326.6001
      580.8000       406.3200       140.7900      2314.1001
      581.0000       405.0400       140.1900      2306.7000
      581.2000       404.0800       140.8950      2312.3000
      581.4000       404.2000       142.2600      2330.3000
      581.6000       404.5600       142.5750      2327.3999
      581.8000       405.0000       142.1550      2311.7000
      582.0000       405.6800       141.8550      2303.7000
      582.2000       406.8000       142.1100      2301.1001
      582.4000       407.8400       142.6650      2302.3999
      582.6000       408.9600       142.0500      2306.2000
      582.8000       410.8800       140.9250      2311.8000
      583.0000       412.8800       140.8350      2321.1001
      583.2000       415.0000       141.7650      2334.3999
      583.4000       416.6800       141.2250      2304.3999
      583.6000       417.8000       139.1400      2290.5000
      583.8000       418.2800       143.5350      2286.3000
      584.0000       418.0000       147.1950      2299.3999
      584.2000       417.3600       148.6500      2302.3999
      584.4000       416.2400       148.3800      2307.6001
      584.6000       413.5600       143.8950      2324.8000
      584.8000       409.4400       139.8300      2358.5000
      585.0000       405.4000       137.9700      2372.0000
      585.2000       408.2800       140.4000      2335.1001
      585.4000       411.6800       145.7400      2314.5000
      585.6000       414.4000       145.3200      2298.6001
      585.8000       416.4800       144.5250      2288.7000
      586.0000       417.4800       144.8100      2281.7000
      586.2000       417.0800       145.7850      2279.7000
      586.4000       415.6800       147.7950      2282.1001
      586.6000       412.7600       149.4150      2284.7000
      586.8000       408.6400       148.6650      2285.7000
      587.0000       405.8400       142.3200      2282.8999
      587.2000       408.6800       141.6300      2273.8999
      587.4000       412.8400       141.9600      2270.2000
      587.6000       415.7200       145.1250      2265.3000
      587.8000       416.9600       148.1850      2257.8000
      588.0000       417.3200       149.1450      2264.3000
      588.2000       417.2800       149.1450      2275.2000
      588.4000       417.1600       148.3350      2273.3999
      588.6000       417.0000       145.7250      2261.1001
      588.8000       416.9200       142.9350      2250.1001
      589.0000       418.4000       143.1750      2240.0000
      589.2000       421.2400       144.3600      2228.8000
      589.4000       423.7200       144.4200      2210.1001
      589.6000       426.3200       143.8650      2195.8000
      589.8000       427.4800       142.7700      2187.3999
      590.0000       425.4800       141.5400      2249.6001
      590.2000       415.5200       140.3100      2326.1001
      590.4000       391.1600       141.2700      2358.6001
      590.6000       380.0000       147.8250      2367.6001
      590.8000       384.6000       151.0650      2304.2000
      591.0000       388.4000       159.3000      2288.6001
      591.2000       389.6800       160.4550      2282.3999
      591.4000       390.0000       157.2000      2285.3999
      591.6000       389.8400       156.7650      2292.0000
      591.8000       389.8000       163.0050      2297.0000
      592.0000       389.4800       172.7400      2293.3000
      592.2000       389.5200       179.4900      2281.7000
      592.4000       390.2000       207.5550      2276.3999
      592.6000       390.6400       216.5100      2277.5000
      592.8000       390.1200       203.1750      2284.5000
      593.0000       387.6800       164.2650      2273.0000
      593.2000       386.2800       154.7250      2261.8999
      593.4000       387.9200       153.0600      2255.6001
      593.6000       390.1600       151.1700      2253.2000
      593.8000       392.8000       148.5900      2254.2000
      594.0000       392.2800       147.6900      2258.0000
      594.2000       390.3200       149.8350      2260.7000
      594.4000       388.5600       156.6750      2256.3000
      594.6000       387.1200       164.5650      2246.1001
      594.8000       385.8800       167.9400      2240.8000
      595.0000       385.1200       167.4900      2240.1001
      595.2000       386.6000       159.7950      2245.5000
      595.4000       392.0800       145.8750      2262.6001
      595.6000       397.6400       124.3050      2281.8000
      595.8000       401.1600       118.8450      2299.1001
      596.0000       399.4400       116.1300      2313.1001
      596.2000       388.9600       116.0700      2326.7000
      596.4000       380.1200       115.1250      2338.0000
      596.6000       380.0400       111.9150      2335.8999
      596.8000       382.6000       109.5600      2308.2000
      597.0000       385.8000       108.0150      2284.3999
      597.2000       390.1200       107.1150      2271.8999
      597.4000       392.1200       106.8750      2278.5000
      597.6000       391.9200       107.1600      2299.7000
      597.8000       391.4400       108.0750      2317.8000
      598.0000       390.5200       110.5350      2331.3999
      598.2000       388.9600       112.0200      2340.0000
      598.4000       386.9200       108.1650      2347.3000
      598.6000       384.0400       106.1400      2355.0000
      598.8000       381.0800       108.6450      2361.0000
      599.0000       381.3200       111.9600      2364.0000
      599.2000       382.9600       112.1250      2350.8999
      599.4000       385.0800       114.3600      2339.0000
      599.6000       387.6000       121.2600      2329.3999
      599.8000       389.5200       125.7000      2330.7000
      600.0000       387.2000       128.6850      2387.3999
      600.2000       383.2800       120.0150      2391.1001
      600.4000       379.1200       116.4000      2348.3999
      600.6000       381.6000       116.3850      2326.8999
      600.8000       383.9200       115.7700      2323.1001
      601.0000       385.6400       111.0900      2327.6001
      601.2000       386.6000       108.6300      2341.8999
