~Version Information
# Data Copyright 2013 (C) geoLOGIC systems ltd.
 VERS  .     2.00 : LOG ASCII STANDARD -VERSION 2.0
 WRAP  .     NO   : ONE LINE PER DEPTH STEP
 PROD  .      geoLOGIC systems ltd.          : LAS Producer
 CREA  .      25/02/2013                     : LAS Creation date {MM/DD/YYYY}
~Well
#MNEM  .UNIT        Data                       Description of Mnemonic
#------.------ ----------------------------- : -------------------------
 STRT  .M          119.0000                  : START DEPTH
 STOP  .M          852.6000                  : STOP DEPTH
 STEP  .M            0.2000                  : STEP DEPTH
 NULL  .           -9999.69                  : NULL VALUE
 COMP  .      HUSKY OIL OPERATIONS LIMITED   : Company
 WELL  .      RENAISSANCE ET AL PROVOST 3-5-39: Well
 FLD   .      PROVOST                        : Field
 LOC   .                                     : Location
 PRVC  .      ALBERTA                        : Province
 SRVC  .      SCHLUMBERGER                   : Service Company
 DATE  .      03-JUN-83                      : Log Date
 UWI   .      100030503903W400               : Unique Well ID
 LIC   .      0101417                        : Licence Number
 LATI  .      52.3180156                     : Latitude
 LONG  .      -110.400359                    : Longitude
 GDAT  .      NAD27                          : Geodetic Datum
~Parameter
#MNEM  .UNIT        VALUE                      Description
#------.------ ----------------------------- : -------------------------
 RUN   .            1                        : Run Number
 EGL   .M           669.6000                 : Ground Level Elevation
 EREF  .M           673.5500                 : Elevation of Depth Reference
 EKB   .M           673.5000                 : Elevation of Kelly Bushing
 TDL   .M           851.3000                 : Total Depth Logger
 TDD   .M           855.0000                 : Total Depth Driller
 TLI   .M           0.0000                   : Top of Logged Interval
 BLI   .M           0.0000                   : Bottom of Logged Interval
~Curve
#MNEM  .UNIT        API Codes                  Curve description
#------.------ ----------------------------- : -------------------------
 DEPT  .M        0   1  0  0                 : 1 DEPTH
 AC    .US/M     60 520  0  1                : 2 SONIC INTERVAL TRANSIT TIME (COMPENSATED)
 GR    .GAPI     42 310  1  1                : 2 GAMMA RAY
 DEN   .K/M3     42 350  1  1                : 2 BULK DENSITY
~Ascii        DEPT           AC           GR          DEN
      119.0000     -9999.6900        51.9750     -9999.6900
      119.2000     -9999.6900        51.4650     -9999.6900
      119.4000     -9999.6900        47.9700     -9999.6900
      119.6000     -9999.6900        43.3800     -9999.6900
      119.8000     -9999.6900        41.4000     -9999.6900
      120.0000     -9999.6900        41.5050     -9999.6900
      120.2000     -9999.6900        43.8600     -9999.6900
      120.4000     -9999.6900        47.6850     -9999.6900
      120.6000     -9999.6900        51.8250     -9999.6900
      120.8000     -9999.6900        54.5400     -9999.6900
      121.0000     -9999.6900        55.5000     -9999.6900
      121.2000     -9999.6900        55.5000     -9999.6900
      121.4000     -9999.6900        55.8300     -9999.6900
      121.6000     -9999.6900        52.1550     -9999.6900
      121.8000     -9999.6900        49.4250     -9999.6900
      122.0000     -9999.6900        48.3300     -9999.6900
      122.2000     -9999.6900        49.8750     -9999.6900
      122.4000     -9999.6900        51.4200     -9999.6900
      122.6000     -9999.6900        52.4550     -9999.6900
      122.8000     -9999.6900        51.2250     -9999.6900
      123.0000     -9999.6900        48.4050     -9999.6900
      123.2000     -9999.6900        47.1000     -9999.6900
      123.4000     -9999.6900        47.2800     -9999.6900
      123.6000     -9999.6900        49.4250     -9999.6900
      123.8000     -9999.6900        52.1850     -9999.6900
      124.0000     -9999.6900        55.1550     -9999.6900
      124.2000     -9999.6900        55.4250     -9999.6900
      124.4000     -9999.6900        52.2600     -9999.6900
      124.6000     -9999.6900        51.1200     -9999.6900
      124.8000     -9999.6900        52.3050     -9999.6900
      125.0000     -9999.6900        54.2700     -9999.6900
      125.2000     -9999.6900        56.5200     -9999.6900
      125.4000     -9999.6900        58.6050     -9999.6900
      125.6000     -9999.6900        59.8650     -9999.6900
      125.8000     -9999.6900        58.8300     -9999.6900
      126.0000     -9999.6900        54.2100     -9999.6900
      126.2000     -9999.6900        51.0000     -9999.6900
      126.4000     -9999.6900        57.1050     -9999.6900
      126.6000     -9999.6900        63.3900     -9999.6900
      126.8000     -9999.6900        65.0850     -9999.6900
      127.0000       541.2000        63.9750      2026.6000
      127.2000       460.2000        64.0950      2043.8000
      127.4000       409.0800        66.3600      2053.8999
      127.6000       402.7200        68.4600      2025.2000
      127.8000       430.5600        70.2150      2003.7000
      128.0000       443.6800        69.6450      1958.5000
      128.2000       429.2400        67.8150      1952.5000
      128.4000       436.7600        74.8800      1993.5000
      128.6000       510.6000        84.3600      2041.3000
      128.8000       611.8800        89.2200      2085.0000
      129.0000       616.8800        91.3350      2135.0000
      129.2000       559.4400        89.8200      2149.3999
      129.4000       533.4400        85.8150      2147.0000
      129.6000       497.7600        83.5800      2136.8999
      129.8000       500.5600        83.3100      2138.8000
      130.0000       493.5600        83.7600      2155.5000
      130.2000       490.0800        80.2050      2176.5000
      130.4000       488.2400        77.6550      2193.2000
      130.6000       487.4000        76.9950      2205.8000
      130.8000       487.2400        79.6950      2215.2000
      131.0000       487.1200        82.8150      2219.7000
      131.2000       487.0800        85.3050      2221.5000
      131.4000       487.0800        86.8350      2209.8999
      131.6000       486.6800        86.5950      2195.5000
      131.8000       485.5600        86.8500      2185.6001
      132.0000       483.7200        88.4550      2183.1001
      132.2000       481.7600        87.6300      2180.7000
      132.4000       479.3600        84.2400      2190.6001
      132.6000       476.6000        82.5750      2205.3000
      132.8000       474.9200        81.6300      2212.2000
      133.0000       474.6000        80.9550      2218.1001
      133.2000       475.0000        80.7600      2227.8999
      133.4000       475.3200        81.3750      2233.7000
      133.6000       475.6000        83.1150      2241.6001
      133.8000       476.0800        85.3350      2245.5000
      134.0000       477.0800        87.4650      2243.8000
      134.2000       478.8000        89.6700      2236.8999
      134.4000       480.5200        85.1100      2229.3999
      134.6000       481.9600        82.2900      2221.0000
      134.8000       482.8800        79.6200      2216.8000
      135.0000       483.0400        76.9950      2213.0000
      135.2000       482.8800        74.8950      2218.0000
      135.4000       482.3600        75.7200      2228.8999
      135.6000       481.2800        80.2350      2238.6001
      135.8000       479.4400        82.8450      2246.8999
      136.0000       477.5600        83.5500      2253.1001
      136.2000       476.0800        83.1900      2247.5000
      136.4000       475.2400        81.8400      2235.8000
      136.6000       474.4000        80.2650      2228.3000
      136.8000       473.6400        78.6000      2222.6001
      137.0000       473.6400        77.7150      2217.8999
      137.2000       474.1200        78.1200      2215.8000
      137.4000       476.8000        79.5000      2215.6001
      137.6000       479.2000        81.6300      2219.8000
      137.8000       480.7200        82.4100      2225.3999
      138.0000       482.0000        82.8300      2227.6001
      138.2000       482.7600        82.8300      2227.6001
      138.4000       483.2000        83.0100      2227.2000
      138.6000       483.2000        83.4900      2227.2000
      138.8000       483.0400        81.2100      2229.3000
      139.0000       482.4000        79.1700      2234.3999
      139.2000       481.5600        79.3650      2240.6001
      139.4000       480.7200        81.1050      2242.1001
      139.6000       479.8800        83.1000      2236.8000
      139.8000       478.8800        84.6000      2226.7000
      140.0000       478.1600        85.7850      2220.3999
      140.2000       478.2800        86.8350      2220.3000
      140.4000       478.8800        87.7200      2223.3999
      140.6000       479.9600        88.6350      2227.2000
      140.8000       480.0400        89.5350      2228.6001
      141.0000       479.6400        89.7750      2227.8999
      141.2000       480.0800        89.5950      2224.7000
      141.4000       481.4000        89.3550      2210.7000
      141.6000       482.0800        89.2650      2191.2000
      141.8000       482.4000        89.1450      2175.5000
      142.0000       482.4000        88.5000      2176.2000
      142.2000       482.2400        87.2100      2177.0000
      142.4000       481.7200        85.5000      2180.7000
      142.6000       481.2000        83.8200      2189.3999
      142.8000       480.6000        82.5750      2201.8000
      143.0000       480.4800        81.8850      2215.6001
      143.2000       480.6400        81.6600      2237.8000
      143.4000       481.2800        83.7000      2238.8999
      143.6000       481.8000        86.9250      2234.6001
      143.8000       482.4800        90.1350      2230.8999
      144.0000       482.7200        91.8150      2228.3999
      144.2000       482.0400        92.4150      2229.7000
      144.4000       481.4400        91.0350      2232.6001
      144.6000       480.9200        89.3250      2232.0000
      144.8000       478.6800        88.4550      2224.8999
      145.0000       475.2800        83.5350      2223.5000
      145.2000       470.1600        80.0550      2226.8999
      145.4000       465.8800        78.0600      2222.1001
      145.6000       465.2000        78.7350      2211.8000
