~Version Information
# Data Copyright 2013 (C) geoLOGIC systems ltd.
 VERS  .     2.00 : LOG ASCII STANDARD -VERSION 2.0
 WRAP  .     NO   : ONE LINE PER DEPTH STEP
 PROD  .      geoLOGIC systems ltd.          : LAS Producer
 CREA  .      25/02/2013                     : LAS Creation date {MM/DD/YYYY}
~Well
#MNEM  .UNIT        Data                       Description of Mnemonic
#------.------ ----------------------------- : -------------------------
 STRT  .M          119.0000                  : START DEPTH
 STOP  .M          852.6000                  : STOP DEPTH
 STEP  .M            0.2000                  : STEP DEPTH
 NULL  .           -9999.69                  : NULL VALUE
 COMP  .      HUSKY OIL OPERATIONS LIMITED   : Company
 WELL  .      RENAISSANCE ET AL PROVOST 3-5-39: Well
 FLD   .      PROVOST                        : Field
 LOC   .                                     : Location
 PRVC  .      ALBERTA                        : Province
 SRVC  .      SCHLUMBERGER                   : Service Company
 DATE  .      03-JUN-83                      : Log Date
 UWI   .      100030503903W400               : Unique Well ID
 LIC   .      0101417                        : Licence Number
 LATI  .      52.3180156                     : Latitude
 LONG  .      -110.400359                    : Longitude
 GDAT  .      NAD27                          : Geodetic Datum
~Parameter
#MNEM  .UNIT        VALUE                      Description
#------.------ ----------------------------- : -------------------------
 RUN   .            1                        : Run Number
 EGL   .M           669.6000                 : Ground Level Elevation
 EREF  .M           673.5500                 : Elevation of Depth Reference
 EKB   .M           673.5000                 : Elevation of Kelly Bushing
 TDL   .M           851.3000                 : Total Depth Logger
 TDD   .M           855.0000                 : Total Depth Driller
 TLI   .M           0.0000                   : Top of Logged Interval
 BLI   .M           0.0000                   : Bottom of Logged Interval
~Curve
#MNEM  .UNIT        API Codes                  Curve description
#------.------ ----------------------------- : -------------------------
 DEPT  .M        0   1  0  0                 : 1 DEPTH
 AC    .US/M     60 520  0  1                : 2 SONIC INTERVAL TRANSIT TIME (COMPENSATED)
 GR    .GAPI     42 310  1  1                : 2 GAMMA RAY
 DEN   .K/M3     42 350  1  1                : 2 BULK DENSITY
~Ascii        DEPT           AC           GR          DEN
# ...
      172.6000       441.8000        68.1300      2158.6001
      172.8000       444.8000        68.1450      2205.7000
      173.0000       451.0000        69.0600      2216.2000
      173.2000       466.0000        70.5450      2198.5000
      173.4000       475.1600        69.3450      2192.6001
      173.6000       481.4800        68.1750      2188.1001
      173.8000       483.6800        67.7700      2182.5000
      174.0000       482.0000        68.0100      2171.5000
      174.2000       478.0000        68.1450      2161.1001
      174.4000       474.0400        70.7550      2154.1001
      174.6000       473.8000        74.3250      2154.8999
      174.8000       474.8000        74.8200      2169.2000
      175.0000       475.3600        73.6650      2180.7000
      175.2000       475.9200        72.8700      2176.5000
      175.4000       474.3600        73.9800      2170.5000
      175.6000       473.2000        76.3650      2168.6001
      175.8000       473.4000        77.1900      2175.3999
      176.0000       476.8800        77.2350      2180.5000
      176.2000       481.8000        77.3400      2178.5000
      176.4000       485.7200        78.9000      2157.2000
      176.6000       495.4800        79.6950      2133.0000
      176.8000       494.1600        79.6800      2115.5000
      177.0000       486.8000        77.8350      2127.0000
      177.2000       482.6400        76.8300      2175.3999
      177.4000       484.6400        78.1650      2192.0000
      177.6000       488.3200        79.9200      2174.3999
      177.8000       491.2800        80.6400      2163.3999
      178.0000       487.9600        80.8800      2157.8999
      178.2000       478.3600        80.8650      2164.3999
      178.4000       472.8400        77.8950      2193.7000
      178.6000       470.0400        77.5950      2199.3000
      178.8000       469.0000        78.1800      2188.1001
      179.0000       469.1200        78.6000      2181.3000
      179.2000       469.9600        78.9300      2179.8999
      179.4000       471.3600        78.9300      2181.8000
      179.6000       473.1200        79.2600      2186.3999
      179.8000       475.7200        80.0550      2196.3999
      180.0000       479.0800        81.5400      2212.8000
      180.2000       482.0800        82.3050      2210.6001
      180.4000       483.2000        83.0250      2203.0000
      180.6000       480.6800        83.3100      2198.8999
      180.8000       476.2400        81.4500      2224.5000
      181.0000       472.0400        79.3200      2242.7000
      181.2000       471.2000        78.0150      2243.7000
      181.4000       471.3600        77.4750      2242.8999
      181.6000       471.5600        78.1050      2243.3000
      181.8000       471.2000        79.9200      2244.2000
      182.0000       469.7600        81.6300      2239.2000
      182.2000       467.0400        83.1600      2233.0000
      182.4000       465.0800        84.7050      2231.5000
      182.6000       465.9600        83.4300      2235.7000
      182.8000       468.1200        81.9600      2244.5000
      183.0000       469.4400        80.6250      2242.6001
      183.2000       468.8400        79.5600      2224.1001
      183.4000       467.4800        78.3000      2219.1001
      183.6000       466.8400        77.7450      2223.1001
      183.8000       467.3200        79.4250      2226.2000
      184.0000       467.6800        81.3300      2224.2000
      184.2000       468.0000        82.4250      2215.7000
      184.4000       468.0000        82.2000      2202.5000
      184.6000       468.0000        81.6150      2186.0000
      184.8000       467.4800        82.0950      2170.2000
      185.0000       466.0000        80.9100      2163.3000
      185.2000       463.1200        77.7300      2162.3000
      185.4000       459.4000        76.8450      2170.1001
      185.6000       455.8000        76.9950      2170.7000
      185.8000       452.2400        77.3100      2167.7000
      186.0000       446.8400        77.7450      2169.3999
      186.2000       439.5200        77.8950      2199.8999
      186.4000       437.7600        77.6850      2229.6001
      186.6000       436.6000        77.7000      2242.5000
      186.8000       437.9200        78.2100      2238.2000
      187.0000       441.0800        76.9800      2223.5000
      187.2000       446.1600        75.8850      2210.8000
      187.4000       452.3600        75.3900      2201.7000
      187.6000       458.3200        75.3900      2194.8000
      187.8000       462.2400        76.0650      2191.7000
      188.0000       465.5200        76.9200      2190.0000
      188.2000       468.0400        78.8250      2192.3999
      188.4000       470.4800        80.1600      2200.3000
      188.6000       473.0000        81.1650      2202.7000
      188.8000       475.6000        81.6300      2161.7000
      189.0000       476.4800        81.9600      2141.5000
      189.2000       471.4000        82.2150      2146.8999
      189.4000       459.4000        81.4650      2188.8000
      189.6000       455.7200        76.8450      2209.2000
      189.8000       453.5600        74.6100      2222.5000
      190.0000       455.1600        74.6850      2233.3000
      190.2000       458.6400        76.3800      2233.7000
      190.4000       460.7600        78.2100      2230.8000
      190.6000       461.2800        79.2150      2236.1001
      190.8000       464.4000        79.2750      2247.3000
      191.0000       467.4000        78.5850      2247.5000
      191.2000       470.8800        77.8500      2219.6001
      191.4000       472.2000        79.7400      2204.0000
      191.6000       470.5600        81.5250      2200.1001
      191.8000       468.5600        82.8450      2212.7000
      192.0000       466.0000        83.7900      2214.7000
      192.2000       463.2800        82.3950      2205.2000
      192.4000       462.1600        81.3600      2204.2000
      192.6000       461.8400        81.5250      2208.8999
      192.8000       462.1600        82.1700      2204.5000
      193.0000       463.3600        80.4750      2189.6001
      193.2000       465.9600        77.7150      2180.5000
      193.4000       468.5600        77.0250      2179.8999
      193.6000       470.8000        78.0150      2184.6001
      193.8000       472.8400        76.9500      2174.0000
      194.0000       474.6400        75.4050      2158.3000
      194.2000       474.8800        74.8500      2147.0000
      194.4000       472.5200        75.1050      2153.3999
      194.6000       471.0000        75.3300      2180.7000
      194.8000       470.5600        76.1700      2196.1001
      195.0000       471.3600        76.4100      2174.5000
      195.2000       472.3600        78.1950      2165.3999
      195.4000       471.9200        79.8600      2169.0000
      195.6000       470.8000        79.3800      2184.8000
      195.8000       469.1600        79.6350      2188.1001
      196.0000       466.6400        80.7150      2163.0000
      196.2000       464.4800        81.5700      2149.3999
      196.4000       461.9600        82.0500      2139.8999
      196.6000       459.4000        80.7150      2134.8000
      196.8000       456.0000        76.7550      2140.7000
      197.0000       456.2800        76.9500      2181.8000
      197.2000       457.7200        76.1700      2197.8000
      197.4000       459.2800        74.0550      2207.1001
      197.6000       461.2800        72.8250      2213.3000
      197.8000       463.7600        73.8900      2212.8999
      198.0000       466.4000        75.6450      2205.8999
      198.2000       468.6800        78.7650      2206.3999
      198.4000       470.0800        79.9650      2215.1001
      198.6000       471.2400        80.8200      2212.3000
      198.8000       471.7200        80.2800      2205.2000
      199.0000       472.2000        77.5500      2206.5000
      199.2000       473.1600        78.9450      2210.7000
