~Version Information
# Data Copyright 2013 (C) geoLOGIC systems ltd.
 VERS  .     2.00 : LOG ASCII STANDARD -VERSION 2.0
 WRAP  .     NO   : ONE LINE PER DEPTH STEP
 PROD  .      geoLOGIC systems ltd.          : LAS Producer
 CREA  .      25/02/2013                     : LAS Creation date {MM/DD/YYYY}
~Well
#MNEM  .UNIT        Data                       Description of Mnemonic
#------.------ ----------------------------- : -------------------------
 STRT  .M          119.0000                  : START DEPTH
 STOP  .M          852.6000                  : STOP DEPTH
 STEP  .M            0.2000                  : STEP DEPTH
 NULL  .           -9999.69                  : NULL VALUE
 COMP  .      HUSKY OIL OPERATIONS LIMITED   : Company
 WELL  .      RENAISSANCE ET AL PROVOST 3-5-39: Well
 FLD   .      PROVOST                        : Field
 LOC   .                                     : Location
 PRVC  .      ALBERTA                        : Province
 SRVC  .      SCHLUMBERGER                   : Service Company
 DATE  .      03-JUN-83                      : Log Date
 UWI   .      100030503903W400               : Unique Well ID
 LIC   .      0101417                        : Licence Number
 LATI  .      52.3180156                     : Latitude
 LONG  .      -110.400359                    : Longitude
 GDAT  .      NAD27                          : Geodetic Datum
~Parameter
#MNEM  .UNIT        VALUE                      Description
#------.------ ----------------------------- : -------------------------
 RUN   .            1                        : Run Number
 EGL   .M           669.6000                 : Ground Level Elevation
 EREF  .M           673.5500                 : Elevation of Depth Reference
 EKB   .M           673.5000                 : Elevation of Kelly Bushing
 TDL   .M           851.3000                 : Total Depth Logger
 TDD   .M           855.0000                 : Total Depth Driller
 TLI   .M           0.0000                   : Top of Logged Interval
 BLI   .M           0.0000                   : Bottom of Logged Interval
~Curve
#MNEM  .UNIT        API Codes                  Curve description
#------.------ ----------------------------- : -------------------------
 DEPT  .M        0   1  0  0                 : 1 DEPTH
 AC    .US/M     60 520  0  1                : 2 SONIC INTERVAL TRANSIT TIME (COMPENSATED)
 GR    .GAPI     42 310  1  1                : 2 GAMMA RAY
 DEN   .K/M3     42 350  1  1                : 2 BULK DENSITY
~Ascii        DEPT           AC           GR          DEN
# ...
      547.8000       415.1200       129.9450      2247.0000
      548.0000       415.8800       130.2300      2253.0000
      548.2000       416.4400       134.8650      2253.1001
      548.4000       417.1600       137.2800      2247.5000
      548.6000       417.3200       130.1700      2240.7000
      548.8000       417.2800       127.6800      2237.3000
      549.0000       416.8000       126.9000      2236.3999
      549.2000       415.7200       126.2550      2242.3999
      549.4000       414.8000       125.9400      2255.7000
      549.6000       412.6800       126.2700      2263.2000
      549.8000       410.2800       126.8250      2267.6001
      550.0000       408.0400       127.6050      2269.5000
      550.2000       405.8400       130.7700      2269.1001
      550.4000       403.8000       132.0900      2267.6001
      550.6000       404.0000       129.6450      2263.5000
      550.8000       405.4800       129.5850      2254.5000
      551.0000       406.4400       131.1600      2246.8000
      551.2000       407.4000       131.4900      2243.0000
      551.4000       407.9200       129.9000      2244.8000
      551.6000       408.7200       129.1050      2249.1001
      551.8000       409.7200       129.5100      2254.3000
      552.0000       410.3600       131.2800      2258.2000
      552.2000       410.3600       132.5550      2260.1001
      552.4000       410.2800       133.1100      2232.0000
      552.6000       410.2000       129.7950      2224.1001
      552.8000       410.2800       127.5900      2229.8000
      553.0000       410.5600       127.0350      2249.3000
      553.2000       410.9200       127.8000      2255.0000
      553.4000       411.0400       129.1050      2251.3999
      553.6000       410.9600       129.9150      2247.8999
      553.8000       410.4800       129.8250      2249.0000
      554.0000       409.3600       128.3100      2250.6001
      554.2000       408.7600       126.3150      2248.8000
      554.4000       409.2000       124.5150      2247.2000
      554.6000       410.0000       133.2150      2247.3000
      554.8000       410.9200       136.9650      2250.2000
      555.0000       411.2000       138.7050      2260.3000
      555.2000       410.8000       139.4250      2271.0000
      555.4000       408.9600       139.5300      2276.7000
      555.6000       404.8400       138.9450      2264.6001
      555.8000       399.6000       128.2350      2239.2000
      556.0000       389.5600       121.1700      2219.3000
      556.2000       378.5200       114.8100      2206.0000
      556.4000       374.0800       114.0750      2192.8999
      556.6000       378.5600       116.7450      2185.7000
      556.8000       381.7600       120.4800      2182.7000
      557.0000       381.5600       122.2350      2191.0000
      557.2000       378.7200       121.5450      2198.6001
      557.4000       377.2800       117.6150      2198.8999
      557.6000       376.8800       115.7700      2197.7000
      557.8000       382.6800       116.0550      2204.3999
      558.0000       390.0400       115.5600      2209.8000
      558.2000       393.4000       110.1000      2190.8000
      558.4000       390.8000       105.1650      2182.3999
      558.6000       379.2400       103.3500      2194.5000
      558.8000       362.8800       103.8750      2217.6001
      559.0000       357.0400       109.3200      2228.1001
      559.2000       360.0800       119.5200      2230.5000
      559.4000       368.1200       130.9650      2203.0000
      559.6000       376.2800       135.0000      2196.3000
      559.8000       381.9600       129.1200      2197.3999
      560.0000       384.8400       128.8500      2217.5000
      560.2000       384.3600       128.8500      2225.3999
      560.4000       383.7600       126.1950      2227.6001
      560.6000       383.5200       123.4650      2217.8999
      560.8000       383.5200       123.7500      2217.3000
      561.0000       383.6800       127.3650      2215.8000
      561.2000       385.1200       128.5800      2200.8000
      561.4000       385.6000       127.5150      2194.5000
      561.6000       385.4400       128.0100      2190.8000
      561.8000       384.8000       132.7800      2186.1001
      562.0000       383.2400       137.2800      2183.5000
      562.2000       380.9200       140.5200      2183.7000
      562.4000       380.4400       143.0100      2184.8000
      562.6000       380.7600       145.5000      2187.8000
      562.8000       384.0800       137.3550      2195.3000
      563.0000       386.9200       130.2600      2201.1001
      563.2000       388.5200       127.2150      2206.2000
      563.4000       386.4400       127.6350      2206.6001
      563.6000       382.2400       135.1650      2207.5000
      563.8000       371.6400       134.7750      2213.1001
      564.0000       361.4400       120.6300      2229.8999
      564.2000       359.0000       117.4350      2245.8000
      564.4000       362.8800       122.6550      2193.0000
      564.6000       367.9600       130.9950      2185.2000
      564.8000       365.5200       131.5050      2192.1001
      565.0000       363.0000       129.1800      2234.6001
      565.2000       371.8000       129.6750      2261.8000
      565.4000       384.8400       134.1450      2256.6001
      565.6000       395.0800       134.8050      2257.0000
      565.8000       403.4400       136.3350      2274.1001
      566.0000       407.6400       140.6400      2289.0000
      566.2000       409.7200       148.3200      2294.3000
      566.4000       410.8400       154.1250      2295.8000
      566.6000       411.6800       159.4800      2289.8000
      566.8000       411.9600       159.8850      2285.3000
      567.0000       412.1600       165.5850      2287.1001
      567.2000       412.1600       168.5700      2294.3000
      567.4000       412.1600       167.6850      2286.3000
      567.6000       411.8800       167.9700      2276.3999
      567.8000       411.4800       170.2500      2274.8999
      568.0000       410.3200       165.9450      2284.8999
      568.2000       408.6000       161.8800      2296.5000
      568.4000       407.3600       159.5100      2304.2000
      568.6000       406.6400       158.8500      2310.3999
      568.8000       408.2000       161.1450      2315.7000
      569.0000       411.0000       182.1450      2300.5000
      569.2000       411.2000       207.6450      2285.5000
      569.4000       393.8400       247.8300      2282.8999
      569.6000       386.5600       271.5750      2295.8999
      569.8000       391.2400       277.3350      2258.8999
      570.0000       403.0400       264.1050      2193.1001
      570.2000       411.5600       257.1300      2160.8000
      570.4000       406.4400       249.0150      2171.0000
      570.6000       396.6800       234.6150      2267.2000
      570.8000       383.9600       218.5950      2288.1001
      571.0000       399.9600       211.0200      2220.5000
      571.2000       420.8000       201.0900      2186.3999
      571.4000       419.2800       191.8350      2176.1001
      571.6000       410.2000       184.2000      2235.2000
      571.8000       405.1200       178.2300      2214.2000
      572.0000       400.0000       174.6300      2157.0000
      572.2000       413.2800       173.4300      2138.8000
      572.4000       426.5200       178.6800      2131.3000
      572.6000       435.2800       166.9950      2149.8000
      572.8000       434.9600       151.7100      2179.0000
      573.0000       433.8000       121.2750      2199.8999
      573.2000       432.1600       115.6200      2210.8000
      573.4000       430.6800       114.2850      2221.7000
      573.6000       429.4800       114.6450      2230.3999
      573.8000       428.7600       113.4600      2224.8000
      574.0000       428.0400       110.1750      2212.8000
      574.2000       427.7200       107.6250      2211.8000
      574.4000       427.5600       105.9300      2203.8999
