~Version Information
# Data Copyright 2013 (C) geoLOGIC systems ltd.
 VERS  .     2.00 : LOG ASCII STANDARD -VERSION 2.0
 WRAP  .     NO   : ONE LINE PER DEPTH STEP
 PROD  .      geoLOGIC systems ltd.          : LAS Producer
 CREA  .      25/02/2013                     : LAS Creation date {MM/DD/YYYY}
~Well
#MNEM  .UNIT        Data                       Description of Mnemonic
#------.------ ----------------------------- : -------------------------
 STRT  .M          119.0000                  : START DEPTH
 STOP  .M          852.6000                  : STOP DEPTH
 STEP  .M            0.2000                  : STEP DEPTH
 NULL  .           -9999.69                  : NULL VALUE
 COMP  .      HUSKY OIL OPERATIONS LIMITED   : Company
 WELL  .      RENAISSANCE ET AL PROVOST 3-5-39: Well
 FLD   .      PROVOST                        : Field
 LOC   .                                     : Location
 PRVC  .      ALBERTA                        : Province
 SRVC  .      SCHLUMBERGER                   : Service Company
 DATE  .      03-JUN-83                      : Log Date
 UWI   .      100030503903W400               : Unique Well ID
 LIC   .      0101417                        : Licence Number
 LATI  .      52.3180156                     : Latitude
 LONG  .      -110.400359                    : Longitude
 GDAT  .      NAD27                          : Geodetic Datum
~Parameter
#MNEM  .UNIT        VALUE                      Description
#------.------ ----------------------------- : -------------------------
 RUN   .            1                        : Run Number
 EGL   .M           669.6000                 : Ground Level Elevation
 EREF  .M           673.5500                 : Elevation of Depth Reference
 EKB   .M           673.5000                 : Elevation of Kelly Bushing
 TDL   .M           851.3000                 : Total Depth Logger
 TDD   .M           855.0000                 : Total Depth Driller
 TLI   .M           0.0000                   : Top of Logged Interval
 BLI   .M           0.0000                   : Bottom of Logged Interval
~Curve
#MNEM  .UNIT        API Codes                  Curve description
#------.------ ----------------------------- : -------------------------
 DEPT  .M        0   1  0  0                 : 1 DEPTH
 AC    .US/M     60 520  0  1                : 2 SONIC INTERVAL TRANSIT TIME (COMPENSATED)
 GR    .GAPI     42 310  1  1                : 2 GAMMA RAY
 DEN   .K/M3     42 350  1  1                : 2 BULK DENSITY
~Ascii        DEPT           AC           GR          DEN
# ...
      306.6000       427.4000        83.3100      2159.3000
      306.8000       432.1200        83.5500      2153.1001
      307.0000       434.2400        83.2500      2157.2000
      307.2000       433.6000        82.0950      2177.8000
      307.4000       429.7200        86.2650      2188.8000
      307.6000       425.9200        89.1150      2177.7000
      307.8000       423.0400        90.2250      2184.8000
      308.0000       421.1600        88.6050      2199.2000
      308.2000       419.8800        89.1750      2192.0000
      308.4000       419.1200        90.7950      2186.3999
      308.6000       418.9600        91.4550      2193.0000
      308.8000       420.3600        90.0450      2208.5000
      309.0000       423.0400        88.3350      2196.0000
      309.2000       425.5600        87.0000      2191.2000
      309.4000       427.6400        86.4750      2192.8000
      309.6000       428.6000        89.7900      2197.8000
      309.8000       428.4800        90.9000      2201.6001
      310.0000       427.6400        89.2950      2198.0000
      310.2000       425.4000        88.1550      2189.7000
      310.4000       424.6000        87.8100      2179.0000
      310.6000       425.1200        87.8100      2173.7000
      310.8000       426.2400        87.4350      2183.0000
      311.0000       425.1600        86.5950      2202.0000
      311.2000       421.6800        85.8150      2199.7000
      311.4000       417.6800        85.8600      2189.3999
      311.6000       414.8000        87.4050      2185.0000
      311.8000       414.4400        89.7450      2184.1001
      312.0000       416.6400        91.7100      2184.7000
      312.2000       418.0000        93.2250      2186.2000
      312.4000       415.7600        94.4550      2190.8000
      312.6000       413.2400        95.7000      2198.8999
      312.8000       411.2800        96.8550      2188.2000
      313.0000       412.2000        93.3150      2168.8000
      313.2000       413.7600        93.1050      2154.5000
      313.4000       411.8400        93.7500      2151.8999
      313.6000       408.3600        93.3150      2173.5000
      313.8000       403.9200        92.1450      2191.3999
      314.0000       398.4800        91.4700      2204.0000
      314.2000       391.4000        91.7550      2212.0000
      314.4000       390.6400        92.1600      2193.6001
      314.6000       391.8400        92.8800      2173.5000
      314.8000       399.0800        93.6600      2162.0000
      315.0000       407.8000        94.2450      2158.3000
      315.2000       413.8000        94.4850      2161.6001
      315.4000       418.4000        93.9150      2168.7000
      315.6000       421.8800        92.6100      2176.1001
      315.8000       425.2000        92.5350      2183.5000
      316.0000       427.6800        92.9100      2190.3999
      316.2000       430.4400        92.1900      2199.6001
      316.4000       432.1200        91.3950      2205.6001
      316.6000       430.7600        91.9050      2202.8000
      316.8000       427.5600        93.2250      2183.3999
      317.0000       423.9600        93.8700      2172.5000
      317.2000       420.4000        93.5250      2168.6001
      317.4000       420.6400        92.9100      2182.0000
      317.6000       422.8400        93.6900      2192.3999
      317.8000       420.6800        95.0550      2197.6001
      318.0000       418.9200        96.0600      2187.8000
      318.2000       417.1600        93.5400      2177.8999
      318.4000       414.4400        91.9350      2172.0000
      318.6000       411.8800        91.5750      2166.3999
      318.8000       409.5600        92.4000      2160.1001
      319.0000       407.6000        93.2100      2153.1001
      319.2000       407.4800        93.3450      2146.5000
      319.4000       408.8000        93.0900      2141.3000
      319.6000       410.4000        92.5950      2138.2000
      319.8000       412.5200        92.2950      2137.2000
      320.0000       414.4800        92.8500      2136.8000
      320.2000       416.4000        93.2700      2137.3999
      320.4000       417.8800        93.1350      2143.7000
      320.6000       419.2800        92.2650      2161.8999
      320.8000       420.0800        91.4550      2176.7000
      321.0000       420.2400        91.0800      2176.5000
      321.2000       419.8000        91.5150      2174.3000
      321.4000       418.0000        92.4150      2180.8000
      321.6000       416.1600        93.9900      2195.1001
      321.8000       415.7200        95.5050      2200.8000
      322.0000       415.6000        97.5000      2195.5000
      322.2000       413.6000        99.6450      2191.8000
      322.4000       410.2400       101.6700      2192.3999
      322.6000       404.4000       100.5600      2149.1001
      322.8000       399.5200       100.2000      2119.3999
      323.0000       397.1200       100.3350      2119.6001
      323.2000       402.2400       101.5500      2123.5000
      323.4000       406.6800       103.2600      2116.2000
      323.6000       411.4800       104.8050      2119.2000
      323.8000       412.8000       101.4150      2137.1001
      324.0000       412.6800        97.9350      2146.0000
      324.2000       413.9200        95.8200      2136.0000
      324.4000       417.0000        95.0850      2126.3000
      324.6000       420.6400        98.6700      2125.8000
      324.8000       423.0800       103.4400      2134.3000
      325.0000       423.8000       103.6050      2141.7000
      325.2000       423.8000       101.8800      2142.0000
      325.4000       422.7200       101.5350      2150.3999
      325.6000       421.1200       102.4950      2192.5000
      325.8000       419.3600       103.9350      2221.1001
      326.0000       417.3600       106.1400      2227.3000
      326.2000       414.3200       108.1800      2221.0000
      326.4000       408.0400       110.3100      2221.3999
      326.6000       399.9200       110.1300      2232.8000
      326.8000       403.0000       106.4550      2225.3999
      327.0000       411.7600       102.7200      2191.3999
      327.2000       421.4400       101.7450      2155.2000
      327.4000       416.4800       101.7150      2154.2000
      327.6000       407.2000       102.2700      2180.6001
      327.8000       400.1200       103.4550      2192.8999
      328.0000       395.8000       106.4550      2189.8000
      328.2000       396.6000       108.1350      2187.1001
      328.4000       397.4800       104.8200      2186.3999
      328.6000       398.9600       102.9450      2185.7000
      328.8000       401.0000       102.8700      2157.2000
      329.0000       403.5200       103.3200      2133.2000
      329.2000       406.5200       103.6650      2112.3000
      329.4000       408.9200       102.7500      2095.2000
      329.6000       407.8800       103.0650      2131.3000
      329.8000       404.8400       105.0000      2166.3999
      330.0000       401.4800       107.1300      2190.6001
      330.2000       400.0400       108.7350      2192.2000
      330.4000       401.0800       109.9500      2194.7000
      330.6000       403.5200       107.2800      2213.6001
      330.8000       406.6800       102.7800      2225.3000
      331.0000       411.7200       100.9800      2214.3000
      331.2000       413.7600       100.5600      2200.3999
      331.4000       410.2000       103.0350      2187.8999
      331.6000       404.0000       105.5850      2180.5000
      331.8000       394.6800       104.1750      2190.6001
      332.0000       392.0800       103.4700      2199.8000
      332.2000       393.3200       104.2200      2201.7000
      332.4000       399.7600       105.9600      2197.3000
      332.6000       403.3600       107.7900      2189.7000
      332.8000       405.0400       109.1400      2176.3999
      333.0000       405.6000       109.7850      2155.1001
      333.2000       406.0000       106.4550      2134.3000
