~Version Information
# Data Copyright 2013 (C) geoLOGIC systems ltd.
 VERS  .     2.00 : LOG ASCII STANDARD -VERSION 2.0
 WRAP  .     NO   : ONE LINE PER DEPTH STEP
 PROD  .      geoLOGIC systems ltd.          : LAS Producer
 CREA  .      25/02/2013                     : LAS Creation date {MM/DD/YYYY}
~Well
#MNEM  .UNIT        Data                       Description of Mnemonic
#------.------ ----------------------------- : -------------------------
 STRT  .M          119.0000                  : START DEPTH
 STOP  .M          852.6000                  : STOP DEPTH
 STEP  .M            0.2000                  : STEP DEPTH
 NULL  .           -9999.69                  : NULL VALUE
 COMP  .      HUSKY OIL OPERATIONS LIMITED   : Company
 WELL  .      RENAISSANCE ET AL PROVOST 3-5-39: Well
 FLD   .      PROVOST                        : Field
 LOC   .                                     : Location
 PRVC  .      ALBERTA                        : Province
 SRVC  .      SCHLUMBERGER                   : Service Company
 DATE  .      03-JUN-83                      : Log Date
 UWI   .      100030503903W400               : Unique Well ID
 LIC   .      0101417                        : Licence Number
 LATI  .      52.3180156                     : Latitude
 LONG  .      -110.400359                    : Longitude
 GDAT  .      NAD27                          : Geodetic Datum
~Parameter
#MNEM  .UNIT        VALUE                      Description
#------.------ ----------------------------- : -------------------------
 RUN   .            1                        : Run Number
 EGL   .M           669.6000                 : Ground Level Elevation
 EREF  .M           673.5500                 : Elevation of Depth Reference
 EKB   .M           673.5000                 : Elevation of Kelly Bushing
 TDL   .M           851.3000                 : Total Depth Logger
 TDD   .M           855.0000                 : Total Depth Driller
 TLI   .M           0.0000                   : Top of Logged Interval
 BLI   .M           0.0000                   : Bottom of Logged Interval
~Curve
#MNEM  .UNIT        API Codes                  Curve description
#------.------ ----------------------------- : -------------------------
 DEPT  .M        0   1  0  0                 : 1 DEPTH
 AC    .US/M     60 520  0  1                : 2 SONIC INTERVAL TRANSIT TIME (COMPENSATED)
 GR    .GAPI     42 310  1  1                : 2 GAMMA RAY
 DEN   .K/M3     42 350  1  1                : 2 BULK DENSITY
~Ascii        DEPT           AC           GR          DEN
# ...
      387.0000       387.2400       114.7200      2296.2000
      387.2000       387.2400       117.5550      2309.3999
      387.4000       389.5200       117.5550      2312.8999
      387.6000       391.8800       117.6450      2292.8000
      387.8000       394.0400       118.1700      2286.5000
      388.0000       395.6000       114.9150      2290.2000
      388.2000       384.3600       110.8650      2309.8000
      388.4000       375.2800       107.0550      2315.3000
      388.6000       368.0000       103.8300      2287.8999
      388.8000       366.5200       102.1350      2253.1001
      389.0000       369.7200       101.8650      2220.8999
      389.2000       373.7200       103.3500      2207.2000
      389.4000       375.9600       105.5400      2208.7000
      389.6000       370.3600       102.5250      2223.1001
      389.8000       367.4800       100.8600      2257.2000
      390.0000       369.6000       100.6650      2278.8000
      390.2000       369.0800       101.2950      2281.3999
      390.4000       346.3600       101.9850      2271.8999
      390.6000       328.4400       102.9000      2290.3999
      390.8000       329.3200       103.6650      2325.2000
      391.0000       340.1200       105.2100      2338.1001
      391.2000       369.2800       106.2450      2317.0000
      391.4000       374.7600       107.3850      2305.8000
      391.6000       374.6400       108.3900      2296.3999
      391.8000       372.4000       109.3950      2285.8000
      392.0000       367.4400       110.0850      2280.8000
      392.2000       361.3200       110.5500      2302.3000
      392.4000       361.4800       108.8700      2338.8999
      392.6000       365.6400       106.2300      2339.3999
      392.8000       371.5200       103.9800      2306.2000
      393.0000       374.4400       103.0200      2286.3999
      393.2000       373.7200       102.1350      2277.1001
      393.4000       372.3200       101.1600      2245.2000
      393.6000       372.6800       100.2000      2206.8999
      393.8000       371.6400        99.4950      2189.1001
      394.0000       367.9600        99.2250      2196.8000
      394.2000       363.8400        99.8400      2232.5000
      394.4000       361.8400       100.9650      2226.0000
      394.6000       365.4000       102.6750      2209.3999
      394.8000       376.5200       104.1600      2196.8000
      395.0000       417.7200       105.4350      2190.1001
      395.2000       426.6000       106.6350      2190.5000
      395.4000       427.3200       105.2400      2199.3999
      395.6000       406.4400       105.4200      2221.0000
      395.8000       384.7200       106.0950      2254.3000
      396.0000       355.3600       103.8000      2351.6001
      396.2000       360.5200       101.1600      2404.8000
      396.4000       393.9200       102.2550      2431.6001
      396.6000       401.1200       107.8350      2378.3999
      396.8000       408.4000       112.1250      2316.7000
      397.0000       417.8800       114.5250      2307.5000
      397.2000       428.2800       111.0150      2310.6001
      397.4000       419.8000       108.7200      2312.3000
      397.6000       395.4800       109.3050      2305.1001
      397.8000       384.8800       111.5850      2302.6001
      398.0000       381.7600       112.2450      2303.3999
      398.2000       380.7600       109.7250      2299.3000
      398.4000       381.7600       108.5550      2291.0000
      398.6000       383.6800       113.4000      2286.6001
      398.8000       386.2000       117.1200      2285.7000
      399.0000       389.0400       117.3600      2287.7000
      399.2000       390.9600       116.8950      2278.0000
      399.4000       390.3200       115.6050      2249.8000
      399.6000       388.6400       112.6050      2225.7000
      399.8000       386.9200       109.1250      2209.3999
      400.0000       385.7200       106.8750      2199.8999
      400.2000       388.0000       105.6600      2192.3000
      400.4000       392.3200       106.5750      2184.7000
      400.6000       394.8400       109.2600      2177.2000
      400.8000       395.3200       113.2050      2171.3999
      401.0000       389.6800       102.0600      2281.1001
      401.2000       346.7600        97.9050      2346.1001
      401.4000       318.4400        96.9150      2394.5000
      401.6000       326.3200       102.0900      2375.3999
      401.8000       353.4400       111.0900      2314.3999
      402.0000       371.1200       115.3200      2284.3999
      402.2000       373.0000       115.8000      2311.0000
      402.4000       375.8400       116.1000      2327.3999
      402.6000       387.8000       117.5850      2310.6001
      402.8000       395.9200       117.9000      2286.0000
      403.0000       392.8400       109.2900      2274.3000
      403.2000       387.4000       105.4500      2275.2000
      403.4000       382.8400       104.0400      2278.0000
      403.6000       378.5600       103.9650      2280.0000
      403.8000       377.2400       104.6550      2284.3000
      404.0000       375.8800       106.3800      2292.3000
      404.2000       376.3600       108.0750      2306.8000
      404.4000       377.8400       102.2400      2334.2000
      404.6000       360.7600        98.0850      2365.6001
      404.8000       322.5600        96.6750      2407.5000
      405.0000       327.9200        97.8300      2388.7000
      405.2000       372.8400        99.9900      2320.1001
      405.4000       383.6800       102.6900      2302.5000
      405.6000       379.9600       104.6850      2295.3999
      405.8000       373.3200       106.3050      2296.7000
      406.0000       370.2000       107.0250      2294.2000
      406.2000       374.0400       107.7000      2288.6001
      406.4000       378.4400       109.4400      2286.5000
      406.6000       378.7200       112.2600      2295.5000
      406.8000       372.0000       114.7500      2309.8999
      407.0000       364.9200       116.3250      2322.6001
      407.2000       370.1200       113.5950      2329.8000
      407.4000       377.4000       110.6850      2327.3000
      407.6000       385.1200       109.5450      2320.0000
      407.8000       387.8800       114.9150      2313.1001
      408.0000       385.9600       117.9900      2308.1001
      408.2000       387.3600       115.8750      2304.8000
      408.4000       389.6000       114.3300      2303.0000
      408.6000       392.1200       112.7550      2304.0000
      408.8000       392.9200       111.5250      2301.8999
      409.0000       390.4000       111.0600      2305.3999
      409.2000       387.4000       111.7950      2321.3000
      409.4000       391.4400       107.3850      2329.8000
      409.6000       404.5600       105.7950      2328.3999
      409.8000       411.2000       107.0700      2314.5000
      410.0000       407.8800       108.9750      2303.2000
      410.2000       393.8400       110.9250      2295.7000
      410.4000       392.6400       112.4100      2293.6001
      410.6000       410.7600       113.0700      2306.6001
      410.8000       409.4400       112.8300      2335.1001
      411.0000       399.1600       112.8300      2371.2000
      411.2000       386.9200       112.1100      2417.7000
      411.4000       392.4000       111.3900      2406.0000
      411.6000       407.5200       113.0700      2354.0000
      411.8000       429.3200       115.8600      2319.0000
      412.0000       441.7600       118.2900      2302.8000
      412.2000       440.4000       113.4450      2302.7000
      412.4000       418.9600       108.7950      2330.2000
      412.6000       382.5600       107.5350      2375.1001
      412.8000       388.7200       107.1150      2353.8000
      413.0000       398.1600       109.3500      2321.8000
      413.2000       406.2800       111.6600      2297.3000
      413.4000       407.9600       112.8300      2280.8999
      413.6000       407.2800       110.7300      2272.8000
