~Version Information
# Data Copyright 2013 (C) geoLOGIC systems ltd.
 VERS  .     2.00 : LOG ASCII STANDARD -VERSION 2.0
 WRAP  .     NO   : ONE LINE PER DEPTH STEP
 PROD  .      geoLOGIC systems ltd.          : LAS Producer
 CREA  .      25/02/2013                     : LAS Creation date {MM/DD/YYYY}
~Well
#MNEM  .UNIT        Data                       Description of Mnemonic
#------.------ ----------------------------- : -------------------------
 STRT  .M          119.0000                  : START DEPTH
 STOP  .M          852.6000                  : STOP DEPTH
 STEP  .M            0.2000                  : STEP DEPTH
 NULL  .           -9999.69                  : NULL VALUE
 COMP  .      HUSKY OIL OPERATIONS LIMITED   : Company
 WELL  .      RENAISSANCE ET AL PROVOST 3-5-39: Well
 FLD   .      PROVOST                        : Field
 LOC   .                                     : Location
 PRVC  .      ALBERTA                        : Province
 SRVC  .      SCHLUMBERGER                   : Service Company
 DATE  .      03-JUN-83                      : Log Date
 UWI   .      100030503903W400               : Unique Well ID
 LIC   .      0101417                        : Licence Number
 LATI  .      52.3180156                     : Latitude
 LONG  .      -110.400359                    : Longitude
 GDAT  .      NAD27                          : Geodetic Datum
~Parameter
#MNEM  .UNIT        VALUE                      Description
#------.------ ----------------------------- : -------------------------
 RUN   .            1                        : Run Number
 EGL   .M           669.6000                 : Ground Level Elevation
 EREF  .M           673.5500                 : Elevation of Depth Reference
 EKB   .M           673.5000                 : Elevation of Kelly Bushing
 TDL   .M           851.3000                 : Total Depth Logger
 TDD   .M           855.0000                 : Total Depth Driller
 TLI   .M           0.0000                   : Top of Logged Interval
 BLI   .M           0.0000                   : Bottom of Logged Interval
~Curve
#MNEM  .UNIT        API Codes                  Curve description
#------.------ ----------------------------- : -------------------------
 DEPT  .M        0   1  0  0                 : 1 DEPTH
 AC    .US/M     60 520  0  1                : 2 SONIC INTERVAL TRANSIT TIME (COMPENSATED)
 GR    .GAPI     42 310  1  1                : 2 GAMMA RAY
 DEN   .K/M3     42 350  1  1                : 2 BULK DENSITY
~Ascii        DEPT           AC           GR          DEN
# ...
      628.2000       407.0400       130.6800      2274.3999
      628.4000       407.6400       131.5500      2277.1001
      628.6000       407.1600       131.6550      2283.6001
      628.8000       405.9600       131.6550      2284.5000
      629.0000       404.6400       131.5350      2284.8999
      629.2000       402.2800       131.0250      2298.3999
      629.4000       398.6400       126.5700      2331.6001
      629.6000       377.4400       120.6900      2394.1001
      629.8000       365.6000       113.8200      2448.8999
      630.0000       370.9600       110.8050      2364.8000
      630.2000       380.4000       112.2600      2269.3000
      630.4000       398.8000       116.7300      2250.5000
      630.6000       411.3600       120.9600      2241.3000
      630.8000       408.0400       124.7100      2238.0000
      631.0000       403.9200       127.6800      2240.8000
      631.2000       401.4000       120.4200      2257.3000
      631.4000       399.2000       118.6950      2278.8999
      631.6000       397.0400       118.2900      2293.3000
      631.8000       395.0800       117.9300      2299.8000
      632.0000       392.1600       117.5700      2300.3000
      632.2000       387.3200       118.3950      2291.7000
      632.4000       386.9600       121.4100      2265.0000
      632.6000       391.4000       125.3700      2250.5000
      632.8000       396.7600       129.0000      2243.7000
      633.0000       403.2000       131.0400      2252.2000
      633.2000       405.7600       130.6800      2267.7000
      633.4000       406.0800       132.4950      2275.8000
      633.6000       405.8400       136.1100      2260.3000
      633.8000       405.6400       137.0400      2246.8000
      634.0000       405.0800       127.4250      2249.0000
      634.2000       404.1200       126.4350      2273.1001
      634.4000       402.3600       127.8450      2300.3000
      634.6000       400.2000       129.1200      2317.5000
      634.8000       397.7600       130.0350      2325.1001
      635.0000       395.8400       129.9450      2322.2000
      635.2000       397.5600       129.3750      2296.2000
      635.4000       402.7600       128.8500      2278.8999
      635.6000       407.1200       128.7300      2269.0000
      635.8000       411.0800       128.7300      2263.6001
      636.0000       411.0400       128.2500      2261.6001
      636.2000       408.9600       127.4100      2263.2000
      636.4000       406.3600       125.4150      2270.8999
      636.6000       403.2000       124.2450      2288.1001
      636.8000       400.5600       124.5600      2304.1001
      637.0000       398.1600       123.8400      2319.3999
      637.2000       396.4000       121.0500      2324.8000
      637.4000       394.9600       120.3300      2317.3999
      637.6000       392.0000       121.9050      2308.7000
      637.8000       383.4800       122.9100      2368.8999
      638.0000       377.2000       114.2700      2389.3000
      638.2000       378.6400       112.4550      2414.2000
      638.4000       381.4800       115.5750      2376.0000
      638.6000       385.0400       119.6250      2320.3999
      638.8000       388.4800       121.5900      2301.6001
      639.0000       389.1600       121.1100      2294.8999
      639.2000       390.1200       121.0800      2291.2000
      639.4000       392.4000       121.2000      2290.5000
      639.6000       394.0400       121.8000      2290.7000
      639.8000       394.2000       123.1050      2293.5000
      640.0000       394.5200       126.0900      2298.1001
      640.2000       395.5600       129.5250      2298.8000
      640.4000       397.1200       132.1350      2285.0000
      640.6000       398.3200       133.9650      2288.5000
      640.8000       390.0800       111.1350      2463.7000
      641.0000       372.5600        98.9850      2530.0000
      641.2000       328.8800        96.4350      2502.3999
      641.4000       339.4400       110.3400      2320.3999
      641.6000       362.1600       119.9850      2278.8000
      641.8000       398.1600       122.8350      2263.7000
      642.0000       400.8800       124.5150      2263.0000
      642.2000       400.8400       126.7200      2276.1001
      642.4000       399.6800       127.6500      2289.3000
      642.6000       397.6400       126.8400      2302.5000
      642.8000       394.8000       125.4750      2311.5000
      643.0000       390.7200       124.4700      2314.3999
      643.2000       386.6400       124.3650      2321.8000
      643.4000       383.1200       120.8100      2329.3999
      643.6000       386.5600       117.8850      2331.5000
      643.8000       391.3200       118.0050      2314.6001
      644.0000       395.2000       121.9050      2302.6001
      644.2000       397.5200       124.2450      2299.2000
      644.4000       399.2400       123.8850      2297.8000
      644.6000       400.1600       123.8100      2297.3999
      644.8000       400.1200       125.2200      2295.0000
      645.0000       400.0000       129.6000      2293.8000
      645.2000       400.0000       132.9150      2294.5000
      645.4000       399.0000       133.3350      2303.8000
      645.6000       397.0000       129.5100      2317.8999
      645.8000       393.8800       127.2900      2322.8000
      646.0000       390.4400       125.8050      2322.0000
      646.2000       387.8400       124.5450      2319.3000
      646.4000       391.0800       123.0150      2316.3000
      646.6000       394.3200       121.5450      2312.6001
      646.8000       395.4800       120.9600      2308.8000
      647.0000       395.4800       120.9450      2305.0000
      647.2000       394.8800       123.0450      2302.3000
      647.4000       394.3200       125.0850      2302.2000
      647.6000       393.7600       124.8600      2307.1001
      647.8000       393.0000       126.7200      2316.6001
      648.0000       392.1600       124.5000      2316.7000
      648.2000       391.2000       121.6800      2307.1001
      648.4000       390.2000       120.4800      2301.8000
      648.6000       389.0400       117.7350      2313.0000
      648.8000       386.1600       111.0750      2387.3000
      649.0000       379.7200       103.8000      2503.8999
      649.2000       372.8000        99.4500      2581.1001
      649.4000       344.4800       103.5600      2562.2000
      649.6000       340.2000       112.9200      2463.0000
      649.8000       354.8000       115.7850      2380.8000
      650.0000       366.2800       115.8600      2358.6001
      650.2000       374.9600       115.7850      2362.3999
      650.4000       373.0800       116.1000      2368.6001
      650.6000       370.0000       116.1000      2352.8999
      650.8000       366.4000       115.6200      2339.7000
      651.0000       362.9200       115.8600      2334.2000
      651.2000       360.1200       117.7800      2331.8999
      651.4000       362.1600       120.5850      2331.8999
      651.6000       368.0000       123.1800      2334.6001
      651.8000       368.0400       101.5950      2342.1001
      652.0000       365.4400        99.7200      2365.8000
      652.2000       349.6800        97.8600      2428.5000
      652.4000       334.7200        96.0000      2531.8999
      652.6000       340.2800       109.2600      2510.8000
      652.8000       346.5600       114.6450      2408.3999
      653.0000       353.3600       113.6250      2350.0000
      653.2000       377.8000       109.2000      2309.8999
      653.4000       375.4000       109.6950      2320.8999
      653.6000       374.1200       113.1900      2320.8000
      653.8000       374.4400       115.0800      2283.2000
      654.0000       381.0800       114.0300      2256.0000
      654.2000       388.2000       113.5800      2245.8000
      654.4000       390.6400       116.1150      2261.8000
      654.6000       390.7200       118.0500      2298.8999
      654.8000       390.9200       113.8500      2315.7000
