~Version Information
# Data Copyright 2013 (C) geoLOGIC systems ltd.
 VERS  .     2.00 : LOG ASCII STANDARD -VERSION 2.0
 WRAP  .     NO   : ONE LINE PER DEPTH STEP
 PROD  .      geoLOGIC systems ltd.          : LAS Producer
 CREA  .      25/02/2013                     : LAS Creation date {MM/DD/YYYY}
~Well
#MNEM  .UNIT        Data                       Description of Mnemonic
#------.------ ----------------------------- : -------------------------
 STRT  .M          119.0000                  : START DEPTH
 STOP  .M          852.6000                  : STOP DEPTH
 STEP  .M            0.2000                  : STEP DEPTH
 NULL  .           -9999.69                  : NULL VALUE
 COMP  .      HUSKY OIL OPERATIONS LIMITED   : Company
 WELL  .      RENAISSANCE ET AL PROVOST 3-5-39: Well
 FLD   .      PROVOST                        : Field
 LOC   .                                     : Location
 PRVC  .      ALBERTA                        : Province
 SRVC  .      SCHLUMBERGER                   : Service Company
 DATE  .      03-JUN-83                      : Log Date
 UWI   .      100030503903W400               : Unique Well ID
 LIC   .      0101417                        : Licence Number
 LATI  .      52.3180156                     : Latitude
 LONG  .      -110.400359                    : Longitude
 GDAT  .      NAD27                          : Geodetic Datum
~Parameter
#MNEM  .UNIT        VALUE                      Description
#------.------ ----------------------------- : -------------------------
 RUN   .            1                        : Run Number
 EGL   .M           669.6000                 : Ground Level Elevation
 EREF  .M           673.5500                 : Elevation of Depth Reference
 EKB   .M           673.5000                 : Elevation of Kelly Bushing
 TDL   .M           851.3000                 : Total Depth Logger
 TDD   .M           855.0000                 : Total Depth Driller
 TLI   .M           0.0000                   : Top of Logged Interval
 BLI   .M           0.0000                   : Bottom of Logged Interval
~Curve
#MNEM  .UNIT        API Codes                  Curve description
#------.------ ----------------------------- : -------------------------
 DEPT  .M        0   1  0  0                 : 1 DEPTH
 AC    .US/M     60 520  0  1                : 2 SONIC INTERVAL TRANSIT TIME (COMPENSATED)
 GR    .GAPI     42 310  1  1                : 2 GAMMA RAY
 DEN   .K/M3     42 350  1  1                : 2 BULK DENSITY
~Ascii        DEPT           AC           GR          DEN
# ...
      735.4000       262.2800        80.7300      2524.3000
      735.6000       271.1600        87.0000      2448.1001
      735.8000       281.8400        83.7900      2416.8999
      736.0000       282.4400        74.8050      2512.7000
      736.2000       245.6400        69.7650      2582.5000
      736.4000       228.8400        68.4900      2629.6001
      736.6000       209.5600        69.3900      2685.8999
      736.8000       215.9200        73.7700      2648.8999
      737.0000       236.4400        76.5300      2595.8000
      737.2000       259.3600        79.2900      2546.7000
      737.4000       273.5600        84.1350      2484.6001
      737.6000       286.8400        89.1600      2420.5000
      737.8000       304.8000        93.8850      2392.0000
      738.0000       302.3600        96.1200      2392.3999
      738.2000       298.0000        95.4150      2414.5000
      738.4000       298.1600        94.4850      2349.1001
      738.6000       315.2800        91.1550      2241.5000
      738.8000       383.8400        84.1200      2000.8000
      739.0000       389.2800        79.6650      1862.4000
      739.2000       389.8800        86.1900      1870.7000
      739.4000       378.2800        96.5250      2186.6001
      739.6000       335.1200       100.8000      2423.7000
      739.8000       303.9600        97.4250      2467.8000
      740.0000       292.7200        94.9650      2474.2000
      740.2000       290.9600        93.4950      2448.5000
      740.4000       293.7600        93.5550      2426.8000
      740.6000       294.8400        95.7900      2423.5000
      740.8000       291.5200        97.5300      2514.5000
      741.0000       281.6400        94.2300      2564.6001
      741.2000       271.8000        90.8400      2586.7000
      741.4000       270.4000        90.8100      2611.8000
      741.6000       275.7200        95.0850      2541.3000
      741.8000       285.8400        98.7750      2485.3999
      742.0000       321.0400       102.0600      2294.5000
      742.2000       346.8800        97.1100      2033.2000
      742.4000       390.0400        89.7600      1999.2000
      742.6000       399.0400        86.9100      1773.3000
      742.8000       399.5200        87.0000      1864.5000
      743.0000       391.4400        91.0200      1991.6000
      743.2000       365.6800        94.4850      2127.0000
      743.4000       341.6400       102.7500      2335.3000
      743.6000       321.8000       106.2600      2361.2000
      743.8000       313.6000        98.4300      2362.3000
      744.0000       310.0400        90.5550      2368.0000
      744.2000       305.2000        84.2550      2382.1001
      744.4000       298.5600        79.0650      2376.7000
      744.6000       290.1600        74.7300      2374.0000
      744.8000       280.9200        72.0600      2421.2000
      745.0000       270.5600        70.6800      2452.1001
      745.2000       267.3200        70.6800      2471.8000
      745.4000       268.0800        71.5350      2455.6001
      745.6000       278.3600        74.8350      2438.8000
      745.8000       287.7200        79.2150      2422.3999
      746.0000       295.5600        83.8650      2398.1001
      746.2000       303.9200        87.9450      2368.8000
      746.4000       314.6400        92.9250      2335.1001
      746.6000       322.9600        95.1600      2318.6001
      746.8000       328.0000        92.2350      2312.8999
      747.0000       319.1200        89.4600      2336.3999
      747.2000       307.7200        89.7900      2356.3999
      747.4000       306.4800        90.3300      2345.8999
      747.6000       308.8800        90.1200      2333.2000
      747.8000       311.8800        86.9550      2321.2000
      748.0000       313.7600        84.4650      2315.3000
      748.2000       312.7600        84.3900      2315.3999
      748.4000       310.8800        86.2800      2319.3999
      748.6000       309.3200        87.8400      2324.8999
      748.8000       308.3600        87.9750      2330.0000
      749.0000       308.0800        85.4100      2326.8000
      749.2000       307.6800        83.5950      2317.3000
      749.4000       307.8000        83.9850      2316.3999
      749.6000       307.8000        84.8850      2337.8000
      749.8000       304.3600        81.7800      2379.7000
      750.0000       298.6000        77.7000      2462.8000
      750.2000       287.6800        73.4850      2494.1001
      750.4000       264.5600        71.7000      2517.8999
      750.6000       255.9200        69.6000      2645.8000
      750.8000       248.3600        67.9350      2693.8999
      751.0000       247.4800        68.5500      2647.5000
      751.2000       254.0000        81.5550      2532.3000
      751.4000       265.4400        95.1150      2435.3000
      751.6000       293.4000       104.5950      2418.0000
      751.8000       298.3600       109.6800      2414.8999
      752.0000       300.6800       109.9800      2411.8999
      752.2000       302.5200       103.9500      2384.7000
      752.4000       303.9600        99.4050      2366.0000
      752.6000       305.5200        95.1750      2350.7000
      752.8000       306.3600        95.3100      2339.7000
      753.0000       306.2800       100.4400      2353.3999
      753.2000       304.6000        99.3450      2385.3999
      753.4000       302.4400        98.3100      2405.3000
      753.6000       301.8000       101.5200      2408.1001
      753.8000       302.5600       103.9650      2402.7000
      754.0000       304.5200        93.9750      2387.5000
      754.2000       306.5600        88.8300      2357.6001
      754.4000       310.2400        87.4500      2328.0000
      754.6000       314.8800        89.3550      2309.5000
      754.8000       316.8400        88.4250      2303.6001
      755.0000       315.4000        83.7300      2303.3999
      755.2000       312.4000        79.8150      2303.8000
      755.4000       308.2000        77.0700      2306.3000
      755.6000       299.6800        75.3900      2323.8000
      755.8000       287.7200        75.0450      2347.1001
      756.0000       290.2800        75.6750      2353.5000
      756.2000       293.6000        76.5300      2347.6001
      756.4000       298.8400        77.6700      2336.8000
      756.6000       306.6000        77.4750      2320.8999
      756.8000       312.4800        74.1900      2302.2000
      757.0000       317.5600        72.3000      2293.0000
      757.2000       314.0000        73.1250      2301.2000
      757.4000       309.1200        75.2100      2317.5000
      757.6000       306.2400        75.1350      2315.8000
      757.8000       304.4000        72.8700      2314.8000
      758.0000       303.1200        71.8500      2318.8999
      758.2000       302.7600        75.3750      2328.7000
      758.4000       302.7600        78.0450      2320.5000
      758.6000       302.8000        79.8150      2304.1001
      758.8000       303.4400        78.4950      2292.2000
      759.0000       304.5600        76.7250      2286.7000
      759.2000       305.5200        75.4200      2287.3999
      759.4000       305.5200        74.8500      2291.8999
      759.6000       305.0400        74.8050      2303.5000
      759.8000       303.3600        74.3250      2319.3000
      760.0000       300.6800        73.3500      2336.0000
      760.2000       298.2000        73.4100      2356.3999
      760.4000       296.0000        75.4800      2363.1001
      760.6000       297.4400        78.3300      2341.2000
      760.8000       301.0000        78.0150      2313.2000
      761.0000       304.8000        77.4000      2302.1001
      761.2000       308.3200        74.8200      2301.8000
      761.4000       310.3600        71.3700      2306.8999
      761.6000       310.1600        70.1400      2317.5000
      761.8000       306.0000        69.3750      2331.3999
      762.0000       295.4800        69.9000      2354.3000
