~Version Information
# Data Copyright 2013 (C) geoLOGIC systems ltd.
 VERS  .     2.00 : LOG ASCII STANDARD -VERSION 2.0
 WRAP  .     NO   : ONE LINE PER DEPTH STEP
 PROD  .      geoLOGIC systems ltd.          : LAS Producer
 CREA  .      25/02/2013                     : LAS Creation date {MM/DD/YYYY}
~Well
#MNEM  .UNIT        Data                       Description of Mnemonic
#------.------ ----------------------------- : -------------------------
 STRT  .M          119.0000                  : START DEPTH
 STOP  .M          852.6000                  : STOP DEPTH
 STEP  .M            0.2000                  : STEP DEPTH
 NULL  .           -9999.69                  : NULL VALUE
 COMP  .      HUSKY OIL OPERATIONS LIMITED   : Company
 WELL  .      RENAISSANCE ET AL PROVOST 3-5-39: Well
 FLD   .      PROVOST                        : Field
 LOC   .                                     : Location
 PRVC  .      ALBERTA                        : Province
 SRVC  .      SCHLUMBERGER                   : Service Company
 DATE  .      03-JUN-83                      : Log Date
 UWI   .      100030503903W400               : Unique Well ID
 LIC   .      0101417                        : Licence Number
 LATI  .      52.3180156                     : Latitude
 LONG  .      -110.400359                    : Longitude
 GDAT  .      NAD27                          : Geodetic Datum
~Parameter
#MNEM  .UNIT        VALUE                      Description
#------.------ ----------------------------- : -------------------------
 RUN   .            1                        : Run Number
 EGL   .M           669.6000                 : Ground Level Elevation
 EREF  .M           673.5500                 : Elevation of Depth Reference
 EKB   .M           673.5000                 : Elevation of Kelly Bushing
 TDL   .M           851.3000                 : Total Depth Logger
 TDD   .M           855.0000                 : Total Depth Driller
 TLI   .M           0.0000                   : Top of Logged Interval
 BLI   .M           0.0000                   : Bottom of Logged Interval
~Curve
#MNEM  .UNIT        API Codes                  Curve description
#------.------ ----------------------------- : -------------------------
 DEPT  .M        0   1  0  0                 : 1 DEPTH
 AC    .US/M     60 520  0  1                : 2 SONIC INTERVAL TRANSIT TIME (COMPENSATED)
 GR    .GAPI     42 310  1  1                : 2 GAMMA RAY
 DEN   .K/M3     42 350  1  1                : 2 BULK DENSITY
~Ascii        DEPT           AC           GR          DEN
# ...
      360.2000       393.4800       114.2850      2264.7000
      360.4000       391.7600       114.4050      2273.3000
      360.6000       391.0800       111.1950      2285.8000
      360.8000       391.1200       107.5500      2298.8000
      361.0000       391.2800       105.8250      2311.1001
      361.2000       391.5600       106.4250      2320.8999
      361.4000       392.6400       109.4550      2326.2000
      361.6000       394.1600       112.5300      2328.0000
      361.8000       396.0800       115.9800      2310.8000
      362.0000       398.4800       116.9550      2295.3000
      362.2000       401.1600       116.8350      2286.0000
      362.4000       404.0400       115.5150      2277.8999
      362.6000       407.1200       112.6650      2270.2000
      362.8000       405.5600       109.5000      2264.7000
      363.0000       391.9600       107.5200      2261.8999
      363.2000       381.2000       106.5150      2268.7000
      363.4000       380.6400       108.4050      2283.2000
      363.6000       386.7200       111.7050      2292.1001
      363.8000       393.7600       111.8700      2275.3999
      364.0000       399.0400       111.7350      2263.8000
      364.2000       401.4800       112.6650      2255.0000
      364.4000       402.9200       117.8850      2249.7000
      364.6000       403.0800       118.1250      2244.6001
      364.8000       403.4800       114.5400      2251.5000
      365.0000       405.2400       112.4550      2264.3000
      365.2000       407.9200       111.4800      2267.1001
      365.4000       411.5600       111.2400      2264.7000
      365.6000       412.3200       111.4050      2266.2000
      365.8000       411.2400       112.9500      2275.5000
      366.0000       408.9200       116.3100      2278.8000
      366.2000       402.9200       118.9500      2278.1001
      366.4000       398.9600       120.4800      2277.3999
      366.6000       402.0000       119.5050      2253.3999
      366.8000       408.4000       116.7600      2247.2000
      367.0000       414.0800       111.4200      2248.1001
      367.2000       419.4800       106.9500      2247.8000
      367.4000       424.2800       105.5400      2239.8000
      367.6000       430.0400       108.3150      2235.2000
      367.8000       432.8800       111.7500      2244.3000
      368.0000       431.2400       113.6700      2257.6001
      368.2000       425.2800       110.6550      2272.8000
      368.4000       411.7600       109.0650      2259.0000
      368.6000       409.4800       112.1700      2259.3999
      368.8000       410.8400       113.2200      2274.3999
      369.0000       410.6000       113.3250      2262.0000
      369.2000       394.8000       113.9250      2242.8999
      369.4000       383.0400       118.6950      2237.2000
      369.6000       370.0000       133.6050      2240.7000
      369.8000       364.4000       139.2300      2249.8000
      370.0000       370.0800       125.2050      2256.3999
      370.2000       390.4800       112.5450      2244.5000
      370.4000       400.1200       108.4800      2229.3999
      370.6000       404.3200       106.5600      2222.3999
      370.8000       402.5200       106.0200      2220.3000
      371.0000       399.5200       106.3800      2227.0000
      371.2000       396.2000       108.5550      2244.0000
      371.4000       393.4800       110.3850      2251.0000
      371.6000       392.4000       108.5550      2253.8999
      371.8000       399.6000       104.8500      2259.1001
      372.0000       398.3600       105.7950      2268.8999
      372.2000       399.1200       112.7550      2258.6001
      372.4000       402.1600       116.8350      2213.5000
      372.6000       405.1600       110.3700      2188.7000
      372.8000       406.9600       109.0650      2184.0000
      373.0000       405.7200       112.1550      2196.3999
      373.2000       400.8400       113.8350      2225.7000
      373.4000       396.8000       112.2900      2244.3999
      373.6000       398.1200       108.9450      2233.1001
      373.8000       401.5600       107.2950      2224.6001
      374.0000       405.3200       107.2200      2221.3000
      374.2000       406.2400       108.0900      2215.3000
      374.4000       401.4000       103.7550      2189.2000
      374.6000       392.0000        99.5850      2178.6001
      374.8000       371.6000        98.9850      2186.2000
      375.0000       354.7600        99.3150      2238.8000
      375.2000       361.0400       100.1700      2272.2000
      375.4000       367.4800       101.0550      2288.5000
      375.6000       373.0400       102.8400      2247.5000
      375.8000       376.7200       104.5050      2210.6001
      376.0000       380.6800       105.7950      2203.8999
      376.2000       384.4800       106.2450      2238.1001
      376.4000       387.5200       104.5650      2250.3999
      376.6000       390.3200       103.4700      2248.3000
      376.8000       392.8400       106.5300      2245.7000
      377.0000       395.0000       108.6150      2245.0000
      377.2000       396.6400       109.7850      2245.7000
      377.4000       395.4400       109.9050      2252.6001
      377.6000       393.0400       109.0350      2266.8000
      377.8000       389.1600       107.3400      2274.5000
      378.0000       384.3200       105.6900      2275.2000
      378.2000       386.3600       104.4150      2268.3999
      378.4000       391.2800       103.9650      2262.1001
      378.6000       394.7600       105.1200      2262.3000
      378.8000       393.7200       108.1950      2273.0000
      379.0000       390.2400       109.5000      2281.3000
      379.2000       389.5200       110.4150      2287.2000
      379.4000       390.2400       110.3250      2251.8999
      379.6000       391.2400       109.9050      2220.8999
      379.8000       392.6800       108.9150      2199.1001
      380.0000       396.7200       108.0600      2182.8999
      380.2000       400.3600       107.5800      2174.8999
      380.4000       399.8800       105.1950      2180.0000
      380.6000       397.9200       103.4400      2191.7000
      380.8000       395.6400       102.1200      2205.3000
      381.0000       392.9600       101.5350      2214.8000
      381.2000       392.8400       101.4450      2220.7000
      381.4000       394.7600       102.0150      2185.7000
      381.6000       397.6000       102.9150      2135.3000
      381.8000       400.7200       103.7850      2107.2000
      382.0000       400.0000       104.8800      2104.8000
      382.2000       397.3200       106.4100      2113.5000
      382.4000       393.8800       108.4050      2128.8999
      382.6000       391.3200       110.9250      2123.3000
      382.8000       391.4000       112.8000      2122.3999
      383.0000       394.4000       114.0000      2146.1001
      383.2000       392.3200       110.5950      2186.3999
      383.4000       384.1200       107.3550      2219.3999
      383.6000       372.0400       104.8650      2249.8000
      383.8000       374.6400       102.3600      2272.3000
      384.0000       382.0400       100.1100      2242.6001
      384.2000       387.2800        99.3450      2216.3000
      384.4000       386.3600       100.2000      2203.2000
      384.6000       385.1200       101.3550      2197.2000
      384.8000       384.4800       101.8950      2194.1001
      385.0000       384.4800       101.5350      2197.3000
      385.2000       385.8000       101.0400      2192.8000
      385.4000       386.4400       103.5450      2185.0000
      385.6000       386.4400       107.3850      2191.6001
      385.8000       386.7600       110.3400      2210.8999
      386.0000       388.6000       112.7100      2233.8999
      386.2000       390.5600       113.4300      2256.1001
      386.4000       393.6800       111.2100      2254.0000
      386.6000       396.8400       108.0450      2252.6001
      386.8000       391.0400       108.1050      2267.2000
