~Version Information
# Data Copyright 2013 (C) geoLOGIC systems ltd.
 VERS  .     2.00 : LOG ASCII STANDARD -VERSION 2.0
 WRAP  .     NO   : ONE LINE PER DEPTH STEP
 PROD  .      geoLOGIC systems ltd.          : LAS Producer
 CREA  .      25/02/2013                     : LAS Creation date {MM/DD/YYYY}
~Well
#MNEM  .UNIT        Data                       Description of Mnemonic
#------.------ ----------------------------- : -------------------------
 STRT  .M          119.0000                  : START DEPTH
 STOP  .M          852.6000                  : STOP DEPTH
 STEP  .M            0.2000                  : STEP DEPTH
 NULL  .           -9999.69                  : NULL VALUE
 COMP  .      HUSKY OIL OPERATIONS LIMITED   : Company
 WELL  .      RENAISSANCE ET AL PROVOST 3-5-39: Well
 FLD   .      PROVOST                        : Field
 LOC   .                                     : Location
 PRVC  .      ALBERTA                        : Province
 SRVC  .      SCHLUMBERGER                   : Service Company
 DATE  .      03-JUN-83                      : Log Date
 UWI   .      100030503903W400               : Unique Well ID
 LIC   .      0101417                        : Licence Number
 LATI  .      52.3180156                     : Latitude
 LONG  .      -110.400359                    : Longitude
 GDAT  .      NAD27                          : Geodetic Datum
~Parameter
#MNEM  .UNIT        VALUE                      Description
#------.------ ----------------------------- : -------------------------
 RUN   .            1                        : Run Number
 EGL   .M           669.6000                 : Ground Level Elevation
 EREF  .M           673.5500                 : Elevation of Depth Reference
 EKB   .M           673.5000                 : Elevation of Kelly Bushing
 TDL   .M           851.3000                 : Total Depth Logger
 TDD   .M           855.0000                 : Total Depth Driller
 TLI   .M           0.0000                   : Top of Logged Interval
 BLI   .M           0.0000                   : Bottom of Logged Interval
~Curve
#MNEM  .UNIT        API Codes                  Curve description
#------.------ ----------------------------- : -------------------------
 DEPT  .M        0   1  0  0                 : 1 DEPTH
 AC    .US/M     60 520  0  1                : 2 SONIC INTERVAL TRANSIT TIME (COMPENSATED)
 GR    .GAPI     42 310  1  1                : 2 GAMMA RAY
 DEN   .K/M3     42 350  1  1                : 2 BULK DENSITY
~Ascii        DEPT           AC           GR          DEN
# ...
      494.2000       399.2000       111.9600      2229.7000
      494.4000       382.6800       108.0000      2240.0000
      494.6000       377.3600       107.5950      2236.2000
      494.8000       384.0800       113.7600      2215.8999
      495.0000       394.2800       118.4850      2205.7000
      495.2000       403.8400       120.6900      2202.5000
      495.4000       405.8800       122.6850      2203.1001
      495.6000       398.0400       124.9350      2213.3000
      495.8000       393.4800       124.3200      2230.3999
      496.0000       392.3600       120.6750      2238.2000
      496.2000       394.7200       121.3650      2239.2000
      496.4000       396.9600       127.8150      2238.8999
      496.6000       396.7600       130.0200      2225.7000
      496.8000       396.4400       129.8250      2206.3999
      497.0000       401.2800       127.7400      2190.3000
      497.2000       409.5600       127.1550      2186.3999
      497.4000       412.3200       128.2500      2200.0000
      497.6000       411.2000       133.5600      2222.3000
      497.8000       409.0800       136.4700      2232.6001
      498.0000       408.0800       134.2350      2227.2000
      498.2000       408.0000       131.1300      2220.3999
      498.4000       408.8400       128.6850      2217.2000
      498.6000       410.3200       127.8900      2216.6001
      498.8000       412.3600       129.6000      2225.7000
      499.0000       411.1600       133.9950      2239.3999
      499.2000       407.4000       137.3700      2252.8000
      499.4000       402.0400       140.2650      2261.2000
      499.6000       398.2400       141.9600      2266.2000
      499.8000       398.5600       133.4700      2268.8999
      500.0000       403.2800       128.9400      2264.1001
      500.2000       407.0000       127.0650      2267.7000
      500.4000       409.9600       126.7950      2272.3000
      500.6000       409.1600       125.9100      2280.0000
      500.8000       404.5200       125.7000      2287.1001
      501.0000       401.8000       125.8200      2286.5000
      501.2000       401.4800       126.1050      2273.7000
      501.4000       401.1600       125.5800      2266.0000
      501.6000       400.7600       125.6850      2268.0000
      501.8000       401.8800       126.0600      2276.5000
      502.0000       404.6000       124.2600      2276.8000
      502.2000       404.0400       123.1500      2273.6001
      502.4000       403.0000       124.2450      2275.6001
      502.6000       402.2800       127.8450      2276.1001
      502.8000       402.1200       134.4900      2266.7000
      503.0000       402.2800       141.4950      2254.2000
      503.2000       402.5600       131.6550      2247.3000
      503.4000       403.2000       120.1500      2246.0000
      503.6000       403.4000       113.6550      2252.3000
      503.8000       403.2400       112.2150      2262.3000
      504.0000       403.1200       113.4750      2259.2000
      504.2000       402.4000       116.7450      2259.8999
      504.4000       401.0800       119.3850      2265.5000
      504.6000       399.4400       119.9100      2273.5000
      504.8000       397.4800       118.1550      2280.7000
      505.0000       396.0400       118.1550      2283.2000
      505.2000       396.4000       120.8700      2279.2000
      505.4000       398.5600       123.4500      2276.3999
      505.6000       400.2800       125.4900      2276.8000
      505.8000       399.3600       126.9000      2276.3999
      506.0000       397.4800       127.3650      2271.2000
      506.2000       395.9600       127.3950      2259.5000
      506.4000       396.0800       125.3850      2251.0000
      506.6000       397.2000       122.3400      2257.2000
      506.8000       397.6000       119.1300      2271.2000
      507.0000       397.3600       115.8900      2272.5000
      507.2000       396.4400       112.1700      2268.3999
      507.4000       395.0800       108.6000      2267.5000
      507.6000       393.5600       105.0300      2268.7000
      507.8000       396.0400       104.0250      2256.3000
      508.0000       398.2400       111.1350      2250.3999
      508.2000       399.2000       116.1300      2324.8999
      508.4000       398.5200       117.0750      2378.1001
      508.6000       397.2000       114.1050      2429.5000
      508.8000       395.3200       110.8500      2404.6001
      509.0000       394.6800       109.0650      2318.3000
      509.2000       395.3200       109.3500      2295.5000
      509.4000       396.6800       111.3750      2291.0000
      509.6000       397.6000       113.8800      2286.3999
      509.8000       398.0400       115.5450      2272.2000
      510.0000       398.0800       116.2200      2267.8999
      510.2000       397.0400       115.8600      2274.6001
      510.4000       395.4400       116.0700      2283.8000
      510.6000       393.8800       118.7700      2291.8000
      510.8000       392.0400       118.5300      2296.7000
      511.0000       391.4400       117.1350      2300.2000
      511.2000       392.2400       117.7950      2294.5000
      511.4000       393.5200       121.4700      2282.8999
      511.6000       396.3600       121.5150      2277.6001
      511.8000       402.2000       120.6900      2278.3999
      512.0000       402.8000       122.9100      2280.8000
      512.2000       400.0800       127.0950      2280.3999
      512.4000       396.2800       126.3600      2280.5000
      512.6000       396.4400       123.3000      2284.6001
      512.8000       397.5600       123.1050      2301.8999
      513.0000       399.7600       125.6700      2301.2000
      513.2000       401.5200       127.5900      2282.6001
      513.4000       402.2800       123.3900      2278.0000
      513.6000       400.5600       121.6650      2280.3999
      513.8000       400.2000       121.7100      2288.3000
      514.0000       400.2000       123.1950      2305.5000
      514.2000       393.7200       124.9350      2314.2000
      514.4000       383.4400       117.5400      2321.5000
      514.6000       374.7200       114.7050      2331.6001
      514.8000       372.0400       113.5800      2352.3999
      515.0000       374.2000       113.0400      2341.1001
      515.2000       376.0800       113.0550      2331.8999
      515.4000       376.2400       113.4900      2324.3999
      515.6000       375.7600       116.4150      2320.0000
      515.8000       375.3200       118.2450      2318.1001
      516.0000       375.2800       115.5300      2320.8000
      516.2000       375.7600       113.9250      2329.5000
      516.4000       377.1600       116.8500      2335.5000
      516.6000       378.3200       118.3500      2338.7000
      516.8000       377.8000       118.1700      2335.1001
      517.0000       377.2800       118.0500      2324.2000
      517.2000       379.6400       117.6300      2315.0000
      517.4000       381.1600       116.2350      2308.1001
      517.6000       380.6400       120.1050      2298.1001
      517.8000       379.1600       122.4150      2290.3000
      518.0000       379.2000       120.4350      2287.3000
      518.2000       380.5200       119.5350      2298.3999
      518.4000       384.2800       118.5600      2301.0000
      518.6000       387.9200       115.2150      2287.3999
      518.8000       388.6800       114.7650      2274.6001
      519.0000       386.1600       116.2800      2265.1001
      519.2000       381.7200       117.0750      2259.0000
      519.4000       376.8400       112.9200      2262.8000
      519.6000       370.7200       112.6650      2297.7000
      519.8000       372.7200       115.1550      2325.8999
      520.0000       376.8000       118.2300      2331.7000
      520.2000       379.8000       119.7450      2295.8000
      520.4000       382.6400       110.5050      2279.6001
      520.6000       384.6000       109.4250      2271.6001
      520.8000       385.9200       109.0650      2270.3000
