~Version Information
# Data Copyright 2013 (C) geoLOGIC systems ltd.
 VERS  .     2.00 : LOG ASCII STANDARD -VERSION 2.0
 WRAP  .     NO   : ONE LINE PER DEPTH STEP
 PROD  .      geoLOGIC systems ltd.          : LAS Producer
 CREA  .      25/02/2013                     : LAS Creation date {MM/DD/YYYY}
~Well
#MNEM  .UNIT        Data                       Description of Mnemonic
#------.------ ----------------------------- : -------------------------
 STRT  .M          119.0000                  : START DEPTH
 STOP  .M          852.6000                  : STOP DEPTH
 STEP  .M            0.2000                  : STEP DEPTH
 NULL  .           -9999.69                  : NULL VALUE
 COMP  .      HUSKY OIL OPERATIONS LIMITED   : Company
 WELL  .      RENAISSANCE ET AL PROVOST 3-5-39: Well
 FLD   .      PROVOST                        : Field
 LOC   .                                     : Location
 PRVC  .      ALBERTA                        : Province
 SRVC  .      SCHLUMBERGER                   : Service Company
 DATE  .      03-JUN-83                      : Log Date
 UWI   .      100030503903W400               : Unique Well ID
 LIC   .      0101417                        : Licence Number
 LATI  .      52.3180156                     : Latitude
 LONG  .      -110.400359                    : Longitude
 GDAT  .      NAD27                          : Geodetic Datum
~Parameter
#MNEM  .UNIT        VALUE                      Description
#------.------ ----------------------------- : -------------------------
 RUN   .            1                        : Run Number
 EGL   .M           669.6000                 : Ground Level Elevation
 EREF  .M           673.5500                 : Elevation of Depth Reference
 EKB   .M           673.5000                 : Elevation of Kelly Bushing
 TDL   .M           851.3000                 : Total Depth Logger
 TDD   .M           855.0000                 : Total Depth Driller
 TLI   .M           0.0000                   : Top of Logged Interval
 BLI   .M           0.0000                   : Bottom of Logged Interval
~Curve
#MNEM  .UNIT        API Codes                  Curve description
#------.------ ----------------------------- : -------------------------
 DEPT  .M        0   1  0  0                 : 1 DEPTH
 AC    .US/M     60 520  0  1                : 2 SONIC INTERVAL TRANSIT TIME (COMPENSATED)
 GR    .GAPI     42 310  1  1                : 2 GAMMA RAY
 DEN   .K/M3     42 350  1  1                : 2 BULK DENSITY
~Ascii        DEPT           AC           GR          DEN
# ...
      253.0000       442.8000        78.0750      2243.1001
      253.2000       442.4000        77.0250      2224.8999
      253.4000       442.2400        75.6000      2211.8999
      253.6000       442.8000        74.4450      2215.3999
      253.8000       444.3200        75.9300      2231.0000
      254.0000       446.6000        80.8650      2226.3000
      254.2000       448.8000        80.8200      2213.1001
      254.4000       450.6000        77.0850      2205.3000
      254.6000       451.6000        75.1050      2201.8999
      254.8000       450.9600        74.7450      2200.1001
      255.0000       446.8000        75.8250      2200.6001
      255.2000       447.4400        76.5150      2202.3000
      255.4000       449.4000        76.0050      2205.3999
      255.6000       451.4400        76.3800      2209.7000
      255.8000       453.0000        78.5100      2214.7000
      256.0000       453.9200        80.5800      2220.3000
      256.2000       453.9200        81.6600      2224.0000
      256.4000       453.9200        80.3700      2226.8000
      256.6000       453.8000        77.0100      2227.6001
      256.8000       453.1600        74.7750      2224.7000
      257.0000       452.0800        73.5150      2217.3000
      257.2000       451.1600        73.6950      2211.3000
      257.4000       450.8400        77.1150      2209.8000
      257.6000       451.0000        77.8050      2213.3000
      257.8000       451.6000        76.7700      2223.1001
      258.0000       452.7600        76.8750      2227.7000
      258.2000       454.2000        79.0800      2205.8999
      258.4000       455.7200        75.9450      2204.2000
      258.6000       457.3200        75.0450      2203.8999
      258.8000       458.9200        76.3050      2199.8999
      259.0000       460.2400        78.0450      2191.7000
      259.2000       460.6800        79.2000      2184.0000
      259.4000       460.2400        78.5850      2179.1001
      259.6000       458.0800        76.8450      2176.3000
      259.8000       447.3600        75.8850      2175.8999
      260.0000       437.2400        75.7800      2188.7000
      260.2000       436.1200        76.2600      2196.3999
      260.4000       437.0800        75.9900      2149.3000
      260.6000       448.5200        74.4300      2028.5000
      260.8000       464.1200        73.0800      2010.3000
      261.0000       475.7600        72.7500      2043.0000
      261.2000       477.2400        72.9900      2098.0000
      261.4000       475.1200        73.9800      2143.8000
      261.6000       468.3200        74.9850      2143.8999
      261.8000       453.0000        75.8700      2141.1001
      262.0000       431.1600        76.3650      2142.0000
      262.2000       412.2400        76.9950      2151.2000
      262.4000       411.9200        73.2300      2164.0000
      262.6000       424.5200        70.6650      2174.3999
      262.8000       446.9600        69.7200      2180.1001
      263.0000       462.4800        69.6750      2183.3000
      263.2000       485.7600        73.5300      2160.3000
      263.4000       507.0000        80.2350      2051.3000
      263.6000       513.4400        85.1400      2003.5000
      263.8000       498.4000        83.5350      1999.5000
      264.0000       434.2000        76.6800      2059.0000
      264.2000       410.1600        71.9100      2137.3999
      264.4000       411.4800        69.3000      2147.8000
      264.6000       425.4400        72.8850      2101.6001
      264.8000       447.8400        76.0800      2070.2000
      265.0000       451.5600        76.9950      2065.7000
      265.2000       446.4800        75.6900      2078.7000
      265.4000       439.6800        74.6250      2103.1001
      265.6000       433.4000        76.2000      2135.7000
      265.8000       428.8000        78.9150      2157.0000
      266.0000       430.0000        80.1000      2166.8000
      266.2000       434.6400        80.5500      2158.0000
      266.4000       435.2400        80.4750      2158.1001
      266.6000       429.3600        80.2200      2179.6001
      266.8000       424.8000        79.9800      2189.8000
      267.0000       423.5200        76.0050      2174.2000
      267.2000       422.4000        73.5000      2165.2000
      267.4000       421.8800        72.4800      2167.6001
      267.6000       418.6800        71.8200      2192.3999
      267.8000       418.2800        71.6550      2205.1001
      268.0000       416.1200        72.7650      2212.3999
      268.2000       412.3600        74.1750      2219.8000
      268.4000       409.8800        76.0050      2227.3999
      268.6000       407.2000        77.2050      2235.7000
      268.8000       404.4000        77.9250      2246.8000
      269.0000       401.4800        78.2100      2248.1001
      269.2000       400.1200        78.1950      2226.7000
      269.4000       403.9600        78.0900      2211.7000
      269.6000       409.5200        78.8250      2205.8999
      269.8000       414.5600        80.2950      2202.3999
      270.0000       419.7200        80.7600      2202.7000
      270.2000       425.4400        79.9950      2206.3000
      270.4000       430.8800        78.6450      2192.7000
      270.6000       435.7600        79.7400      2180.7000
      270.8000       437.0800        81.4050      2178.5000
      271.0000       436.9200        81.5250      2183.3000
      271.2000       437.0800        80.8350      2199.8999
      271.4000       438.1600        76.6650      2213.8000
      271.6000       440.1600        74.4450      2178.3000
      271.8000       440.8800        73.8300      2163.0000
      272.0000       438.8400        74.0850      2155.6001
      272.2000       435.1600        73.5150      2162.8999
      272.4000       429.9600        71.9250      2181.6001
      272.6000       423.5600        71.5350      2190.3999
      272.8000       415.7200        72.2400      2192.8999
      273.0000       390.6800        73.9650      2194.2000
      273.2000       328.6800        68.4150      2225.0000
      273.4000       284.3600        63.4500      2277.2000
      273.6000       240.0000        60.4650      2406.8000
      273.8000       272.5600        58.7100      2418.5000
      274.0000       305.0800        58.7700      2358.8000
      274.2000       334.1600        71.5200      2132.8999
      274.4000       360.1600        76.8300      2120.1001
      274.6000       398.1200        79.5900      2179.2000
      274.8000       403.4400        80.4000      2218.6001
      275.0000       405.0400        79.9050      2247.0000
      275.2000       406.0800        78.7950      2242.5000
      275.4000       406.2800        78.0900      2232.8000
      275.6000       406.9200        78.4950      2229.3000
      275.8000       407.5600        79.7250      2225.6001
      276.0000       409.0000        81.8100      2204.7000
      276.2000       410.4800        84.3000      2180.0000
      276.4000       403.3200        84.6900      2164.8000
      276.6000       381.6000        81.5250      2150.6001
      276.8000       336.4000        78.2250      2135.1001
      277.0000       340.9600        76.5150      2117.0000
      277.2000       372.8800        80.2650      2136.7000
      277.4000       390.6800        84.3600      2160.3999
      277.6000       419.3600        85.9800      2166.8000
      277.8000       425.5600        80.3700      2147.2000
      278.0000       428.4800        77.0700      2135.3000
      278.2000       428.8400        75.3600      2131.2000
      278.4000       429.0400        75.0450      2142.3999
      278.6000       429.9600        75.6450      2179.5000
      278.8000       432.1200        76.1250      2212.2000
      279.0000       434.6800        76.0200      2218.7000
      279.2000       436.6400        75.7800      2216.7000
      279.4000       437.5600        74.6700      2222.3999
      279.6000       437.2800        73.7700      2230.2000
