~Version Information
# Data Copyright 2013 (C) geoLOGIC systems ltd.
 VERS  .     2.00 : LOG ASCII STANDARD -VERSION 2.0
 WRAP  .     NO   : ONE LINE PER DEPTH STEP
 PROD  .      geoLOGIC systems ltd.          : LAS Producer
 CREA  .      25/02/2013                     : LAS Creation date {MM/DD/YYYY}
~Well
#MNEM  .UNIT        Data                       Description of Mnemonic
#------.------ ----------------------------- : -------------------------
 STRT  .M          119.0000                  : START DEPTH
 STOP  .M          852.6000                  : STOP DEPTH
 STEP  .M            0.2000                  : STEP DEPTH
 NULL  .           -9999.69                  : NULL VALUE
 COMP  .      HUSKY OIL OPERATIONS LIMITED   : Company
 WELL  .      RENAISSANCE ET AL PROVOST 3-5-39: Well
 FLD   .      PROVOST                        : Field
 LOC   .                                     : Location
 PRVC  .      ALBERTA                        : Province
 SRVC  .      SCHLUMBERGER                   : Service Company
 DATE  .      03-JUN-83                      : Log Date
 UWI   .      100030503903W400               : Unique Well ID
 LIC   .      0101417                        : Licence Number
 LATI  .      52.3180156                     : Latitude
 LONG  .      -110.400359                    : Longitude
 GDAT  .      NAD27                          : Geodetic Datum
~Parameter
#MNEM  .UNIT        VALUE                      Description
#------.------ ----------------------------- : -------------------------
 RUN   .            1                        : Run Number
 EGL   .M           669.6000                 : Ground Level Elevation
 EREF  .M           673.5500                 : Elevation of Depth Reference
 EKB   .M           673.5000                 : Elevation of Kelly Bushing
 TDL   .M           851.3000                 : Total Depth Logger
 TDD   .M           855.0000                 : Total Depth Driller
 TLI   .M           0.0000                   : Top of Logged Interval
 BLI   .M           0.0000                   : Bottom of Logged Interval
~Curve
#MNEM  .UNIT        API Codes                  Curve description
#------.------ ----------------------------- : -------------------------
 DEPT  .M        0   1  0  0                 : 1 DEPTH
 AC    .US/M     60 520  0  1                : 2 SONIC INTERVAL TRANSIT TIME (COMPENSATED)
 GR    .GAPI     42 310  1  1                : 2 GAMMA RAY
 DEN   .K/M3     42 350  1  1                : 2 BULK DENSITY
~Ascii        DEPT           AC           GR          DEN
# ...
      815.8000       304.9200        75.7050      2419.2000
      816.0000       297.5600        82.2300      2446.0000
      816.2000       294.5200        83.9100      2447.8999
      816.4000       297.1200        81.0150      2383.6001
      816.6000       299.3200        72.2850      2369.3000
      816.8000       301.5200        66.5400      2368.3999
      817.0000       303.9600        62.7450      2366.3000
      817.2000       305.9600        60.7200      2365.8000
      817.4000       306.0800        61.7550      2367.0000
      817.6000       304.2800        68.4900      2385.8999
      817.8000       301.9600        77.7150      2415.7000
      818.0000       299.4400        86.2800      2465.5000
      818.2000       298.3200        93.0000      2479.3000
      818.4000       301.2400        88.9350      2435.3999
      818.6000       304.4400        72.2250      2390.1001
      818.8000       305.6800        69.4950      2376.3000
      819.0000       305.4400        78.4500      2418.8000
      819.2000       305.3600        82.7850      2418.6001
      819.4000       306.0400        76.9950      2397.0000
      819.6000       308.2400        74.4150      2395.7000
      819.8000       311.6000        75.6600      2402.1001
      820.0000       313.0800        75.2250      2414.1001
      820.2000       314.5200        71.3700      2405.1001
      820.4000       316.7600        60.2550      2316.5000
      820.6000       319.7600        49.4700      2235.2000
      820.8000       323.1600        46.6800      2211.3999
      821.0000       323.0000        55.9800      2280.5000
      821.2000       323.0000        61.3350      2301.5000
      821.4000       325.7600        54.8700      2269.3000
      821.6000       332.0400        49.5450      2236.1001
      821.8000       334.6000        55.8300      2231.3999
      822.0000       328.6400        72.1800      2338.7000
      822.2000       322.9600        80.9850      2389.2000
      822.4000       314.9600        90.9300      2429.3999
      822.6000       310.7600        95.4300      2473.1001
      822.8000       309.2800        96.1200      2472.7000
      823.0000       308.8800        79.8450      2440.2000
      823.2000       309.6800        73.3200      2416.5000
      823.4000       311.0400        70.3950      2395.3999
      823.6000       312.5600        69.1050      2383.0000
      823.8000       314.2000        68.9400      2371.8999
      824.0000       315.7200        69.4650      2365.6001
      824.2000       316.7200        71.1750      2359.7000
      824.4000       317.2400        73.0200      2348.7000
      824.6000       317.4400        73.7550      2336.8000
      824.8000       317.4800        69.4050      2323.8000
      825.0000       317.4800        60.9000      2303.6001
      825.2000       317.4800        67.9950      2312.1001
      825.4000       317.0800        79.8450      2334.3999
      825.6000       314.1200        84.1500      2415.3999
      825.8000       308.9200        82.7850      2421.2000
      826.0000       312.2800        72.7950      2345.0000
      826.2000       315.7600        64.8750      2311.5000
      826.4000       319.0000        62.2500      2314.2000
      826.6000       322.3600        66.4050      2331.7000
      826.8000       325.6000        69.1050      2350.3999
      827.0000       328.0000        62.7900      2289.2000
      827.2000       328.3600        47.6550      2234.8999
      827.4000       324.9200        39.6750      2190.5000
      827.6000       318.0800        33.8400      2178.3000
      827.8000       308.4400        31.2300      2171.1001
      828.0000       315.5200        30.4800      2162.0000
      828.2000       324.9600        33.3450      2160.7000
      828.4000       333.7600        39.8850      2185.8999
      828.6000       334.6400        44.8050      2222.7000
      828.8000       334.6400        48.2850      2242.1001
      829.0000       336.6000        48.9150      2250.8999
      829.2000       338.6400        49.6500      2221.3000
      829.4000       337.3600        47.7300      2206.8000
      829.6000       334.9600        48.0450      2210.3999
      829.8000       332.5200        55.4850      2232.2000
      830.0000       329.6000        61.1700      2275.1001
      830.2000       322.9200        67.7400      2326.1001
      830.4000       313.8800        72.2700      2368.7000
      830.6000       311.4800        68.8800      2374.8999
      830.8000       316.3600        60.3150      2318.2000
      831.0000       320.8800        52.8750      2227.8000
      831.2000       324.6800        35.8500      2136.5000
      831.4000       328.4800        30.7200      2111.3999
      831.6000       329.4800        28.4700      2105.5000
      831.8000       328.2800        29.8800      2114.8999
      832.0000       324.1200        31.9650      2119.5000
      832.2000       322.7600        32.9100      2121.8000
      832.4000       321.0400        32.9100      2126.5000
      832.6000       318.0800        33.6900      2141.3999
      832.8000       316.0000        34.7550      2164.7000
      833.0000       314.4000        32.5650      2182.0000
      833.2000       314.4000        28.2900      2179.8999
      833.4000       315.1200        27.2400      2173.0000
      833.6000       316.0000        27.3000      2162.3999
      833.8000       316.3200        27.5250      2153.1001
      834.0000       316.3600        26.7150      2144.8000
      834.2000       316.0800        25.8150      2140.0000
      834.4000       314.4400        25.1250      2139.1001
      834.6000       312.7200        26.7600      2144.3999
      834.8000       310.7600        29.5050      2152.8000
      835.0000       308.6800        30.6600      2164.0000
      835.2000       313.5600        33.2700      2185.0000
      835.4000       314.6800        40.3800      2239.6001
      835.6000       313.2800        50.9700      2312.8000
      835.8000       310.3600        54.5850      2336.3000
      836.0000       309.8400        54.1050      2267.8000
      836.2000       312.7200        50.5350      2239.8999
      836.4000       315.8800        47.0100      2233.8999
      836.6000       312.6800        43.5150      2261.8999
      836.8000       311.3600        39.8400      2243.0000
      837.0000       311.9200        35.3100      2178.8999
      837.2000       314.6800        30.4200      2164.2000
      837.4000       319.3600        26.7000      2156.5000
      837.6000       319.6000        26.0700      2161.5000
      837.8000       319.8000        28.5300      2177.3999
      838.0000       320.3200        31.0500      2187.7000
      838.2000       320.9200        33.2550      2182.7000
      838.4000       321.6000        35.4000      2167.3000
      838.6000       322.9200        37.3050      2168.0000
      838.8000       318.4000        39.6450      2193.3000
      839.0000       314.1600        43.3050      2230.7000
      839.2000       312.3600        47.3850      2260.5000
      839.4000       307.1600        48.1050      2287.8000
      839.6000       286.2800        43.2600      2319.7000
      839.8000       258.0800        40.6500      2400.6001
      840.0000       229.9200        56.6250      2571.8000
      840.2000       197.2400        75.9300      2598.8999
      840.4000       193.4000        93.9000      2615.3000
      840.6000       216.2400       104.2200      2615.0000
      840.8000       237.4400       109.5000      2591.6001
      841.0000       240.9600       112.5900      2581.7000
      841.2000       242.8000       114.9450      2580.6001
      841.4000       243.8000       117.7950      2603.3000
      841.6000       244.0400       121.5750      2616.5000
      841.8000       244.1200       127.2750      2619.6001
      842.0000       244.6800       129.9450      2621.1001
      842.2000       243.4400       126.9300      2623.5000
      842.4000       241.2400       124.6050      2624.0000
