~Version Information
# Data Copyright 2013 (C) geoLOGIC systems ltd.
 VERS  .     2.00 : LOG ASCII STANDARD -VERSION 2.0
 WRAP  .     NO   : ONE LINE PER DEPTH STEP
 PROD  .      geoLOGIC systems ltd.          : LAS Producer
 CREA  .      25/02/2013                     : LAS Creation date {MM/DD/YYYY}
~Well
#MNEM  .UNIT        Data                       Description of Mnemonic
#------.------ ----------------------------- : -------------------------
 STRT  .M          119.0000                  : START DEPTH
 STOP  .M          852.6000                  : STOP DEPTH
 STEP  .M            0.2000                  : STEP DEPTH
 NULL  .           -9999.69                  : NULL VALUE
 COMP  .      HUSKY OIL OPERATIONS LIMITED   : Company
 WELL  .      RENAISSANCE ET AL PROVOST 3-5-39: Well
 FLD   .      PROVOST                        : Field
 LOC   .                                     : Location
 PRVC  .      ALBERTA                        : Province
 SRVC  .      SCHLUMBERGER                   : Service Company
 DATE  .      03-JUN-83                      : Log Date
 UWI   .      100030503903W400               : Unique Well ID
 LIC   .      0101417                        : Licence Number
 LATI  .      52.3180156                     : Latitude
 LONG  .      -110.400359                    : Longitude
 GDAT  .      NAD27                          : Geodetic Datum
~Parameter
#MNEM  .UNIT        VALUE                      Description
#------.------ ----------------------------- : -------------------------
 RUN   .            1                        : Run Number
 EGL   .M           669.6000                 : Ground Level Elevation
 EREF  .M           673.5500                 : Elevation of Depth Reference
 EKB   .M           673.5000                 : Elevation of Kelly Bushing
 TDL   .M           851.3000                 : Total Depth Logger
 TDD   .M           855.0000                 : Total Depth Driller
 TLI   .M           0.0000                   : Top of Logged Interval
 BLI   .M           0.0000                   : Bottom of Logged Interval
~Curve
#MNEM  .UNIT        API Codes                  Curve description
#------.------ ----------------------------- : -------------------------
 DEPT  .M        0   1  0  0                 : 1 DEPTH
 AC    .US/M     60 520  0  1                : 2 SONIC INTERVAL TRANSIT TIME (COMPENSATED)
 GR    .GAPI     42 310  1  1                : 2 GAMMA RAY
 DEN   .K/M3     42 350  1  1                : 2 BULK DENSITY
~Ascii        DEPT           AC           GR          DEN
# ...
      199.4000       473.6400        81.2850      2161.8999
      199.6000       473.8000        82.0050      2133.2000
      199.8000       474.2000        81.3600      2120.8999
      200.0000       474.5200        79.1400      2116.6001
      200.2000       474.6000        79.1250      2150.5000
      200.4000       474.7600        81.5550      2174.8000
      200.6000       475.2400        84.0600      2180.7000
      200.8000       475.8000        77.8050      2180.3999
      201.0000       476.5600        74.4000      2182.6001
      201.2000       477.8800        73.1100      2187.0000
      201.4000       480.2400        73.4850      2191.7000
      201.6000       484.5600        75.5250      2179.8999
      201.8000       486.2800        76.7550      2173.5000
      202.0000       480.6000        77.0850      2189.8000
      202.2000       468.8800        68.3700      2149.1001
      202.4000       462.1600        58.6950      2083.5000
      202.6000       461.0800        51.9900      2064.0000
      202.8000       458.8400        49.5300      2053.5000
      203.0000       452.3200        48.0750      2046.3000
      203.2000       443.8000        49.1550      2041.9000
      203.4000       434.5600        51.4050      2042.2000
      203.6000       429.0400        52.9800      2047.8000
      203.8000       423.7600        53.8650      2057.7000
      204.0000       422.7200        53.6850      2065.7000
      204.2000       428.6000        51.5400      2068.0000
      204.4000       434.7200        50.3400      2057.2000
      204.6000       442.0000        49.3650      2042.2000
      204.8000       449.7200        48.6900      2032.5000
      205.0000       457.1600        49.9200      2024.8000
      205.2000       466.1600        52.4100      2023.9000
      205.4000       466.7600        55.0650      2047.7000
      205.6000       462.1200        57.2550      2078.1001
      205.8000       451.3200        58.9200      2121.8999
      206.0000       428.0800        57.9150      2206.8999
      206.2000       341.7600        51.4200      2279.0000
      206.4000       333.3600        48.4200      2249.3000
      206.6000       343.3600        47.5950      2185.0000
      206.8000       385.6000        48.2550      2140.8999
      207.0000       427.1200        50.4450      2095.1001
      207.2000       438.7200        52.5000      2081.2000
      207.4000       432.7200        53.5050      2077.3999
      207.6000       427.5600        54.4050      2079.5000
      207.8000       429.3200        54.0750      2071.3000
      208.0000       436.2800        52.5900      2060.3000
      208.2000       444.2400        51.1800      2051.0000
      208.4000       447.2000        50.1450      2045.6000
      208.6000       447.7600        49.3650      2048.1001
      208.8000       446.8400        50.1450      2051.8999
      209.0000       443.9600        55.4400      2056.3000
      209.2000       439.9200        57.7650      2060.2000
      209.4000       435.7600        57.2700      2061.3000
      209.6000       434.4400        55.3350      2059.5000
      209.8000       434.4400        54.9300      2052.8999
      210.0000       435.6000        55.8000      2049.3999
      210.2000       439.9200        56.8950      2055.3999
      210.4000       443.8400        58.2150      2063.5000
      210.6000       447.0800        59.5350      2067.7000
      210.8000       447.6400        60.6450      2065.8999
      211.0000       446.2000        59.7900      2063.5000
      211.2000       443.0400        56.1300      2063.8000
      211.4000       439.7200        54.2400      2069.0000
      211.6000       436.1200        54.1500      2077.7000
      211.8000       432.7200        55.2900      2088.8999
      212.0000       430.0400        57.9900      2103.6001
      212.2000       427.8400        61.4100      2118.0000
      212.4000       426.0400        64.1550      2129.3000
      212.6000       424.2800        65.0850      2134.0000
      212.8000       422.6000        62.3700      2125.7000
      213.0000       420.8800        59.9250      2116.6001
      213.2000       420.0800        60.8700      2120.8999
      213.4000       419.4400        69.2400      2159.0000
      213.6000       419.1600        70.8000      2200.2000
      213.8000       418.6800        65.2350      2215.3000
      214.0000       422.2800        64.8900      2195.3999
      214.2000       440.4000        66.5850      2179.8000
      214.4000       451.7200        68.7600      2175.3999
      214.6000       461.9200        71.2500      2176.5000
      214.8000       465.4000        73.0050      2182.5000
      215.0000       467.7200        74.8800      2189.2000
      215.2000       469.5600        76.1700      2196.0000
      215.4000       471.0400        77.2800      2200.5000
      215.6000       472.2800        78.4050      2194.1001
      215.8000       474.0000        77.7600      2182.0000
      216.0000       477.0000        74.5350      2178.7000
      216.2000       474.6800        73.9500      2186.6001
      216.4000       468.4400        74.3700      2205.3000
      216.6000       462.7200        74.9100      2217.8000
      216.8000       456.4800        76.2600      2210.2000
      217.0000       447.6400        77.0700      2198.1001
      217.2000       441.8800        76.7400      2190.3999
      217.4000       443.9600        73.9800      2186.3000
      217.6000       446.5600        72.6600      2188.7000
      217.8000       449.6000        73.4850      2208.3999
      218.0000       452.5200        75.1200      2230.8000
      218.2000       452.4000        75.1500      2239.3000
      218.4000       451.2000        72.7950      2244.5000
      218.6000       450.3600        72.5550      2245.7000
      218.8000       453.0000        73.2900      2234.3000
      219.0000       456.8400        73.8300      2210.0000
      219.2000       460.2000        74.2350      2193.6001
      219.4000       459.2000        74.4450      2193.8000
      219.6000       455.7200        74.5650      2212.3999
      219.8000       447.7600        74.4450      2224.3000
      220.0000       437.3200        73.3950      2219.3000
      220.2000       432.1600        67.7400      2207.8000
      220.4000       430.1200        65.7000      2198.7000
      220.6000       432.9600        66.7950      2194.8999
      220.8000       438.6400        67.6200      2193.8999
      221.0000       445.0400        68.6100      2199.1001
      221.2000       447.8000        69.3750      2205.3000
      221.4000       443.4000        69.3300      2208.1001
      221.6000       438.7600        68.2650      2193.3000
      221.8000       435.0400        68.2650      2184.8999
      222.0000       431.0000        68.2500      2190.5000
      222.2000       417.1600        66.2850      2240.2000
      222.4000       393.8400        65.2800      2289.8000
      222.6000       370.6400        65.6850      2305.3999
      222.8000       379.0400        69.0450      2275.8000
      223.0000       411.2000        72.6300      2230.0000
      223.2000       437.2000        73.3500      2204.2000
      223.4000       446.6800        72.8700      2194.2000
      223.6000       455.7200        72.5250      2175.3000
      223.8000       463.2800        73.5900      2155.3999
      224.0000       465.2800        77.3550      2150.5000
      224.2000       462.2800        78.7650      2181.1001
      224.4000       459.1200        79.4550      2204.2000
      224.6000       458.1600        79.6500      2213.3999
      224.8000       463.2000        79.1850      2208.8999
      225.0000       464.2800        77.4300      2205.8000
      225.2000       442.3600        75.5250      2208.8000
      225.4000       435.3200        74.5650      2213.8000
      225.6000       433.0800        75.6450      2205.1001
      225.8000       436.8400        77.2350      2188.8999
      226.0000       443.3600        77.8200      2181.0000
