~Version Information
# Data Copyright 2013 (C) geoLOGIC systems ltd.
 VERS  .     2.00 : LOG ASCII STANDARD -VERSION 2.0
 WRAP  .     NO   : ONE LINE PER DEPTH STEP
 PROD  .      geoLOGIC systems ltd.          : LAS Producer
 CREA  .      25/02/2013                     : LAS Creation date {MM/DD/YYYY}
~Well
#MNEM  .UNIT        Data                       Description of Mnemonic
#------.------ ----------------------------- : -------------------------
 STRT  .M          119.0000                  : START DEPTH
 STOP  .M          852.6000                  : STOP DEPTH
 STEP  .M            0.2000                  : STEP DEPTH
 NULL  .           -9999.69                  : NULL VALUE
 COMP  .      HUSKY OIL OPERATIONS LIMITED   : Company
 WELL  .      RENAISSANCE ET AL PROVOST 3-5-39: Well
 FLD   .      PROVOST                        : Field
 LOC   .                                     : Location
 PRVC  .      ALBERTA                        : Province
 SRVC  .      SCHLUMBERGER                   : Service Company
 DATE  .      03-JUN-83                      : Log Date
 UWI   .      100030503903W400               : Unique Well ID
 LIC   .      0101417                        : Licence Number
 LATI  .      52.3180156                     : Latitude
 LONG  .      -110.400359                    : Longitude
 GDAT  .      NAD27                          : Geodetic Datum
~Parameter
#MNEM  .UNIT        VALUE                      Description
#------.------ ----------------------------- : -------------------------
 RUN   .            1                        : Run Number
 EGL   .M           669.6000                 : Ground Level Elevation
 EREF  .M           673.5500                 : Elevation of Depth Reference
 EKB   .M           673.5000                 : Elevation of Kelly Bushing
 TDL   .M           851.3000                 : Total Depth Logger
 TDD   .M           855.0000                 : Total Depth Driller
 TLI   .M           0.0000                   : Top of Logged Interval
 BLI   .M           0.0000                   : Bottom of Logged Interval
~Curve
#MNEM  .UNIT        API Codes                  Curve description
#------.------ ----------------------------- : -------------------------
 DEPT  .M        0   1  0  0                 : 1 DEPTH
 AC    .US/M     60 520  0  1                : 2 SONIC INTERVAL TRANSIT TIME (COMPENSATED)
 GR    .GAPI     42 310  1  1                : 2 GAMMA RAY
 DEN   .K/M3     42 350  1  1                : 2 BULK DENSITY
~Ascii        DEPT           AC           GR          DEN
# ...
      762.2000       284.9600        74.1450      2364.3999
      762.4000       287.8400        76.6050      2354.0000
      762.6000       291.5600        77.8350      2348.6001
      762.8000       294.1200        77.9100      2349.8000
      763.0000       294.1200        76.8600      2362.2000
      763.2000       293.0400        76.8450      2377.3999
      763.4000       292.2800        78.2100      2387.1001
      763.6000       292.5200        78.2100      2367.8999
      763.8000       295.0400        77.3550      2361.3000
      764.0000       296.3600        77.7300      2363.3999
      764.2000       293.5600        77.4000      2376.0000
      764.4000       290.3600        76.1250      2386.6001
      764.6000       287.2800        76.4850      2378.7000
      764.8000       286.0400        79.6950      2364.7000
      765.0000       285.8400        81.9450      2346.3999
      765.2000       287.4400        83.6250      2328.5000
      765.4000       291.6000        84.5100      2309.7000
      765.6000       297.1600        85.0050      2280.8000
      765.8000       305.8400        84.8250      2251.3999
      766.0000       313.7200        83.7900      2196.6001
      766.2000       319.2800        81.4950      2159.5000
      766.4000       313.7600        78.6450      2145.2000
      766.6000       308.3200        77.9700      2163.0000
      766.8000       305.0000        79.3350      2253.2000
      767.0000       307.2400        78.9450      2307.1001
      767.2000       314.4400        77.4450      2316.6001
      767.4000       319.8400        76.5000      2310.3999
      767.6000       323.9200        76.9650      2301.2000
      767.8000       326.6800        82.6650      2297.3999
      768.0000       327.1600        85.6800      2313.0000
      768.2000       324.2000        88.0350      2337.7000
      768.4000       318.8000        91.3050      2357.2000
      768.6000       313.4800        97.8900      2364.0000
      768.8000       308.6000       102.1200      2358.8000
      769.0000       309.4800       102.1350      2368.7000
      769.2000       306.6400        97.8900      2414.8000
      769.4000       301.2400        91.3800      2432.7000
      769.6000       301.0800        76.2600      2147.3999
      769.8000       314.7200        58.3650      1991.7000
      770.0000       379.6800        51.8700      1575.1000
      770.2000       409.0800        50.8800      1546.9000
      770.4000       411.0800        65.1450      1788.2000
      770.6000       406.6800        87.5100      1892.4000
      770.8000       389.8800        93.3900      1997.6000
      771.0000       398.3600        92.0700      2001.1000
      771.2000       403.6000        70.0650      1769.6000
      771.4000       406.3600        62.1900      1697.1000
      771.6000       401.2800        61.5600      1798.5000
      771.8000       375.2400        80.9100      1998.8000
      772.0000       348.8000        94.6800      2261.7000
      772.2000       324.4400        99.4800      2286.5000
      772.4000       314.4800        95.8650      2302.7000
      772.6000       312.1600        93.3000      2314.5000
      772.8000       310.2800        91.0800      2344.5000
      773.0000       306.5200        88.3950      2407.8000
      773.2000       291.8400        85.5450      2435.3999
      773.4000       288.0800        81.6900      2222.8999
      773.6000       299.6400        76.4250      2023.7000
      773.8000       375.1600        70.8750      1863.2000
      774.0000       399.4800        65.1150      1603.2000
      774.2000       414.5200        62.2800      1576.9000
      774.4000       415.4800        61.0350      1712.2000
      774.6000       415.7200        64.2600      1768.5000
      774.8000       412.3600        66.8550      1822.4000
      775.0000       404.2400        73.0500      1990.0000
      775.2000       373.4400        80.1600      2097.3000
      775.4000       344.5600        85.0800      2140.1001
      775.6000       326.4000        87.7800      2122.8000
      775.8000       318.0000        87.6600      2170.0000
      776.0000       310.8000        85.0200      2269.7000
      776.2000       304.7200        82.2300      2342.2000
      776.4000       300.8000        80.4750      2365.3999
      776.6000       295.6400        79.6650      2380.1001
      776.8000       290.2400        79.6650      2384.3000
      777.0000       285.6800        79.4100      2391.7000
      777.2000       279.5200        78.3900      2437.3999
      777.4000       255.3600        75.4350      2488.3999
      777.6000       245.1600        72.0150      2550.7000
      777.8000       237.0800        69.5400      2564.0000
      778.0000       229.5200        67.3200      2580.6001
      778.2000       220.8400        64.8150      2597.7000
      778.4000       219.8000        61.7850      2611.2000
      778.6000       223.4400        58.1100      2615.8000
      778.8000       222.8800        54.7650      2615.0000
      779.0000       216.0800        53.1900      2617.7000
      779.2000       203.5200        53.0700      2633.7000
      779.4000       192.4000        54.0300      2647.3000
      779.6000       207.8400        69.2250      2606.8000
      779.8000       226.5600        82.6950      2494.3000
      780.0000       248.9200        92.0400      2453.2000
      780.2000       291.0000        96.1800      2428.6001
      780.4000       293.9600        98.1900      2419.7000
      780.6000       295.6400        99.5700      2429.6001
      780.8000       295.6400       101.7900      2458.3999
      781.0000       297.2800       104.9400      2471.0000
      781.2000       303.2400       110.1300      2461.0000
      781.4000       313.4400       114.5550      2455.1001
      781.6000       331.6800       116.2800      2453.6001
      781.8000       328.4000       111.7200      2466.6001
      782.0000       317.8800       106.9950      2478.3000
      782.2000       303.2800       104.0100      2491.3999
      782.4000       295.4000       102.1950      2509.8999
      782.6000       292.8800       101.0250      2533.7000
      782.8000       304.5200       101.8350      2572.3000
      783.0000       312.1600       104.6100      2592.8000
      783.2000       315.4400       107.1450      2589.8999
      783.4000       318.1600       108.1350      2547.6001
      783.6000       320.8800       102.9150      2423.1001
      783.8000       324.1200        95.8050      2412.1001
      784.0000       328.9200        91.4550      2326.3999
      784.2000       335.4800        88.8900      2292.2000
      784.4000       347.8800        85.7400      2011.8000
      784.6000       385.6400        70.2600      2001.2000
      784.8000       400.8400        49.9350      1550.3000
      785.0000       404.8400        53.1000      1506.4000
      785.2000       407.8800        69.0300      1594.9000
      785.4000       403.0800        80.2200      1650.2000
      785.6000       393.3200        72.0600      1667.6000
      785.8000       377.0000        62.0550      1865.3000
      786.0000       358.9600        62.8050      1934.7000
      786.2000       347.8000        73.8750      2088.5000
      786.4000       334.2800        79.6350      2276.1001
      786.6000       316.1200        83.5050      2362.2000
      786.8000       297.9200        79.0350      2393.3999
      787.0000       306.2800        77.9250      2403.8000
      787.2000       326.8800        86.0550      2409.0000
      787.4000       364.9200        95.9550      2411.3999
      787.6000       374.2800       101.6550      2411.0000
      787.8000       376.4000       104.9250      2406.2000
      788.0000       377.1200       113.0100      2401.3999
      788.2000       377.3600       119.1750      2398.3000
      788.4000       376.2800       113.5800      2396.2000
      788.6000       368.8800        85.4700      2411.8000
      788.8000       348.8800        72.2400      2425.1001
