~Version Information
# Data Copyright 2013 (C) geoLOGIC systems ltd.
 VERS  .     2.00 : LOG ASCII STANDARD -VERSION 2.0
 WRAP  .     NO   : ONE LINE PER DEPTH STEP
 PROD  .      geoLOGIC systems ltd.          : LAS Producer
 CREA  .      25/02/2013                     : LAS Creation date {MM/DD/YYYY}
~Well
#MNEM  .UNIT        Data                       Description of Mnemonic
#------.------ ----------------------------- : -------------------------
 STRT  .M          119.0000                  : START DEPTH
 STOP  .M          852.6000                  : STOP DEPTH
 STEP  .M            0.2000                  : STEP DEPTH
 NULL  .           -9999.69                  : NULL VALUE
 COMP  .      HUSKY OIL OPERATIONS LIMITED   : Company
 WELL  .      RENAISSANCE ET AL PROVOST 3-5-39: Well
 FLD   .      PROVOST                        : Field
 LOC   .                                     : Location
 PRVC  .      ALBERTA                        : Province
 SRVC  .      SCHLUMBERGER                   : Service Company
 DATE  .      03-JUN-83                      : Log Date
 UWI   .      100030503903W400               : Unique Well ID
 LIC   .      0101417                        : Licence Number
 LATI  .      52.3180156                     : Latitude
 LONG  .      -110.400359                    : Longitude
 GDAT  .      NAD27                          : Geodetic Datum
~Parameter
#MNEM  .UNIT        VALUE                      Description
#------.------ ----------------------------- : -------------------------
 RUN   .            1                        : Run Number
 EGL   .M           669.6000                 : Ground Level Elevation
 EREF  .M           673.5500                 : Elevation of Depth Reference
 EKB   .M           673.5000                 : Elevation of Kelly Bushing
 TDL   .M           851.3000                 : Total Depth Logger
 TDD   .M           855.0000                 : Total Depth Driller
 TLI   .M           0.0000                   : Top of Logged Interval
 BLI   .M           0.0000                   : Bottom of Logged Interval
~Curve
#MNEM  .UNIT        API Codes                  Curve description
#------.------ ----------------------------- : -------------------------
 DEPT  .M        0   1  0  0                 : 1 DEPTH
 AC    .US/M     60 520  0  1                : 2 SONIC INTERVAL TRANSIT TIME (COMPENSATED)
 GR    .GAPI     42 310  1  1                : 2 GAMMA RAY
 DEN   .K/M3     42 350  1  1                : 2 BULK DENSITY
~Ascii        DEPT           AC           GR          DEN
# ...
      681.8000       390.1600       118.9650      2334.2000
      682.0000       393.8000       118.8300      2348.5000
      682.2000       394.6800       120.6900      2360.8999
      682.4000       394.4800       121.1550      2360.5000
      682.6000       393.9200       118.4550      2355.5000
      682.8000       392.6400       117.2550      2351.7000
      683.0000       390.9600       117.3750      2349.2000
      683.2000       389.8400       117.9300      2349.3999
      683.4000       389.6800       116.7150      2350.6001
      683.6000       389.2800       110.4600      2356.0000
      683.8000       387.8000       107.3700      2364.6001
      684.0000       385.2400       109.3950      2382.1001
      684.2000       382.5600       113.5650      2406.5000
      684.4000       378.6000       116.1450      2419.5000
      684.6000       373.5600       115.9350      2373.7000
      684.8000       372.2000       114.2850      2351.2000
      685.0000       376.0400       114.6450      2339.3999
      685.2000       383.6800       115.6950      2329.1001
      685.4000       392.9600       116.7000      2323.2000
      685.6000       396.9200       116.7150      2323.0000
      685.8000       395.5200       114.9150      2338.1001
      686.0000       389.9200       110.9700      2354.6001
      686.2000       383.6800       108.2250      2361.1001
      686.4000       379.6800       109.6500      2357.0000
      686.6000       377.8800       114.3150      2346.0000
      686.8000       378.3200       116.3550      2341.2000
      687.0000       383.4400       109.4700      2341.2000
      687.2000       387.2400       107.3550      2376.5000
      687.4000       382.2400       108.0600      2388.7000
      687.6000       371.1200       111.2850      2373.1001
      687.8000       375.4000       114.8850      2346.8999
      688.0000       382.3200       117.5550      2343.8999
      688.2000       384.8800       118.1100      2364.3000
      688.4000       380.5200       118.2900      2386.6001
      688.6000       373.6400       118.1400      2355.8000
      688.8000       372.0400       117.8100      2337.8999
      689.0000       375.1200       117.5550      2332.1001
      689.2000       379.5200       116.7300      2335.5000
      689.4000       383.8000       115.3500      2344.3000
      689.6000       386.7200       114.0750      2337.8999
      689.8000       389.4000       113.1900      2328.3000
      690.0000       389.2800       114.3000      2336.1001
      690.2000       386.0400       116.3400      2382.1001
      690.4000       372.1200       115.1850      2419.1001
      690.6000       367.3600       114.3750      2400.3000
      690.8000       368.8400       114.3300      2366.3000
      691.0000       373.2400       115.2450      2349.7000
      691.2000       379.2400       117.1800      2342.3999
      691.4000       380.2800       118.3500      2344.8999
      691.6000       379.9600       117.8250      2354.0000
      691.8000       378.9600       113.8500      2360.3000
      692.0000       377.8400       114.1200      2364.0000
      692.2000       376.9600       120.8550      2362.8000
      692.4000       376.5600       128.3100      2356.6001
      692.6000       376.2800       117.6600      2352.7000
      692.8000       369.3200       102.1200      2378.8000
      693.0000       350.0400        94.6200      2452.7000
      693.2000       330.7200        93.0300      2473.3000
      693.4000       324.5600        97.7850      2433.8000
      693.6000       326.7600       101.8800      2396.3999
      693.8000       329.6000       107.1750      2385.1001
      694.0000       331.5600       115.9800      2384.0000
      694.2000       326.9200       129.6600      2402.1001
      694.4000       326.2400       132.8250      2417.3000
      694.6000       330.1600       107.2500      2419.3999
      694.8000       333.6400        86.8050      2382.7000
      695.0000       336.2000        74.9850      2352.3999
      695.2000       339.4000        70.3500      2332.6001
      695.4000       342.2000        69.2400      2318.8000
      695.6000       344.4800        70.7400      2310.8999
      695.8000       346.1200        72.8850      2305.2000
      696.0000       347.9200        73.8900      2300.6001
      696.2000       349.1600        74.4150      2295.2000
      696.4000       350.2000        74.3250      2289.2000
      696.6000       351.1600        74.0400      2279.7000
      696.8000       351.9200        73.7100      2268.8000
      697.0000       353.0400        73.4700      2261.8000
      697.2000       354.5600        73.1250      2261.5000
      697.4000       355.8800        72.8550      2270.8999
      697.6000       356.0400        68.5500      2284.7000
      697.8000       355.0400        62.9250      2304.3999
      698.0000       350.9600        59.3400      2336.3000
      698.2000       342.6000        58.5300      2383.8000
      698.4000       292.4400        58.2900      2478.3000
      698.6000       256.4800        55.3350      2532.3000
      698.8000       240.2800        52.7850      2541.6001
      699.0000       213.9200        51.8550      2544.8000
      699.2000       214.9200        52.2300      2520.5000
      699.4000       224.2000        54.7200      2464.6001
      699.6000       236.6000        56.7000      2241.0000
      699.8000       240.8000        58.6650      2180.8999
      700.0000       233.2000        57.8400      2204.8999
      700.2000       219.8800        56.4150      2376.8000
      700.4000       210.2800        58.3950      2470.8999
      700.6000       214.8800        62.8200      2506.2000
      700.8000       236.6800        64.6650      2466.0000
      701.0000       250.8400        65.0850      2389.0000
      701.2000       270.4000        65.5650      2339.6001
      701.4000       307.6000        66.9900      2288.3000
      701.6000       320.6800        69.1800      2276.5000
      701.8000       342.9200        69.9450      2275.7000
      702.0000       346.6400        69.5250      2282.0000
      702.2000       345.2400        69.2250      2295.8000
      702.4000       336.0400        72.8850      2314.8000
      702.6000       322.0800        79.9800      2319.6001
      702.8000       315.4000        85.2750      2333.5000
      703.0000       318.6400        89.1300      2346.1001
      703.2000       321.8800        90.3600      2346.2000
      703.4000       320.1200        90.4800      2346.2000
      703.6000       316.6000        90.2400      2345.8999
      703.8000       312.9600        85.5450      2335.7000
      704.0000       310.8800        78.1050      2334.1001
      704.2000       314.9600        73.9950      2343.1001
      704.4000       319.3200        72.4950      2353.1001
      704.6000       321.1200        73.0050      2365.5000
      704.8000       320.6400        73.9350      2376.1001
      705.0000       319.3600        75.0300      2381.2000
      705.2000       318.0000        75.8400      2368.7000
      705.4000       316.2000        74.2500      2357.0000
      705.6000       314.0000        68.3100      2364.7000
      705.8000       311.4000        65.7150      2386.1001
      706.0000       309.0400        63.8850      2393.0000
      706.2000       309.0800        63.1500      2373.3000
      706.4000       309.4800        63.3300      2352.2000
      706.6000       309.8800        64.5900      2337.5000
      706.8000       310.3600        67.2150      2329.3999
      707.0000       310.5200        69.8100      2324.3999
      707.2000       310.2800        70.4400      2323.5000
      707.4000       309.8800        70.9500      2323.2000
      707.6000       309.2400        71.2500      2324.1001
      707.8000       308.4800        71.1600      2328.3999
      708.0000       304.9600        70.3500      2343.6001
      708.2000       300.4000        68.9250      2370.8999
      708.4000       297.0400        67.5900      2398.6001
