~Version Information
# Data Copyright 2013 (C) geoLOGIC systems ltd.
 VERS  .     2.00 : LOG ASCII STANDARD -VERSION 2.0
 WRAP  .     NO   : ONE LINE PER DEPTH STEP
 PROD  .      geoLOGIC systems ltd.          : LAS Producer
 CREA  .      25/02/2013                     : LAS Creation date {MM/DD/YYYY}
~Well
#MNEM  .UNIT        Data                       Description of Mnemonic
#------.------ ----------------------------- : -------------------------
 STRT  .M          119.0000                  : START DEPTH
 STOP  .M          852.6000                  : STOP DEPTH
 STEP  .M            0.2000                  : STEP DEPTH
 NULL  .           -9999.69                  : NULL VALUE
 COMP  .      HUSKY OIL OPERATIONS LIMITED   : Company
 WELL  .      RENAISSANCE ET AL PROVOST 3-5-39: Well
 FLD   .      PROVOST                        : Field
 LOC   .                                     : Location
 PRVC  .      ALBERTA                        : Province
 SRVC  .      SCHLUMBERGER                   : Service Company
 DATE  .      03-JUN-83                      : Log Date
 UWI   .      100030503903W400               : Unique Well ID
 LIC   .      0101417                        : Licence Number
 LATI  .      52.3180156                     : Latitude
 LONG  .      -110.400359                    : Longitude
 GDAT  .      NAD27                          : Geodetic Datum
~Parameter
#MNEM  .UNIT        VALUE                      Description
#------.------ ----------------------------- : -------------------------
 RUN   .            1                        : Run Number
 EGL   .M           669.6000                 : Ground Level Elevation
 EREF  .M           673.5500                 : Elevation of Depth Reference
 EKB   .M           673.5000                 : Elevation of Kelly Bushing
 TDL   .M           851.3000                 : Total Depth Logger
 TDD   .M           855.0000                 : Total Depth Driller
 TLI   .M           0.0000                   : Top of Logged Interval
 BLI   .M           0.0000                   : Bottom of Logged Interval
~Curve
#MNEM  .UNIT        API Codes                  Curve description
#------.------ ----------------------------- : -------------------------
 DEPT  .M        0   1  0  0                 : 1 DEPTH
 AC    .US/M     60 520  0  1                : 2 SONIC INTERVAL TRANSIT TIME (COMPENSATED)
 GR    .GAPI     42 310  1  1                : 2 GAMMA RAY
 DEN   .K/M3     42 350  1  1                : 2 BULK DENSITY
~Ascii        DEPT           AC           GR          DEN
# ...
      440.6000       402.8400       140.8500      2210.6001
      440.8000       403.5600       141.1500      2226.1001
      441.0000       403.0000       145.3500      2248.0000
      441.2000       401.0000       143.6850      2271.7000
      441.4000       398.1200       142.3350      2283.7000
      441.6000       399.7600       145.9350      2290.8000
      441.8000       404.0400       149.3100      2273.8999
      442.0000       408.9200       152.2950      2246.7000
      442.2000       412.9200       155.1900      2229.6001
      442.4000       414.9200       153.0750      2209.0000
      442.6000       411.2000       151.1250      2160.1001
      442.8000       409.0800       150.6000      2111.0000
      443.0000       410.1600       148.5900      2093.3999
      443.2000       411.5200       151.0800      2075.8999
      443.4000       412.5200       151.0200      2065.1001
      443.6000       413.1200       146.1750      2079.3999
      443.8000       412.2000       144.5250      2106.5000
      444.0000       409.6800       145.9050      2126.6001
      444.2000       407.0000       151.0800      2175.3000
      444.4000       403.9600       148.2300      2200.5000
      444.6000       398.7600       143.7300      2234.6001
      444.8000       379.5600       138.2850      2256.2000
      445.0000       386.6400       132.4350      2206.1001
      445.2000       401.1600       129.4350      2139.3999
      445.4000       418.0400       131.3250      2099.8999
      445.6000       414.5200       137.5500      2093.6001
      445.8000       412.6400       140.7150      2113.8000
      446.0000       410.7600       137.6700      2157.0000
      446.2000       410.3200       136.9950      2186.8000
      446.4000       412.0000       137.7300      2206.7000
      446.6000       410.8800       138.9750      2218.7000
      446.8000       406.1200       140.5650      2225.7000
      447.0000       401.6400       141.5700      2225.1001
      447.2000       404.7200       141.9750      2211.7000
      447.4000       407.5200       141.8550      2197.8999
      447.6000       407.9600       141.3750      2187.3999
      447.8000       407.6400       141.9000      2182.1001
      448.0000       407.6400       143.9100      2199.3999
      448.2000       407.4800       143.9850      2222.0000
      448.4000       406.3200       142.3800      2226.8000
      448.6000       405.0800       140.4150      2213.7000
      448.8000       404.0800       138.2850      2203.5000
      449.0000       406.2800       136.6050      2197.8000
      449.2000       408.6400       135.1800      2193.1001
      449.4000       411.5600       134.3250      2192.0000
      449.6000       414.1600       137.4000      2194.3000
      449.8000       414.3200       141.3000      2203.1001
      450.0000       412.3600       142.6950      2206.8000
      450.2000       410.6400       142.9200      2194.3000
      450.4000       409.7200       140.7450      2184.3999
      450.6000       408.2000       133.5000      2192.5000
      450.8000       402.0000       129.6900      2258.7000
      451.0000       387.6800       127.7700      2290.5000
      451.2000       386.6000       132.7200      2255.7000
      451.4000       391.3600       138.6000      2210.7000
      451.6000       405.4400       141.3600      2182.8000
      451.8000       406.4000       141.6150      2158.8999
      452.0000       407.8400       135.7950      2147.8999
      452.2000       409.2000       132.4800      2136.8999
      452.4000       410.9200       131.7750      2078.8999
      452.6000       412.9200       132.6000      2035.5000
      452.8000       415.6000       134.3400      2035.4000
      453.0000       416.5600       133.8600      2078.5000
      453.2000       403.4800       134.2200      2166.8000
      453.4000       392.0400       138.3750      2180.0000
      453.6000       387.4400       141.6150      2137.7000
      453.8000       392.9600       128.8500      2118.1001
      454.0000       399.8800       131.3700      2112.1001
      454.2000       406.8800       137.3850      2110.5000
      454.4000       412.4000       140.1150      2117.8000
      454.6000       414.7600       133.8300      2131.2000
      454.8000       415.6000       129.1950      2133.8000
      455.0000       415.6800       127.7700      2128.6001
      455.2000       415.1600       133.4100      2128.3999
      455.4000       414.4000       139.1400      2137.8999
      455.6000       413.5600       138.7350      2169.5000
      455.8000       412.1200       135.3150      2148.1001
      456.0000       409.5600       133.9800      2120.1001
      456.2000       406.6000       135.4350      2111.7000
      456.4000       407.8000       138.9600      2139.5000
      456.6000       413.1200       138.6900      2165.8999
      456.8000       417.2800       138.6900      2149.6001
      457.0000       421.4800       140.4300      2129.8000
      457.2000       419.2400       142.2150      2123.3000
      457.4000       416.8800       141.0150      2124.3999
      457.6000       417.2800       140.2050      2160.6001
      457.8000       417.6400       140.0100      2172.3000
      458.0000       416.8400       144.6450      2183.6001
      458.2000       414.3600       155.0250      2203.6001
      458.4000       409.2000       153.1350      2219.7000
      458.6000       406.0000       148.5600      2209.3000
      458.8000       408.1600       147.2700      2188.6001
      459.0000       410.2000       148.1250      2184.0000
      459.2000       413.0400       148.4100      2202.0000
      459.4000       415.7200       146.2050      2216.0000
      459.6000       418.2800       143.1600      2213.1001
      459.8000       420.8000       140.6850      2197.8999
      460.0000       422.0800       140.1900      2194.3999
      460.2000       420.0000       143.8800      2216.6001
      460.4000       414.9200       146.7900      2233.0000
      460.6000       406.8400       147.5250      2198.0000
      460.8000       407.6000       147.5550      2176.7000
      461.0000       412.3600       144.0150      2164.1001
      461.2000       419.7600       141.3750      2191.8000
      461.4000       423.8400       141.5700      2221.6001
      461.6000       417.0000       145.6200      2251.2000
      461.8000       406.8400       147.5850      2259.1001
      462.0000       401.1600       143.5200      2260.8999
      462.2000       406.4800       136.4850      2262.7000
      462.4000       411.8000       134.2950      2266.5000
      462.6000       410.2000       135.3750      2253.1001
      462.8000       405.4800       138.1950      2245.7000
      463.0000       398.1600       136.8000      2289.6001
      463.2000       385.8400       130.8000      2310.6001
      463.4000       357.6400       127.7700      2329.5000
      463.6000       347.7600       129.6450      2353.3999
      463.8000       355.7600       136.5000      2358.3999
      464.0000       386.8000       143.7000      2291.0000
      464.2000       402.8400       145.7700      2261.5000
      464.4000       407.4000       145.9650      2264.8000
      464.6000       411.4800       144.9600      2266.3000
      464.8000       413.4400       146.5200      2262.2000
      465.0000       410.6400       148.5900      2252.1001
      465.2000       402.9200       145.7850      2242.8000
      465.4000       400.7200       145.0500      2231.5000
      465.6000       406.4000       146.6550      2221.8000
      465.8000       409.7200       149.7000      2213.8000
      466.0000       406.9600       150.1200      2208.3999
      466.2000       406.3200       146.0400      2207.3999
      466.4000       411.4000       144.0900      2209.3999
      466.6000       408.8800       143.2200      2213.0000
      466.8000       404.3200       143.3100      2210.8000
      467.0000       404.3200       143.5800      2195.3000
      467.2000       412.4800       145.6350      2184.3999
