# LAS format log file from PETREL
# Project units are specified as depth units
#==================================================================
~Version information
VERS.   2.0:
WRAP.   NO:
#==================================================================
~Well
STRT .m      743.10000000 :
STOP .m      842.00000000 :
STEP .m     0.10000000 :
NULL .        -999.250000 :
COMP.           : COMPANY
WELL.  100120603903W400   : WELL
FLD.            : FIELD
LOC.            : LOCATION
SRVC.           : SERVICE COMPANY
DATE.  2023-06-01 13:43:19   : Log Export Date {yyyy-MM-dd HH:mm:ss}
PROV.           : PROVINCE
UWI.      : UNIQUE WELL ID
API.            : API NUMBER
#==================================================================
~Curve
DEPT .m                   : DEPTH
AC .us/m                  : AC
GR .gAPI                  : GR
PEF .b/e                  : PEF
DEN .g/cm3                : DEN
NPHI .m3/m3               : NPHI
~Parameter
#==================================================================
~Ascii
 743.10000000 289.07998657 51.720001221 3.8299999237 2.7060601711 0.2328999937
 743.20000000 289.30999756 50.209999084 4.0999999046 2.7247700691 0.2436999977
 743.30000000 291.36999512 52.479999542 4.3299999237 2.7301800251 0.2594000101
 743.40000000 301.02999878 58.909999847 4.4200000763 2.7069799900 0.2834999859
 743.50000000 320.23001099 66.690002441 4.2100000381 2.6501100063 0.3156999946
 743.60000000 340.33001709 73.080001831 3.7100000381 2.5799098015 0.3422000110
 743.70000000 355.51000977 78.339996338 3.2000000477 2.5083701611 0.3504000008
 743.80000000 364.19000244 83.650001526 2.8399999142 2.4492800236 0.3472999930
 743.90000000 364.83999634 88.660003662 2.6400001049 2.4036998749 0.3465000093
 744.00000000 361.76000977 91.089996338 2.5499999523 2.3544299603 0.3551999927
 744.10000000 360.39999390 90.050003052 2.5299999714 2.2966101170 0.3713000119
 744.20000000 359.13998413 87.300003052 2.4900000095 2.2290799618 0.3896999955
 744.30000000 357.57998657 85.239997864 2.4100000858 2.1731898785 0.4083999991
 744.40000000 355.36001587 84.739997864 2.2899999619 2.1367900372 0.4244999886
 744.50000000 350.51998901 84.940002441 2.1700000763 2.1308200359 0.4309000075
 744.60000000 341.73999023 85.110000610 2.0799999237 2.1551399231 0.4208000004
 744.70000000 328.19998169 85.129997253 2.0299999714 2.1973898411 0.3925999999
 744.80000000 311.10000610 85.040000916 2.0399999619 2.2528300285 0.3607999980
 744.90000000 296.64999390 84.489997864 2.0899999142 2.3017199039 0.3411999941
 745.00000000 290.38998413 83.150001526 2.1400001049 2.3314399719 0.3348000050
 745.10000000 291.63998413 80.919998169 2.1900000572 2.3440599442 0.3348999918
 745.20000000 296.05999756 77.910003662 2.2100000381 2.3409500122 0.3384999931
 745.30000000 300.42001343 74.379997253 2.2200000286 2.3330099583 0.3431000113
 745.40000000 302.35000610 71.699996948 2.2200000286 2.3183000088 0.3436000049
 745.50000000 302.91000366 70.309997559 2.2300000191 2.3042800426 0.3398999870
 745.60000000 304.30999756 69.870002747 2.2500000000 2.2936100960 0.3371999860
 745.70000000 305.98001099 70.089996338 2.2799999714 2.2855000496 0.3386000097
 745.80000000 306.98999023 70.620002747 2.3399999142 2.2797200680 0.3431000113
 745.90000000 306.73001099 70.750000000 2.4100000858 2.2762200832 0.3488999903
 746.00000000 304.74002075 71.059997559 2.4700000286 2.2736999989 0.3535000086
 746.10000000 303.37997437 72.209999084 2.5099999905 2.2749900818 0.3565999866
 746.20000000 303.25000000 73.489997864 2.5199999809 2.2807500362 0.3580999970
 746.30000000 302.95999146 73.360000610 2.5099999905 2.2910799980 0.3558000028
 746.40000000 300.75000000 71.470001221 2.5000000000 2.3039300442 0.3506000042
 746.50000000 295.75000000 68.580001831 2.5099999905 2.3147399426 0.3456999958
 746.60000000 290.95001221 66.440002441 2.5199999809 2.3238101006 0.3393999934
 746.70000000 287.76998901 66.370002747 2.5399999619 2.3305599689 0.3312000036
 746.80000000 285.50000000 67.959999084 2.5399999619 2.3365099430 0.3267000020
 746.90000000 285.01000977 69.519996643 2.5499999523 2.3406000137 0.3291000128
 747.00000000 286.23001099 70.069999695 2.5899999142 2.3398201466 0.3368000090
 747.10000000 286.35000610 70.250000000 2.6099998951 2.3389499187 0.3454999924
 747.20000000 283.27999878 70.180000305 2.6300001144 2.3420600891 0.3492000103
 747.30000000 276.01998901 69.209999084 2.6199998856 2.3565700054 0.3429999948
 747.40000000 264.97998047 67.129997253 2.6099998951 2.3837299347 0.3278000057
 747.50000000 254.44000244 65.180000305 2.6600000858 2.4130301476 0.3104000092
 747.60000000 251.24000549 64.430000305 2.7300000191 2.4352400303 0.3003000021
 747.70000000 257.13998413 64.800003052 2.8099999428 2.4396498203 0.3025000095
 747.80000000 268.88998413 65.959999084 2.8399999142 2.4290499687 0.3122000098
 747.90000000 282.61001587 68.519996643 2.7999999523 2.4101898670 0.3217999935
 748.00000000 295.27999878 72.529998779 2.7200000286 2.3896000385 0.3300000131
 748.10000000 304.61001587 77.199996948 2.5999999046 2.3766298294 0.3393000066
 748.20000000 309.38998413 81.279998779 2.4900000095 2.3721001148 0.3486999869
 748.30000000 307.60000610 83.120002747 2.4200000763 2.3800699711 0.3538999856
 748.40000000 303.44000244 81.910003662 2.4200000763 2.3953599930 0.3531000018
 748.50000000 302.38000488 78.750000000 2.4700000286 2.4143099785 0.3499999940
 748.60000000 303.52001953 75.860000610 2.5899999142 2.4351999760 0.3486000001
 748.70000000 302.85000610 74.580001831 2.7400000095 2.4508700371 0.3506999910
 748.80000000 298.94000244 74.970001221 2.9100000858 2.4624900818 0.3553999960
 748.90000000 295.25000000 76.330001831 3.0199999809 2.4696598053 0.3585000038
 749.00000000 293.19000244 77.250000000 3.0599999428 2.4762699604 0.3551000059
 749.10000000 288.39001465 75.980003357 3.0899999142 2.4891598225 0.3495000005
 749.20000000 282.58999634 71.459999084 3.1199998856 2.5088300705 0.3546000123
 749.30000000 285.91998291 64.610000610 3.1199998856 2.5161900520 0.3774999976
 749.40000000 298.98001099 57.900001526 3.0999999046 2.4898898602 0.4124000072
 749.50000000 312.00000000 53.450000763 2.9900000095 2.3788301945 0.4474000037
 749.60000000 320.19000244 51.930000305 2.5999999046 2.2243897915 0.4745000005
 749.70000000 327.99002075 53.439998627 2.1900000572 2.1029899120 0.4855000079
 749.80000000 341.64001465 57.869998932 1.8600000143 2.0282599926 0.4681000113
 749.90000000 352.58001709 64.080001831 1.6499999762 2.0245599747 0.4264000058
 750.00000000 348.75000000 70.300003052 1.6100000143 2.0685901642 0.3867999911
 750.10000000 335.39999390 74.709999084 1.6699999571 2.1243500710 0.3641999960
 750.20000000 325.14999390 76.809997559 1.8300000429 2.1848301888 0.3565999866
 750.30000000 320.34002686 78.239997864 2.0000000000 2.2250099182 0.3578000069
 750.40000000 315.23999023 81.449996948 2.0999999046 2.2556397915 0.3617999852
 750.50000000 309.72000122 86.190002441 2.1800000668 2.2787799835 0.3616999984
 750.60000000 307.65002441 90.680000305 2.2200000286 2.2934498787 0.3567999899
 750.70000000 306.58999634 93.970001221 2.2300000191 2.3083600998 0.3528000116
 750.80000000 303.17999268 96.669998169 2.2699999809 2.3256599903 0.3533000052
 750.90000000 300.30999756 98.669998169 2.3099999428 2.3444199562 0.3573000133
 751.00000000 301.44000244 99.589996338 2.3699998856 2.3636698723 0.3607000113
 751.10000000 303.97000122 98.720001221 2.4100000858 2.3790400028 0.3591000140
 751.20000000 303.26998901 96.349998474 2.4300000668 2.3901298046 0.3540999889
 751.30000000 298.55999756 93.269996643 2.4300000668 2.3950700760 0.3531000018
 751.40000000 293.88000488 90.019996643 2.4400000572 2.3951299191 0.3587000072
 751.50000000 290.11999512 86.330001831 2.4600000381 2.3900399208 0.3648000062
 751.60000000 285.89001465 82.489997864 2.5000000000 2.3846101761 0.3655999899
 751.70000000 285.39001465 79.209999084 2.5599999428 2.3839700222 0.3637999892
 751.80000000 288.17001343 76.120002747 2.6199998856 2.3919298649 0.3666999936
 751.90000000 288.10998535 71.639999390 2.7100000381 2.4213700294 0.3768000007
 752.00000000 282.76000977 65.330001831 2.8099999428 2.4792699814 0.3903999925
 752.10000000 274.73001099 58.459999084 2.9400000572 2.5655100346 0.4022000134
 752.20000000 271.51000977 52.830001831 3.1500000954 2.6728401184 0.4081999958
 752.30000000 273.25000000 49.720001221 3.5499999523 2.7807700634 0.4047999978
 752.40000000 271.82000732 49.770000458 4.1999998093 2.8413300514 0.3921000063
 752.50000000 264.42001343 52.869998932 4.7500000000 2.8153998852 0.3734999895
 752.60000000 253.62998962 57.779998779 4.6500000954 2.7430601120 0.3497999907
 752.70000000 243.96000671 62.220001221 4.1700000763 2.6745800972 0.3192999959
 752.80000000 234.27000427 64.430000305 3.6800000668 2.6221001148 0.2861000001
 752.90000000 218.72999573 64.510002136 3.3699998856 2.6040701866 0.2552999854
 753.00000000 200.72000122 63.349998474 3.2599999905 2.6109299660 0.2303999960
 753.10000000 190.38000488 61.979999542 3.2300000191 2.6287200451 0.2134999931
 753.20000000 188.88000488 61.360000610 3.2799999714 2.6457300186 0.2044000030
