# LAS format log file from PETREL
# Project units are specified as depth units
#==================================================================
~Version information
VERS.   2.0:
WRAP.   NO:
#==================================================================
~Well
STRT .m      743.10000000 :
STOP .m      842.00000000 :
STEP .m     0.10000000 :
NULL .        -999.250000 :
COMP.           : COMPANY
WELL.  100120603903W400   : WELL
FLD.            : FIELD
LOC.            : LOCATION
SRVC.           : SERVICE COMPANY
DATE.  2023-06-01 13:43:19   : Log Export Date {yyyy-MM-dd HH:mm:ss}
PROV.           : PROVINCE
UWI.      : UNIQUE WELL ID
API.            : API NUMBER
#==================================================================
~Curve
DEPT .m                   : DEPTH
AC .us/m                  : AC
GR .gAPI                  : GR
PEF .b/e                  : PEF
DEN .g/cm3                : DEN
NPHI .m3/m3               : NPHI
~Parameter
#==================================================================
~Ascii
# ...
 834.90000000 297.92999268 19.379999161 1.7200000286 2.1477098465 0.3447000086
 835.00000000 302.33001709 19.680000305 1.7200000286 2.1388401985 0.3458000124
 835.10000000 303.70001221 20.290000916 1.7100000381 2.1309599876 0.3443000019
 835.20000000 303.10998535 20.989999771 1.7000000477 2.1254298687 0.3429999948
 835.30000000 302.41998291 21.270000458 1.6900000572 2.1237099171 0.3429000080
 835.40000000 301.41998291 20.829999924 1.6699999571 2.1257600784 0.3438999951
 835.50000000 299.72998047 20.139999390 1.6599999666 2.1265799999 0.3450999856
 835.60000000 299.11999512 19.860000610 1.6499999762 2.1264898777 0.3461999893
 835.70000000 299.08999634 19.889999390 1.6499999762 2.1248199940 0.3461000025
 835.80000000 297.02999878 20.090000153 1.6699999571 2.1226499081 0.3441999853
 835.90000000 295.11999512 20.760000229 1.6900000572 2.1220300198 0.3407999873
 836.00000000 296.02001953 21.760000229 1.7200000286 2.1213798523 0.3350000083
 836.10000000 298.60998535 22.190000534 1.7599999905 2.1218299866 0.3291000128
 836.20000000 298.73999023 21.739999771 1.7899999619 2.1228601933 0.3278999925
 836.30000000 296.14001465 20.899999619 1.8099999428 2.1225399971 0.3309000134
 836.40000000 297.02999878 20.760000229 1.7999999523 2.1208000183 0.3325000107
 836.50000000 302.11001587 21.780000687 1.7799999714 2.1164100170 0.3310000002
 836.60000000 305.55999756 23.889999390 1.7599999905 2.1124999523 0.3289000094
 836.70000000 304.32998657 26.680000305 1.7500000000 2.1121101379 0.3273999989
 836.80000000 302.52999878 29.920000076 1.7699999809 2.1127600670 0.3276999891
 836.90000000 303.61999512 32.680000305 1.7899999619 2.1179199219 0.3321000040
 837.00000000 306.19000244 33.569999695 1.8099999428 2.1241497993 0.3389999866
 837.10000000 307.77001953 32.310001373 1.8300000429 2.1274399757 0.3416000009
 837.20000000 307.89999390 30.610000610 1.8400000334 2.1226699352 0.3375000060
 837.30000000 307.55001831 29.760000229 1.8400000334 2.1113400459 0.3303999901
 837.40000000 306.11999512 29.930000305 1.8200000525 2.1081900597 0.3134999871
 837.50000000 301.26000977 30.180000305 1.7799999714 2.1155500412 0.2763000131
 837.60000000 286.76998901 29.639999390 1.7500000000 2.1441102028 0.2129999995
 837.70000000 265.63000488 28.239999771 1.7599999905 2.1964299679 0.1431999952
 837.80000000 244.61001587 26.440000534 1.8300000429 2.2721297741 0.0923999995
 837.90000000 223.39999390 24.870000839 1.9900000095 2.3685100079 0.0636000037
 838.00000000 203.16000366 24.450000763 2.2100000381 2.4514899254 0.0515000001
 838.10000000 189.01998901 25.920000076 2.4600000381 2.5148701668 0.0480999984
 838.20000000 185.20999146 29.200000763 2.7000000477 2.5616798401 0.0480000004
 838.30000000 188.94000244 33.720001221 2.8800001144 2.5930399895 0.0502000004
 838.40000000 193.72999573 39.580001831 3.0499999523 2.6175200939 0.0524000004
 838.50000000 196.98001099 47.090000153 3.1700000763 2.6246101856 0.0531000011
 838.60000000 197.25000000 55.419998169 3.2200000286 2.6228201389 0.0515000001
 838.70000000 194.76998901 62.860000610 3.2000000477 2.6161899567 0.0493000001
 838.80000000 190.51000977 68.260002136 3.1400001049 2.6031899452 0.0500000007
 838.90000000 185.43000793 70.959999084 3.0399999619 2.5757699013 0.0551000014
 839.00000000 183.25999451 68.839996338 2.9300000668 2.5315899849 0.0641999990
 839.10000000 185.05000305 60.689998627 2.7500000000 2.4651398659 0.0766000003
 839.20000000 188.33999634 50.439998627 2.5099999905 2.3854699135 0.0935000032
 839.30000000 193.06999207 43.689998627 2.2500000000 2.3089599609 0.1176000014
 839.40000000 202.69999695 41.299999237 2.0399999619 2.2426598072 0.1510999948
 839.50000000 218.86999512 39.979999542 1.8799999952 2.1965401173 0.1909999996
 839.60000000 237.65000916 37.619998932 1.7799999714 2.1672899723 0.2334000021
 839.70000000 255.49000549 35.419998169 1.7200000286 2.1486999989 0.2705999911
 839.80000000 272.98999023 35.130001068 1.6799999475 2.1386399269 0.2980000079
 839.90000000 290.29998779 36.790000916 1.6599999666 2.1340200901 0.3142000139
 840.00000000 303.47000122 39.139999390 1.6499999762 2.1371397972 0.3210999966
 840.10000000 309.98001099 40.750000000 1.6499999762 2.1475100517 0.3208999932
 840.20000000 310.63998413 41.060001373 1.6499999762 2.1644198895 0.3161999881
 840.30000000 309.23001099 39.930000305 1.6599999666 2.1842300892 0.3125000000
 840.40000000 310.83999634 37.990001678 1.7100000381 2.1987600327 0.3143999875
 840.50000000 313.44000244 36.520000458 1.7500000000 2.2025001049 0.3206999898
 840.60000000 312.08999634 36.009998322 1.7599999905 2.1952500343 0.3271999955
 840.70000000 309.26000977 35.819999695 1.7400000095 2.1817300320 0.3316999972
 840.80000000 309.04000854 35.490001678 1.7000000477 2.1690399647 0.3348000050
 840.90000000 307.97000122 35.250000000 1.6599999666 2.1620600224 0.3368000090
 841.00000000 302.48999023 35.209999084 1.6399999857 2.1636397839 0.3361000121
 841.10000000 298.52999878 35.080001831 1.6399999857 2.1747000217 0.3314999938
 841.20000000 296.57000732 35.169998169 1.6499999762 2.1911900043 0.3235000074
 841.30000000 291.97000122 35.950000763 1.6799999475 2.2078499794 0.3129000068
 841.40000000 287.52999878 36.880001068 1.7200000286 2.2207400799 0.2985999882
 841.50000000 283.75997925 37.400001526 1.7500000000 2.2296698093 0.2806999981
 841.60000000 273.63000488 37.810001373 1.7799999714 2.2348999977 0.2648999989
 841.70000000 257.55999756 38.270000458 1.8300000429 2.2376499176 0.2588000000
 841.80000000 243.52000427 38.380001068 1.8799999952 2.2412199974 0.2628999949
 841.90000000 234.59999084 38.189998627 1.9099999666 2.2496800423 0.2716999948
 842.00000000 230.58999634 38.040000916 1.9500000477 2.2679500580 0.2791999876
