# Exported from Geomodeling Studio 8.5
# Project: RedLion
# Date: 2023-06-07T16:32:40
# User: xuepi
# Geodetic Coordinate System: NAD27 / UTM zone 12N
# 
~Version
VERS          .          3.0                                         :CWLS LOG ASCII STANDARD - VERSION 3.00
WRAP          .          NO                                          :One line per depth step
DLM           .          SPACE                                       :Delimiter character between data columns
#Delimiting character ( SPACE TAB OR COMMA ).
#----          ----      -------------                                -----------
#MNEM         .UNIT      DATA                                        :DESCRIPTION
~Well
STRT          .m         770.040                                     :FIRST INDEX VALUE
STOP          .m         859.480                                     :LAST INDEX VALUE
STEP          .m         0.0400                                      :STEP
NULL          .          -9999.990                                   :NULL VALUE
COMP          .                                                      :COMPANY
WELL          .          100/16-32-038-03W4/00                       :WELL
FLD           .                                                      :FIELD
LOC           .                  :LOCATION                              
SRVC          .                                                      :SERVICE COMPANY
CTRY          .                                                      :COUNTRY
CNTY          .                                                      :COUNTY
STAT          .                                                      :STATE
API           .                                                      :API NUMBER
DATE          .                                                      :LOG DATE
X             .          541852.200                                  :X OR EAST-WEST COORDINATE
Y             .          5796064.200                                 :Y OR NORTH-SOUTH COORDINATE
HZCS          .                                                      :HORIZONTAL CO-ORDINATE SYSTEM
GDAT          .          NAD27                                       :GEODETIC DATUM
UWI           .          100163203803W400                            :Unique Well Identifier
#----          ----      -----                                        -----------
~Parameter 
#MNEM         .UNIT      VALUE                                        Description
APD           .M         00.00                                       :Above Permanent Datum
DREF          .          KB                                          :Depth Reference (KB,DF,CB)
EREF          .m         674.300                                     :Elevation of Depth Deference
RUN           .          1                                           :Run Number
EKB           .m         674.300                                     :Kelling Bush Elevation
#----          ----      ---------                                    -----------------
#MNEM          UNIT      LOG CODES                                    Curve Description
~Curve
DEPTH         .m                                                     :DEPTH
GR            .GAPI                                                  :
NPHI          .Fraction                                              :
PE            .Bar/e                                                 :
RHOB          .g/cm^3                                                :
AC            .us/m                                                  :
#----          ----      ---------                                    -----------------
~Ascii
# ...
832.8 22.5 0.294 1.69 2.131 331.83
832.84 22.08 0.295 1.66 2.142 332.15
832.88 22.37 0.3 1.63 2.152 332.75
832.92 22.59 0.3 1.6 2.146 333.34
832.96 21.74 0.295 1.58 2.137 333.73
833 20.23 0.295 1.59 2.132 333.84
833.04 20.11 0.299 1.64 2.128 333.76
833.08 21.82 0.298 1.67 2.12 333.62
833.12 23.12 0.287 1.71 2.11 333.53
833.16 24.53 0.285 1.69 2.111 333.51
833.2 25.21 0.288 1.66 2.118 333.49
833.24 23.2 0.289 1.66 2.12 333.38
833.28 20.33 0.287 1.69 2.117 333.14
833.32 19.32 0.284 1.69 2.115 332.79
833.36 20.07 0.292 1.67 2.127 332.43
833.4 19.93 0.287 1.64 2.139 332.22
833.44 19.27 0.284 1.64 2.133 332.27
833.48 20.63 0.282 1.62 2.127 332.62
833.52 23.29 0.288 1.6 2.14 333.21
833.56 23 0.285 1.6 2.168 333.93
833.6 21.81 0.287 1.55 2.195 334.62
833.64 21.03 0.287 1.48 2.205 335.16
833.68 19.23 0.291 1.49 2.198 335.51
833.72 17.62 0.29 1.6 2.19 335.74
833.76 16.84 0.293 1.66 2.185 335.99
833.8 17.93 0.296 1.62 2.182 336.37
833.84 21.33 0.296 1.59 2.181 336.89
833.88 21.66 0.287 1.62 2.167 337.47
833.92 18.58 0.28 1.65 2.155 338.04
833.96 16.01 0.276 1.67 2.145 338.56
834 16.02 0.278 1.69 2.136 339.07
834.04 17.29 0.286 1.67 2.138 339.7
834.08 19.1 0.298 1.64 2.147 340.58
834.12 22.42 0.308 1.65 2.155 341.73
834.16 25.66 0.316 1.7 2.163 343.05
834.2 24.18 0.318 1.73 2.17 344.2
834.24 21.57 0.311 1.71 2.176 344.75
834.28 21.35 0.299 1.68 2.18 344.39
834.32 21.64 0.29 1.66 2.179 343.05
834.36 22.49 0.282 1.68 2.165 341.04
834.4 24.61 0.284 1.7 2.159 338.83
834.44 25.36 0.284 1.67 2.172 336.89
834.48 23.68 0.293 1.63 2.176 335.48
834.52 21.41 0.308 1.64 2.163 334.65
834.56 20.32 0.315 1.64 2.155 334.25
834.6 20.51 0.298 1.64 2.156 334.03
834.64 20.2 0.284 1.64 2.16 333.73
834.68 21.23 0.279 1.64 2.153 333.17
834.72 25.6 0.278 1.65 2.141 332.4
834.76 28.25 0.272 1.63 2.14 331.55
834.8 25.67 0.268 1.63 2.142 330.93
834.84 25.17 0.269 1.63 2.143 330.74
834.88 28.72 0.272 1.64 2.137 331.07
834.92 30.57 0.289 1.65 2.13 331.87
834.96 29.33 0.294 1.67 2.137 332.94
835 30.13 0.31 1.68 2.154 334.09
835.04 31.53 0.32 1.7 2.171 335.19
835.08 30.75 0.317 1.71 2.168 336.23
835.12 29.6 0.3 1.74 2.14 337.21
835.16 29.6 0.294 1.76 2.12 338.17
835.2 29.42 0.295 1.76 2.123 339.12
835.24 29.69 0.293 1.75 2.126 340.05
835.28 30.03 0.284 1.74 2.125 341.05
835.32 31.02 0.278 1.75 2.131 342.15
835.36 33.18 0.267 1.79 2.139 343.29
835.4 39.48 0.268 1.74 2.157 344.22
835.44 47.11 0.271 1.69 2.191 344.69
835.48 50.71 0.268 1.71 2.234 344.54
835.52 52.14 0.253 1.79 2.268 343.81
835.56 57.21 0.248 1.85 2.287 342.68
835.6 63.04 0.242 1.83 2.316 341.38
835.64 65.21 0.241 1.83 2.369 340.15
835.68 68.65 0.247 1.96 2.412 339.12
835.72 70.97 0.259 2.15 2.403 338.42
835.76 67.28 0.267 2.25 2.375 338.04
835.8 65.1 0.257 2.19 2.358 337.91
835.84 64.98 0.253 2.11 2.363 337.83
835.88 62.31 0.263 2.11 2.382 337.46
835.92 60.24 0.264 2.23 2.386 336.54
835.96 58.4 0.266 2.31 2.369 334.98
836 55.19 0.285 2.29 2.362 332.98
836.04 55.18 0.287 2.23 2.368 330.96
836.08 58.56 0.283 2.15 2.38 329.36
836.12 58.99 0.286 2.07 2.37 328.42
836.16 53.06 0.292 2.06 2.335 328.19
836.2 47.58 0.3 2.1 2.293 328.5
836.24 46.95 0.307 2.14 2.26 329.14
836.28 46.39 0.308 2.16 2.228 329.92
836.32 43.15 0.304 2.12 2.199 330.75
836.36 40.06 0.298 2.08 2.173 331.64
836.4 37.43 0.298 1.99 2.153 332.55
836.44 33.88 0.291 1.83 2.144 333.49
836.48 31.02 0.287 1.71 2.147 334.43
836.52 30.05 0.291 1.67 2.152 335.4
836.56 27.94 0.298 1.67 2.157 336.42
836.6 25.69 0.299 1.66 2.162 337.51
836.64 25.7 0.289 1.66 2.154 338.6
836.68 25.73 0.291 1.7 2.141 339.55
836.72 26.27 0.285 1.76 2.124 340.28
836.76 27.24 0.278 1.8 2.113 340.72
836.8 24.14 0.273 1.76 2.119 341.02
836.84 19.72 0.279 1.7 2.14 341.31
836.88 19.94 0.293 1.71 2.146 341.75
836.92 23.81 0.3 1.74 2.137 342.36
836.96 25.74 0.302 1.72 2.137 342.99
837 27.56 0.301 1.7 2.134 343.43
837.04 29.93 0.306 1.72 2.127 343.5
837.08 31.22 0.313 1.78 2.128 343.19
837.12 30.13 0.318 1.83 2.13 342.57
837.16 28.82 0.317 1.83 2.123 341.8
837.2 27.96 0.322 1.78 2.116 340.98
837.24 26.52 0.304 1.71 2.126 340.17
837.28 26.61 0.296 1.66 2.147 339.42
837.32 27.39 0.289 1.63 2.161 338.84
837.36 26.64 0.297 1.62 2.164 338.51
837.4 26.35 0.295 1.62 2.173 338.45
837.44 25.29 0.292 1.64 2.176 338.58
837.48 24.49 0.29 1.7 2.163 338.76
837.52 26.13 0.301 1.76 2.15 338.91
837.56 27.68 0.307 1.76 2.144 339.08
837.6 28.66 0.297 1.76 2.147 339.35
837.64 32.2 0.287 1.8 2.157 339.82
837.68 36.4 0.287 1.85 2.169 340.44
837.72 37.23 0.282 1.85 2.179 341.08
837.76 33.05 0.289 1.84 2.187 341.58
837.8 31.78 0.297 1.79 2.21 341.81
837.84 34.53 0.304 1.76 2.243 341.73
837.88 36.14 0.297 1.88 2.251 341.39
837.92 39.03 0.289 1.99 2.233 340.96
837.96 42.26 0.281 1.98 2.22 340.58
838 40.55 0.288 1.88 2.224 340.39
838.04 37.58 0.295 1.8 2.222 340.45
838.08 38.46 0.301 1.84 2.205 340.74
838.12 39.62 0.3 1.92 2.187 341.13
838.16 39.1 0.303 1.93 2.176 341.51
838.2 36.82 0.282 1.91 2.174 341.74
838.24 33.76 0.276 1.88 2.186 341.76
838.28 30.89 0.275 1.84 2.2 341.55
838.32 28.92 0.272 1.85 2.194 341.19
838.36 27.81 0.271 1.81 2.167 340.83
838.4 26.58 0.274 1.73 2.139 340.67
838.44 27.4 0.275 1.68 2.122 340.9
838.48 31.41 0.283 1.65 2.112 341.56
838.52 34.17 0.286 1.63 2.105 342.53
838.56 32.75 0.285 1.65 2.098 343.52
838.6 29.61 0.285 1.64 2.101 344.28
838.64 26.3 0.287 1.63 2.103 344.67
838.68 22.59 0.296 1.66 2.101 344.77
838.72 19.29 0.304 1.68 2.103 344.74
838.76 18.06 0.31 1.66 2.108 344.76
838.8 18.94 0.31 1.69 2.11 344.86
838.84 21.68 0.303 1.76 2.114 344.97
838.88 23.76 0.296 1.78 2.131 344.96
838.92 25.17 0.292 1.73 2.148 344.75
838.96 27.33 0.299 1.69 2.154 344.35
839 28.92 0.306 1.71 2.149 343.81
839.04 29.31 0.295 1.7 2.141 343.26
839.08 29.19 0.28 1.64 2.139 342.76
839.12 24.94 0.283 1.61 2.131 342.36
839.16 22.48 0.284 1.61 2.114 342.05
839.2 24.26 0.281 1.65 2.101 341.83
839.24 24.62 0.286 1.67 2.104 341.68
839.28 25.04 0.295 1.64 2.116 341.57
839.32 25.24 0.301 1.68 2.118 341.45
839.36 26.14 0.284 1.77 2.12 341.25
839.4 29.67 0.275 1.81 2.137 340.95
839.44 33.02 0.28 1.76 2.169 340.55
839.48 33.77 0.295 1.76 2.192 340.09
839.52 32.52 0.291 1.85 2.192 339.62
839.56 33.06 0.288 1.89 2.192 339.15
839.6 33.52 0.294 1.83 2.21 338.67
839.64 31.33 0.305 1.8 2.238 338.12
839.68 28.56 0.315 1.84 2.252 337.49
839.72 27.99 0.312 1.86 2.238 336.75
839.76 29.87 0.311 1.83 2.206 335.93
839.8 33.36 0.304 1.79 2.167 335.09
839.84 36.16 0.309 1.75 2.142 334.29
839.88 36.04 0.308 1.75 2.138 333.53
839.92 34.87 0.307 1.75 2.153 332.71
839.96 32.68 0.304 1.73 2.175 331.74
840 29.39 0.304 1.71 2.189 330.58
840.04 29.14 0.297 1.71 2.204 329.29
840.08 31.31 0.295 1.71 2.217 328.05
840.12 31.01 0.291 1.76 2.217 327
840.16 27.44 0.285 1.86 2.206 326.14
840.2 26.3 0.283 1.87 2.203 325.38
840.24 28.14 0.282 1.85 2.198 324.59
840.28 28.17 0.291 1.84 2.179 323.73
840.32 27.18 0.294 1.86 2.151 322.93
840.36 25.18 0.294 1.84 2.139 322.36
840.4 21.51 0.292 1.77 2.147 322.17
840.44 19.6 0.295 1.73 2.155 322.4
840.48 21.24 0.29 1.71 2.162 322.91
840.52 22.82 0.289 1.69 2.176 323.51
840.56 23.39 0.282 1.66 2.178 323.99
840.6 23.43 0.29 1.67 2.164 324.21
840.64 24.96 0.289 1.68 2.162 324.14
840.68 28.65 0.284 1.69 2.179 323.84
840.72 29.73 0.276 1.69 2.198 323.46
840.76 27.43 0.27 1.71 2.205 323.17
840.8 28.05 0.252 1.69 2.211 323.11
840.84 29.69 0.247 1.65 2.233 323.36
840.88 29.15 0.25 1.68 2.249 323.92
840.92 25.41 0.248 1.8 2.255 324.6
840.96 22.08 0.246 1.88 2.274 325.19
841 21.32 0.25 1.96 2.288 325.43
841.04 22.46 0.252 2.09 2.279 325.14
841.08 25.9 0.252 2.18 2.254 324.32
841.12 28.5 0.252 2.22 2.225 323.04
841.16 27.19 0.256 2.18 2.212 321.5
841.2 24.06 0.26 2.15 2.216 319.87
841.24 25.55 0.257 2.14 2.21 318.32
841.28 30.57 0.257 1.97 2.205 317.03
841.32 32.53 0.265 1.76 2.229 316.15
841.36 32.38 0.269 1.65 2.284 315.76
841.4 31.63 0.27 1.63 2.351 315.82
841.44 31.41 0.263 1.65 2.407 316.2
841.48 30.49 0.272 1.76 2.45 316.7
841.52 28.68 0.287 2 2.495 317.21
841.56 27.15 0.304 2.38 2.505 317.73
841.6 27.09 0.319 2.71 2.457 318.46
841.64 28.54 0.332 2.91 2.394 319.72
