# LAS format log file from PETREL
# Project units are specified as depth units
#==================================================================
~Version information
VERS.   2.0:
WRAP.   NO:
#==================================================================
~Well
STRT .m      743.10000000 :
STOP .m      842.00000000 :
STEP .m     0.10000000 :
NULL .        -999.250000 :
COMP.           : COMPANY
WELL.  100120603903W400   : WELL
FLD.            : FIELD
LOC.            : LOCATION
SRVC.           : SERVICE COMPANY
DATE.  2023-06-01 13:43:19   : Log Export Date {yyyy-MM-dd HH:mm:ss}
PROV.           : PROVINCE
UWI.      : UNIQUE WELL ID
API.            : API NUMBER
#==================================================================
~Curve
DEPT .m                   : DEPTH
AC .us/m                  : AC
GR .gAPI                  : GR
PEF .b/e                  : PEF
DEN .g/cm3                : DEN
NPHI .m3/m3               : NPHI
~Parameter
#==================================================================
~Ascii
# ...
 783.90000000 311.70999146 52.080001831 2.3699998856 2.3175699711 0.3176000118
 784.00000000 320.98001099 52.610000610 2.2899999619 2.2862300873 0.3258999884
 784.10000000 324.41998291 53.310001373 2.2000000477 2.2646298409 0.3368999958
 784.20000000 326.77999878 54.720001221 2.1199998856 2.2551498413 0.3456000090
 784.30000000 330.22998047 56.770000458 2.0699999332 2.2516298294 0.3477999866
 784.40000000 333.38000488 58.919998169 2.0699999332 2.2483601570 0.3424000144
 784.50000000 334.27001953 61.180000305 2.1099998951 2.2455301285 0.3334000111
 784.60000000 331.77999878 62.990001678 2.1600000858 2.2428700924 0.3276000023
 784.70000000 327.37002563 63.209999084 2.2000000477 2.2439498901 0.3273000121
 784.80000000 322.95001221 61.750000000 2.2000000477 2.2508201599 0.3273999989
 784.90000000 318.91000366 60.360000610 2.1900000572 2.2587900162 0.3240999877
 785.00000000 315.79998779 59.880001068 2.1800000668 2.2664799690 0.3210000098
 785.10000000 314.02999878 59.639999390 2.1700000763 2.2734999657 0.3204999864
 785.20000000 314.11999512 58.849998474 2.1600000858 2.2811298370 0.3194999993
 785.30000000 315.45999146 58.139999390 2.1500000954 2.2943501472 0.3167000115
 785.40000000 315.44000244 58.430000305 2.1500000954 2.3107500076 0.3154999912
 785.50000000 311.76000977 59.549999237 2.1800000668 2.3247900009 0.3190999925
 785.60000000 307.85998535 60.689998627 2.2400000095 2.3307600021 0.3273000121
 785.70000000 307.55001831 61.549999237 2.2999999523 2.3255300522 0.3357000053
 785.80000000 308.70999146 62.069999695 2.3199999332 2.3122098446 0.3420999944
 785.90000000 308.79000854 61.909999847 2.3099999428 2.2962501049 0.3528000116
 786.00000000 313.73999023 61.240001678 2.2899999619 2.2736899853 0.3750999868
 786.10000000 323.57000732 61.060001373 2.2799999714 2.2305901051 0.4083000124
 786.20000000 333.72000122 62.009998322 2.2699999809 2.1737399101 0.4456999898
 786.30000000 343.32998657 64.459999084 2.2599999905 2.1194498539 0.4785000086
 786.40000000 350.19000244 68.269996643 2.2899999619 2.0849599838 0.5009999871
 786.50000000 353.40002441 72.559997559 2.2799999714 2.0665500164 0.5145000219
 786.60000000 354.97000122 74.980003357 2.2200000286 2.0376899242 0.5256999731
 786.70000000 358.08999634 71.830001831 2.0999999046 1.9828199148 0.5349000096
 786.80000000 365.82998657 61.569999695 1.9700000286 1.8918399811 0.5444999933
 786.90000000 376.16000366 48.340000153 1.8899999857 1.7752599716 0.5572999716
 787.00000000 387.05001831 38.659999847 1.8400000334 1.6574100256 0.5630000234
 787.10000000 396.79000854 35.389999390 1.8099999428 1.5707700253 0.5550000072
 787.20000000 401.75000000 36.659999847 1.7999999523 1.5352599621 0.5418000221
 787.30000000 400.92999268 40.099998474 1.8200000525 1.5572900772 0.5279999971
 787.40000000 392.89999390 45.169998169 1.8899999857 1.6351300478 0.5097000003
 787.50000000 377.74002075 51.709999084 1.9900000095 1.7551600933 0.4790999889
 787.60000000 356.85998535 58.439998627 2.1400001049 1.9032199383 0.4341999888
 787.70000000 334.27001953 63.270000458 2.3199999332 2.0620701313 0.3885000050
 787.80000000 315.76000977 65.440002441 2.5199999809 2.2267298698 0.3504999876
 787.90000000 300.80999756 66.690002441 2.7400000095 2.3610701561 0.3183000088
 788.00000000 287.45999146 68.970001221 2.8299999237 2.4451200962 0.2919999957
 788.10000000 274.52999878 71.680000305 2.8599998951 2.4893798828 0.2752999961
 788.20000000 262.89999390 72.519996643 2.8099999428 2.5112800598 0.2669000030
 788.30000000 253.80999756 69.819999695 2.7500000000 2.5263600349 0.2599000037
 788.40000000 246.80999756 64.199996948 2.7200000286 2.5227799416 0.2513999939
 788.50000000 243.19999695 57.540000916 2.7300000191 2.5086498260 0.2417999953
 788.60000000 243.19000244 51.700000763 2.7799999714 2.4841499329 0.2348999977
 788.70000000 244.36999512 47.930000305 2.8099999428 2.4627199173 0.2351000011
 788.80000000 247.17999268 46.229999542 2.7200000286 2.4341499805 0.2426999956
 788.90000000 253.25999451 46.310001373 2.5699999332 2.4015600681 0.2542000115
 789.00000000 261.27999878 48.419998169 2.4200000763 2.3735599518 0.2660999894
 789.10000000 269.76000977 52.259998322 2.3199999332 2.3522300720 0.2775000036
 789.20000000 279.35000610 56.340000153 2.2699999809 2.3388099670 0.2903999984
 789.30000000 287.13000488 58.130001068 2.2400000095 2.3293797970 0.3095000088
 789.40000000 290.64999390 57.110000610 2.2400000095 2.3141200542 0.3339999914
 789.50000000 292.33999634 55.750000000 2.2400000095 2.2924599648 0.3535999954
 789.60000000 294.57000732 57.590000153 2.2100000381 2.2699298859 0.3544999957
 789.70000000 297.55999756 64.160003662 2.1900000572 2.2584300041 0.3393000066
 789.80000000 295.70001221 74.190002441 2.2000000477 2.2624299526 0.3230000138
 789.90000000 290.17999268 83.910003662 2.2899999619 2.2926001549 0.3158000112
 790.00000000 286.30999756 88.809997559 2.4300000668 2.3412599564 0.3136000037
 790.10000000 284.45001221 87.080001831 2.5299999714 2.3915801048 0.3124000132
 790.20000000 282.55999756 80.680000305 2.5699999332 2.4212400913 0.3106000125
 790.30000000 281.19998169 72.160003662 2.5299999714 2.4073500633 0.3095999956
 790.40000000 283.39999390 63.020000458 2.4300000668 2.3673601151 0.3115999997
 790.50000000 290.01998901 54.680000305 2.3299999237 2.3212900162 0.3181000054
 790.60000000 298.39999390 48.540000916 2.2100000381 2.2720501423 0.3269000053
 790.70000000 306.52999878 45.240001678 2.0999999046 2.2300801277 0.3334999979
 790.80000000 312.35000610 43.830001831 2.0199999809 2.1962299347 0.3368999958
 790.90000000 316.86001587 43.330001831 1.9500000477 2.1788101196 0.3364999890
 791.00000000 323.22998047 43.319999695 1.9199999571 2.1743600368 0.3348999918
 791.10000000 328.67999268 43.119998932 1.8999999762 2.1783797741 0.3366999924
 791.20000000 328.48001099 42.119998932 1.8899999857 2.1830999851 0.3424000144
 791.30000000 325.82000732 40.639999390 1.9099999666 2.1807000637 0.3492999971
 791.40000000 323.42001343 39.479999542 1.9400000572 2.1739499569 0.3562999964
 791.50000000 320.05999756 38.840000153 1.9700000286 2.1637799740 0.3583000004
 791.60000000 316.69000244 38.759998322 1.9900000095 2.1580500603 0.3481999934
 791.70000000 315.63000488 40.560001373 1.9900000095 2.1615099907 0.3292999864
 791.80000000 315.47000122 46.270000458 1.9800000191 2.1783897877 0.3129999936
 791.90000000 313.61999512 56.259998322 1.9900000095 2.2111399174 0.3075999916
 792.00000000 309.23999023 68.669998169 2.0299999714 2.2562799454 0.3113000095
 792.10000000 306.23001099 81.080001831 2.1300001144 2.3119800091 0.3183000088
 792.20000000 305.89999390 92.410003662 2.2699999809 2.3648300171 0.3273000121
 792.30000000 307.66000366 102.09999847 2.4200000763 2.4065301418 0.3409999907
 792.40000000 310.19000244 108.90000153 2.5599999428 2.4307198524 0.3573000133
 792.50000000 312.97000122 111.70999908 2.6700000763 2.4417099953 0.3714999855
 792.60000000 316.64001465 111.31999969 2.7400000095 2.4482400417 0.3792999983
 792.70000000 319.89999390 108.81999969 2.7500000000 2.4487299919 0.3776000142
 792.80000000 319.26000977 103.94000244 2.7100000381 2.4476799965 0.3643999994
 792.90000000 313.82000732 95.839996338 2.6099998951 2.4390499592 0.3404000103
 793.00000000 305.92999268 86.440002441 2.4800000191 2.4230999947 0.3145999908
 793.10000000 297.24002075 78.769996643 2.3699998856 2.4068799019 0.2960000038
 793.20000000 289.84002686 74.269996643 2.2999999523 2.3966200352 0.2856000066
 793.30000000 288.16000366 71.720001221 2.2799999714 2.3966298103 0.2790000141
 793.40000000 290.89999390 69.410003662 2.2799999714 2.4003999233 0.2741000056
 793.50000000 292.19000244 66.580001831 2.2799999714 2.3973798752 0.2730000019
 793.60000000 290.53997803 64.480003357 2.2599999905 2.3888301849 0.2748000026
 793.70000000 287.10998535 65.069999695 2.2300000191 2.3841998577 0.2741000056
 793.80000000 282.48999023 68.389999390 2.2000000477 2.3911499977 0.2687999904
 793.90000000 280.62997437 71.160003662 2.2000000477 2.4068000317 0.2648000121
 794.00000000 282.88000488 70.319999695 2.2200000286 2.4200000763 0.2689000070
