# Exported from Geomodeling Studio 8.5
# Project: RedLion
# Date: 2023-06-07T16:32:40
# User: xuepi
# Geodetic Coordinate System: NAD27 / UTM zone 12N
# 
~Version
VERS          .          3.0                                         :CWLS LOG ASCII STANDARD - VERSION 3.00
WRAP          .          NO                                          :One line per depth step
DLM           .          SPACE                                       :Delimiter character between data columns
#Delimiting character ( SPACE TAB OR COMMA ).
#----          ----      -------------                                -----------
#MNEM         .UNIT      DATA                                        :DESCRIPTION
~Well
STRT          .m         770.040                                     :FIRST INDEX VALUE
STOP          .m         859.480                                     :LAST INDEX VALUE
STEP          .m         0.0400                                      :STEP
NULL          .          -9999.990                                   :NULL VALUE
COMP          .                                                      :COMPANY
WELL          .          100/16-32-038-03W4/00                       :WELL
FLD           .                                                      :FIELD
LOC           .                  :LOCATION                              
SRVC          .                                                      :SERVICE COMPANY
CTRY          .                                                      :COUNTRY
CNTY          .                                                      :COUNTY
STAT          .                                                      :STATE
API           .                                                      :API NUMBER
DATE          .                                                      :LOG DATE
X             .          541852.200                                  :X OR EAST-WEST COORDINATE
Y             .          5796064.200                                 :Y OR NORTH-SOUTH COORDINATE
HZCS          .                                                      :HORIZONTAL CO-ORDINATE SYSTEM
GDAT          .          NAD27                                       :GEODETIC DATUM
UWI           .          100163203803W400                            :Unique Well Identifier
#----          ----      -----                                        -----------
~Parameter 
#MNEM         .UNIT      VALUE                                        Description
APD           .M         00.00                                       :Above Permanent Datum
DREF          .          KB                                          :Depth Reference (KB,DF,CB)
EREF          .m         674.300                                     :Elevation of Depth Deference
RUN           .          1                                           :Run Number
EKB           .m         674.300                                     :Kelling Bush Elevation
#----          ----      ---------                                    -----------------
#MNEM          UNIT      LOG CODES                                    Curve Description
~Curve
DEPTH         .m                                                     :DEPTH
GR            .GAPI                                                  :
NPHI          .Fraction                                              :
PE            .Bar/e                                                 :
RHOB          .g/cm^3                                                :
AC            .us/m                                                  :
#----          ----      ---------                                    -----------------
~Ascii
# ...
806.16 82.26 0.381 3.21 2.285 326.54
806.2 81.06 0.375 3.05 2.336 319.84
806.24 78.42 0.338 3.01 2.426 313.42
806.28 78.25 0.306 3.01 2.492 307.4
806.32 77.45 0.278 3 2.516 301.72
806.36 78.45 0.253 3.01 2.542 296.39
806.4 75.39 0.227 3.12 2.575 291.57
806.44 68.98 0.206 3.29 2.617 287.57
806.48 67.87 0.192 3.48 2.658 284.66
806.52 75.46 0.184 3.73 2.65 283.03
806.56 83.12 0.186 3.91 2.62 282.72
806.6 86.19 0.198 3.9 2.593 283.58
806.64 92.44 0.213 3.7 2.579 285.33
806.68 98.18 0.225 3.56 2.575 287.53
806.72 95.83 0.238 3.44 2.574 289.88
806.76 93.44 0.251 3.18 2.566 292.16
806.8 96.09 0.26 3.01 2.548 294.38
806.84 100.95 0.272 2.99 2.522 296.52
806.88 101.9 0.272 2.95 2.504 298.56
806.92 99.27 0.263 2.9 2.493 300.27
806.96 100.07 0.26 2.83 2.485 301.39
807 101.52 0.256 2.7 2.481 301.68
807.04 97.82 0.251 2.56 2.49 301.06
807.08 94.02 0.249 2.44 2.512 299.66
807.12 93.75 0.24 2.39 2.525 297.67
807.16 95.04 0.228 2.49 2.534 295.35
807.2 98.34 0.215 2.72 2.55 292.95
807.24 101.69 0.204 2.88 2.541 290.74
807.28 99.42 0.203 2.81 2.524 288.96
807.32 92.1 0.215 2.68 2.528 287.82
807.36 87.69 0.233 2.7 2.546 287.51
807.4 85.16 0.239 2.76 2.546 288.08
807.44 82.75 0.237 2.78 2.53 289.5
807.48 81.28 0.238 2.78 2.505 291.59
807.52 77.11 0.239 2.81 2.475 294.14
807.56 75.64 0.231 2.65 2.455 296.9
807.6 77.69 0.23 2.5 2.442 299.69
807.64 77.01 0.243 2.49 2.43 302.33
807.68 74.96 0.253 2.45 2.432 304.64
807.72 71.52 0.253 2.37 2.418 306.48
807.76 66.29 0.249 2.38 2.377 307.72
807.8 66 0.245 2.38 2.351 308.35
807.84 72.07 0.249 2.37 2.353 308.44
807.88 76.21 0.249 2.28 2.371 308.19
807.92 76.41 0.251 2.32 2.38 307.76
807.96 76.65 0.25 2.5 2.37 307.36
808 74.31 0.254 2.52 2.375 307.05
808.04 68.54 0.249 2.37 2.402 306.84
808.08 65.54 0.235 2.25 2.437 306.62
808.12 66.65 0.224 2.23 2.457 306.35
808.16 63.95 0.215 2.29 2.456 306.08
808.2 63.37 0.221 2.39 2.449 305.92
808.24 66.05 0.227 2.41 2.459 306
808.28 67.16 0.229 2.32 2.472 306.37
808.32 67.45 0.235 2.32 2.457 307.02
808.36 67.22 0.226 2.42 2.407 307.81
808.4 67.07 0.224 2.44 2.362 308.59
808.44 67.14 0.23 2.42 2.341 309.24
808.48 66.33 0.235 2.4 2.326 309.64
808.52 61.99 0.244 2.37 2.312 309.82
808.56 55.84 0.252 2.37 2.302 309.83
808.6 55.61 0.249 2.32 2.298 309.78
808.64 62.01 0.246 2.23 2.305 309.78
808.68 66.23 0.241 2.19 2.325 309.91
808.72 70.32 0.237 2.21 2.342 310.25
808.76 76.52 0.23 2.22 2.364 310.84
808.8 76.09 0.221 2.27 2.398 311.61
808.84 71.71 0.22 2.31 2.423 312.51
808.88 70.57 0.221 2.3 2.423 313.48
808.92 72.2 0.236 2.4 2.391 314.5
808.96 71.92 0.247 2.53 2.356 315.67
809 71.07 0.243 2.51 2.331 317.03
809.04 67.8 0.247 2.39 2.312 318.56
809.08 62.94 0.253 2.29 2.305 320.21
809.12 59.95 0.254 2.21 2.302 321.87
809.16 57.25 0.253 2.17 2.288 323.48
809.2 57.3 0.26 2.04 2.281 324.97
809.24 58.91 0.259 1.93 2.288 326.25
809.28 57.36 0.259 1.98 2.301 327.2
809.32 56.9 0.254 2.13 2.305 327.66
809.36 58.4 0.241 2.32 2.286 327.57
809.4 60.81 0.234 2.39 2.266 326.95
809.44 61.78 0.23 2.31 2.27 325.9
809.48 60.38 0.242 2.19 2.282 324.54
809.52 60.78 0.256 2.1 2.276 322.97
809.56 62.75 0.253 2.02 2.261 321.29
809.6 61.02 0.243 1.99 2.258 319.65
809.64 59.44 0.233 1.99 2.271 318.17
809.68 59.93 0.23 2.03 2.277 316.91
809.72 62.38 0.24 2.05 2.269 315.85
809.76 65.96 0.255 1.99 2.269 314.83
809.8 67.7 0.255 2.02 2.273 313.73
809.84 68.01 0.252 2.11 2.282 312.51
809.88 67.94 0.242 2.15 2.282 311.23
809.92 74.13 0.236 2.12 2.268 309.95
809.96 84.31 0.231 2.1 2.252 308.72
810 88.9 0.227 2.08 2.26 307.55
810.04 82.59 0.225 2.1 2.286 306.45
810.08 76.53 0.234 2.2 2.311 305.48
810.12 74.67 0.246 2.32 2.339 304.65
810.16 73.33 0.251 2.27 2.367 303.97
810.2 73.71 0.252 2.13 2.376 303.42
810.24 72.4 0.25 2.08 2.372 302.95
810.28 66.74 0.249 2.11 2.373 302.53
810.32 65.89 0.249 2.22 2.384 302.12
810.36 72.4 0.256 2.36 2.395 301.72
810.4 79.1 0.267 2.44 2.392 301.35
810.44 80.6 0.268 2.42 2.378 301.09
810.48 78.04 0.266 2.33 2.357 301
810.52 76.59 0.265 2.19 2.344 301.1
810.56 76.45 0.261 2.13 2.34 301.31
810.6 78.44 0.256 2.15 2.347 301.57
810.64 80.76 0.265 2.21 2.355 301.87
810.68 79.8 0.267 2.2 2.368 302.21
810.72 75.36 0.271 2.15 2.383 302.63
810.76 70.35 0.281 2.19 2.379 303.13
810.8 68.32 0.287 2.27 2.366 303.7
810.84 67.34 0.283 2.29 2.354 304.32
810.88 62.59 0.276 2.2 2.354 305.07
810.92 54.17 0.275 2.13 2.352 306
810.96 46.48 0.276 2.18 2.32 307.16
811 40.58 0.274 2.27 2.279 308.53
811.04 35.61 0.277 2.27 2.263 309.99
811.08 29.49 0.278 2.27 2.254 311.43
811.12 24.51 0.279 2.25 2.23 312.83
811.16 24.14 0.271 2.11 2.204 314.28
811.2 25.12 0.26 1.87 2.194 315.9
811.24 24.54 0.259 1.71 2.193 317.74
811.28 24.08 0.264 1.73 2.188 319.68
811.32 25.55 0.265 1.85 2.187 321.46
811.36 26.52 0.266 1.91 2.183 322.84
811.4 27.42 0.262 1.86 2.185 323.71
811.44 28.07 0.267 1.8 2.195 324.09
811.48 27.76 0.275 1.8 2.208 324.17
811.52 26.31 0.289 1.83 2.207 324.09
811.56 24.59 0.29 1.82 2.202 324.02
811.6 24.34 0.283 1.76 2.204 324.09
811.64 24.01 0.281 1.73 2.205 324.32
811.68 24.73 0.281 1.73 2.204 324.67
811.72 26.13 0.28 1.7 2.205 325.03
811.76 25.27 0.276 1.66 2.2 325.29
811.8 20.56 0.279 1.66 2.191 325.39
811.84 16.66 0.286 1.66 2.184 325.39
811.88 18.68 0.282 1.73 2.166 325.39
811.92 20.98 0.276 1.79 2.154 325.48
811.96 21.07 0.274 1.77 2.156 325.68
812 23.29 0.282 1.74 2.165 325.91
812.04 23.84 0.292 1.71 2.179 326.07
812.08 20.77 0.301 1.7 2.186 326.07
812.12 18.87 0.296 1.75 2.177 325.94
812.16 20.45 0.281 1.77 2.174 325.76
812.2 20.25 0.266 1.72 2.184 325.62
812.24 17.87 0.255 1.63 2.197 325.52
812.28 18.09 0.252 1.63 2.189 325.38
812.32 22.33 0.262 1.69 2.167 325.16
812.36 25.64 0.261 1.7 2.156 324.85
812.4 26.48 0.263 1.69 2.161 324.54
812.44 29.59 0.263 1.7 2.172 324.33
812.48 30.27 0.263 1.67 2.181 324.28
812.52 26.48 0.267 1.66 2.182 324.37
812.56 23.43 0.27 1.73 2.182 324.53
812.6 23.83 0.273 1.82 2.182 324.68
812.64 24.8 0.276 1.83 2.18 324.83
812.68 24.87 0.287 1.77 2.186 325.06
812.72 26.15 0.291 1.71 2.188 325.48
812.76 26.6 0.297 1.71 2.184 326.09
812.8 25.92 0.302 1.76 2.175 326.81
812.84 24.67 0.302 1.8 2.165 327.48
812.88 22.58 0.292 1.8 2.163 327.94
812.92 21.22 0.282 1.79 2.169 328.11
812.96 21.77 0.273 1.75 2.182 327.94
813 20.6 0.277 1.75 2.191 327.52
813.04 17.3 0.271 1.76 2.203 326.97
813.08 15.45 0.274 1.76 2.207 326.43
813.12 17.25 0.275 1.74 2.212 326
813.16 20.71 0.28 1.75 2.223 325.68
813.2 25.17 0.276 1.82 2.222 325.42
813.24 30.48 0.27 1.88 2.217 325.15
813.28 36.67 0.263 1.83 2.212 324.81
813.32 39.97 0.265 1.7 2.203 324.34
813.36 38.05 0.27 1.66 2.199 323.71
813.4 37.58 0.265 1.69 2.201 322.87
813.44 38.95 0.26 1.73 2.202 321.89
813.48 39.86 0.262 1.76 2.202 320.91
813.52 39.92 0.262 1.76 2.21 320.19
813.56 41.94 0.262 1.77 2.219 319.94
813.6 45.88 0.255 1.83 2.216 320.25
813.64 45.01 0.26 1.86 2.215 320.99
813.68 41.12 0.261 1.83 2.227 321.9
813.72 39.9 0.261 1.79 2.25 322.64
813.76 41.57 0.259 1.77 2.276 322.98
813.8 42.88 0.266 1.8 2.283 322.83
813.84 39.2 0.267 1.84 2.272 322.29
813.88 38.05 0.26 1.87 2.261 321.64
813.92 42.42 0.268 1.96 2.256 321.16
813.96 47.81 0.271 2.03 2.248 321.12
814 54.96 0.259 1.99 2.232 321.6
814.04 61.43 0.25 1.91 2.226 322.59
814.08 57.16 0.255 1.87 2.229 323.87
814.12 47.43 0.262 1.91 2.235 325.22
814.16 41.68 0.269 1.99 2.239 326.39
814.2 38.93 0.279 2.08 2.236 327.17
814.24 34.07 0.284 2.18 2.229 327.45
814.28 31.86 0.289 2.19 2.224 327.25
814.32 31.78 0.294 2.04 2.222 326.71
814.36 28.6 0.292 1.85 2.213 325.97
814.4 25.05 0.281 1.78 2.202 325.2
814.44 23.84 0.275 1.77 2.198 324.49
814.48 24.61 0.283 1.77 2.19 323.84
814.52 26.67 0.289 1.79 2.182 323.25
814.56 29.45 0.296 1.82 2.176 322.66
814.6 31.32 0.295 1.82 2.179 322.04
814.64 29.54 0.291 1.79 2.188 321.34
814.68 26.88 0.292 1.72 2.191 320.61
814.72 26.53 0.301 1.68 2.195 319.99
814.76 27.28 0.298 1.68 2.193 319.64
814.8 26.51 0.29 1.67 2.18 319.62
814.84 25.46 0.277 1.65 2.168 319.91
814.88 24.75 0.268 1.68 2.161 320.31
814.92 23.28 0.261 1.7 2.17 320.6
814.96 22.87 0.263 1.67 2.186 320.65
815 23.47 0.271 1.68 2.186 320.48
