# Exported from Geomodeling Studio 8.5
# Project: RedLion
# Date: 2023-06-07T16:32:40
# User: xuepi
# Geodetic Coordinate System: NAD27 / UTM zone 12N
# 
~Version
VERS          .          3.0                                         :CWLS LOG ASCII STANDARD - VERSION 3.00
WRAP          .          NO                                          :One line per depth step
DLM           .          SPACE                                       :Delimiter character between data columns
#Delimiting character ( SPACE TAB OR COMMA ).
#----          ----      -------------                                -----------
#MNEM         .UNIT      DATA                                        :DESCRIPTION
~Well
STRT          .m         770.040                                     :FIRST INDEX VALUE
STOP          .m         859.480                                     :LAST INDEX VALUE
STEP          .m         0.0400                                      :STEP
NULL          .          -9999.990                                   :NULL VALUE
COMP          .                                                      :COMPANY
WELL          .          100/16-32-038-03W4/00                       :WELL
FLD           .                                                      :FIELD
LOC           .                  :LOCATION                              
SRVC          .                                                      :SERVICE COMPANY
CTRY          .                                                      :COUNTRY
CNTY          .                                                      :COUNTY
STAT          .                                                      :STATE
API           .                                                      :API NUMBER
DATE          .                                                      :LOG DATE
X             .          541852.200                                  :X OR EAST-WEST COORDINATE
Y             .          5796064.200                                 :Y OR NORTH-SOUTH COORDINATE
HZCS          .                                                      :HORIZONTAL CO-ORDINATE SYSTEM
GDAT          .          NAD27                                       :GEODETIC DATUM
UWI           .          100163203803W400                            :Unique Well Identifier
#----          ----      -----                                        -----------
~Parameter 
#MNEM         .UNIT      VALUE                                        Description
APD           .M         00.00                                       :Above Permanent Datum
DREF          .          KB                                          :Depth Reference (KB,DF,CB)
EREF          .m         674.300                                     :Elevation of Depth Deference
RUN           .          1                                           :Run Number
EKB           .m         674.300                                     :Kelling Bush Elevation
#----          ----      ---------                                    -----------------
#MNEM          UNIT      LOG CODES                                    Curve Description
~Curve
DEPTH         .m                                                     :DEPTH
GR            .GAPI                                                  :
NPHI          .Fraction                                              :
PE            .Bar/e                                                 :
RHOB          .g/cm^3                                                :
AC            .us/m                                                  :
#----          ----      ---------                                    -----------------
~Ascii
# ...
823.92 16.05 0.274 1.73 2.157 320.43
823.96 16.02 0.282 1.74 2.16 320.21
824 18.61 0.285 1.72 2.171 319.85
824.04 19.99 0.28 1.75 2.17 319.37
824.08 20.5 0.278 1.82 2.163 318.86
824.12 19.96 0.28 1.85 2.166 318.44
824.16 18.4 0.285 1.87 2.166 318.2
824.2 16.79 0.283 1.83 2.158 318.16
824.24 16.37 0.28 1.76 2.147 318.29
824.28 16.92 0.277 1.67 2.141 318.52
824.32 19.11 0.278 1.62 2.138 318.84
824.36 22.07 0.271 1.66 2.133 319.24
824.4 25.88 0.273 1.72 2.134 319.73
824.44 27.56 0.271 1.74 2.135 320.23
824.48 24.61 0.271 1.73 2.137 320.67
824.52 21.3 0.271 1.69 2.152 321
824.56 20.25 0.27 1.65 2.171 321.22
824.6 21.14 0.268 1.6 2.178 321.39
824.64 19.3 0.267 1.6 2.171 321.52
824.68 17.28 0.269 1.6 2.159 321.63
824.72 18.95 0.279 1.6 2.144 321.7
824.76 22.09 0.282 1.63 2.123 321.74
824.8 22.78 0.278 1.66 2.111 321.72
824.84 20.21 0.271 1.69 2.113 321.61
824.88 19.2 0.27 1.7 2.12 321.34
824.92 21.13 0.272 1.71 2.128 320.87
824.96 24.46 0.277 1.68 2.137 320.22
825 23.93 0.275 1.64 2.146 319.58
825.04 20.67 0.265 1.59 2.152 319.19
825.08 20.32 0.259 1.56 2.158 319.17
825.12 21.83 0.261 1.56 2.163 319.51
825.16 22.09 0.267 1.6 2.155 320.07
825.2 22.04 0.273 1.63 2.143 320.66
825.24 20.79 0.273 1.63 2.144 321.15
825.28 18.79 0.276 1.63 2.151 321.5
825.32 18.06 0.283 1.66 2.153 321.68
825.36 18.01 0.288 1.69 2.15 321.7
825.4 17.54 0.296 1.66 2.154 321.51
825.44 17.71 0.298 1.61 2.16 321.16
825.48 19.87 0.286 1.57 2.16 320.74
825.52 22.4 0.271 1.58 2.151 320.38
825.56 21.9 0.274 1.63 2.143 320.21
825.6 19.05 0.283 1.71 2.133 320.23
825.64 18.15 0.292 1.81 2.128 320.35
825.68 19.75 0.291 1.83 2.134 320.45
825.72 20.64 0.278 1.75 2.143 320.45
825.76 17.89 0.279 1.7 2.149 320.39
825.8 15.02 0.28 1.71 2.149 320.44
825.84 16.29 0.282 1.71 2.148 320.78
825.88 20.04 0.292 1.7 2.145 321.6
825.92 21.49 0.289 1.7 2.138 322.89
825.96 21.45 0.287 1.7 2.13 324.51
826 21.14 0.29 1.71 2.123 326.07
826.04 21.32 0.295 1.7 2.122 327.07
826.08 23.53 0.284 1.74 2.13 327.15
826.12 25.93 0.279 1.78 2.138 326.33
826.16 24.89 0.27 1.75 2.139 325.06
826.2 22.69 0.264 1.68 2.144 323.91
826.24 22.39 0.259 1.63 2.155 323.27
826.28 23.28 0.263 1.68 2.161 323.22
826.32 21.79 0.266 1.72 2.158 323.55
826.36 19.38 0.272 1.71 2.155 323.94
826.4 19.74 0.275 1.74 2.155 324.18
826.44 20.59 0.278 1.8 2.165 324.21
826.48 21.35 0.286 1.83 2.171 324.08
826.52 21.82 0.287 1.81 2.157 323.86
826.56 20.48 0.284 1.76 2.152 323.57
826.6 18.13 0.279 1.71 2.169 323.2
826.64 18.58 0.28 1.72 2.182 322.67
826.68 19.98 0.282 1.77 2.176 321.98
826.72 19.28 0.282 1.77 2.167 321.18
826.76 17.69 0.281 1.74 2.17 320.37
826.8 18.41 0.286 1.74 2.168 319.65
826.84 20.22 0.29 1.75 2.159 319.03
826.88 21.41 0.285 1.73 2.153 318.48
826.92 21.11 0.279 1.7 2.152 318.02
826.96 19.42 0.275 1.68 2.142 317.68
827 17.65 0.279 1.67 2.126 317.58
827.04 18.6 0.279 1.7 2.114 317.8
827.08 20.59 0.273 1.74 2.112 318.33
827.12 20.61 0.281 1.74 2.115 319.03
827.16 19.94 0.288 1.71 2.119 319.69
827.2 19.26 0.285 1.72 2.116 320.09
827.24 18.95 0.278 1.74 2.112 320.16
827.28 19.36 0.272 1.72 2.122 319.96
827.32 17.7 0.273 1.67 2.142 319.64
827.36 17.1 0.27 1.63 2.149 319.32
827.4 19.79 0.276 1.6 2.149 319.05
827.44 24.37 0.279 1.57 2.156 318.81
827.48 27.53 0.278 1.57 2.162 318.54
827.52 27.39 0.264 1.59 2.155 318.21
827.56 24.33 0.261 1.63 2.145 317.84
827.6 20.36 0.269 1.68 2.149 317.49
827.64 18.98 0.274 1.67 2.163 317.23
827.68 20.34 0.287 1.59 2.169 317.13
827.72 23.44 0.292 1.55 2.166 317.25
827.76 24.71 0.285 1.59 2.159 317.58
827.8 23.48 0.267 1.67 2.158 318.01
827.84 21.63 0.258 1.7 2.16 318.42
827.88 21.32 0.257 1.7 2.159 318.67
827.92 22.09 0.265 1.7 2.157 318.73
827.96 21.53 0.278 1.7 2.156 318.65
828 20.87 0.281 1.65 2.163 318.57
828.04 20.34 0.281 1.6 2.169 318.66
828.08 20.39 0.279 1.59 2.161 319.05
828.12 21.38 0.287 1.64 2.144 319.72
828.16 21.99 0.291 1.64 2.142 320.56
828.2 20.91 0.293 1.57 2.149 321.43
828.24 20.15 0.295 1.56 2.152 322.17
828.28 20.63 0.299 1.64 2.148 322.68
828.32 19.84 0.298 1.73 2.137 323.01
828.36 21 0.289 1.75 2.125 323.27
828.4 24.15 0.286 1.67 2.124 323.57
828.44 24.35 0.277 1.58 2.135 324.03
828.48 21.9 0.282 1.55 2.14 324.71
828.52 20.07 0.297 1.58 2.127 325.61
828.56 18.55 0.315 1.6 2.118 326.61
828.6 16.89 0.313 1.61 2.122 327.57
828.64 17.08 0.305 1.63 2.121 328.38
828.68 18.3 0.297 1.69 2.11 329
828.72 17.94 0.285 1.74 2.112 329.49
828.76 17.94 0.273 1.8 2.117 329.94
828.8 21.22 0.264 1.82 2.108 330.47
828.84 24.79 0.267 1.82 2.101 331.12
828.88 24.85 0.271 1.8 2.105 331.89
828.92 23.43 0.284 1.79 2.109 332.69
828.96 23.46 0.29 1.76 2.11 333.42
829 24.26 0.279 1.76 2.105 333.98
829.04 26.19 0.275 1.79 2.103 334.38
829.08 27.78 0.279 1.74 2.117 334.66
829.12 26.96 0.285 1.68 2.137 334.83
829.16 25.85 0.289 1.7 2.144 334.89
829.2 24.45 0.299 1.73 2.151 334.73
829.24 23.61 0.295 1.74 2.165 334.28
829.28 23.83 0.291 1.8 2.169 333.55
829.32 23.77 0.29 1.84 2.172 332.68
829.36 25 0.292 1.81 2.171 331.9
829.4 24.26 0.286 1.74 2.162 331.4
829.44 21.74 0.289 1.68 2.151 331.25
829.48 21.02 0.291 1.67 2.14 331.37
829.52 21.7 0.284 1.68 2.131 331.63
829.56 21.75 0.281 1.68 2.128 331.86
829.6 21.63 0.284 1.67 2.135 331.98
829.64 23.95 0.295 1.69 2.143 331.93
829.68 26.94 0.295 1.72 2.137 331.69
829.72 26.35 0.298 1.68 2.133 331.2
829.76 22.27 0.301 1.6 2.131 330.45
829.8 19.47 0.299 1.6 2.126 329.47
829.84 16.92 0.296 1.61 2.127 328.3
829.88 14.35 0.287 1.6 2.129 327.04
829.92 15.54 0.285 1.62 2.132 325.74
829.96 18.16 0.281 1.64 2.139 324.48
830 18.7 0.287 1.65 2.142 323.32
830.04 17.58 0.298 1.66 2.134 322.31
830.08 17.54 0.31 1.65 2.135 321.44
830.12 17.94 0.304 1.64 2.145 320.66
830.16 18.65 0.282 1.65 2.147 319.85
830.2 19.87 0.263 1.67 2.147 318.91
830.24 19.51 0.252 1.67 2.154 317.79
830.28 18.1 0.244 1.7 2.162 316.58
830.32 18.78 0.247 1.71 2.176 315.44
830.36 20.23 0.245 1.69 2.192 314.53
830.4 21.01 0.251 1.72 2.193 313.98
830.44 21.75 0.256 1.73 2.189 313.81
830.48 20.96 0.266 1.7 2.192 313.97
830.52 20.07 0.264 1.7 2.188 314.31
830.56 18.51 0.26 1.69 2.181 314.69
830.6 16.98 0.255 1.66 2.182 314.99
830.64 16.4 0.26 1.66 2.181 315.18
830.68 17.56 0.261 1.68 2.174 315.3
830.72 18.75 0.261 1.73 2.165 315.44
830.76 18.75 0.257 1.74 2.163 315.65
830.8 18.43 0.258 1.7 2.167 315.96
830.84 18.37 0.26 1.68 2.166 316.37
830.88 19.42 0.265 1.7 2.163 316.88
830.92 22.94 0.277 1.67 2.164 317.54
830.96 25.83 0.279 1.58 2.164 318.4
831 24.03 0.28 1.53 2.157 319.48
831.04 20.14 0.28 1.55 2.148 320.75
831.08 17.45 0.284 1.6 2.14 322.05
831.12 17.47 0.28 1.64 2.134 323.25
831.16 19.38 0.286 1.66 2.126 324.26
831.2 20.01 0.294 1.67 2.119 325.07
831.24 19.04 0.299 1.67 2.119 325.81
831.28 19.15 0.293 1.69 2.122 326.59
831.32 18.82 0.288 1.68 2.129 327.5
831.36 18.28 0.294 1.63 2.144 328.63
831.4 19.2 0.296 1.6 2.16 330.01
831.44 19.93 0.289 1.57 2.169 331.61
831.48 22.06 0.291 1.54 2.175 333.35
831.52 24.88 0.288 1.56 2.173 335.06
831.56 27.13 0.286 1.6 2.162 336.52
831.6 27.43 0.287 1.62 2.149 337.52
831.64 25.09 0.288 1.61 2.145 337.94
831.68 23.35 0.296 1.61 2.142 337.83
831.72 24.23 0.302 1.66 2.129 337.41
831.76 23.73 0.303 1.72 2.115 337.03
831.8 21.9 0.294 1.71 2.114 337.02
831.84 22.58 0.297 1.66 2.129 337.57
831.88 22.21 0.304 1.63 2.143 338.7
831.92 19.69 0.31 1.64 2.145 340.27
831.96 16.36 0.317 1.67 2.138 342.05
832 16.32 0.308 1.69 2.134 343.79
832.04 20.25 0.3 1.67 2.139 345.3
832.08 24.63 0.303 1.66 2.147 346.48
832.12 25.33 0.308 1.73 2.15 347.27
832.16 25.3 0.314 1.89 2.154 347.65
832.2 26.01 0.314 2.1 2.158 347.69
832.24 27.12 0.325 2.31 2.159 347.43
832.28 25.83 0.328 2.45 2.153 346.97
832.32 24.06 0.333 2.51 2.135 346.37
832.36 22.84 0.325 2.55 2.118 345.65
832.4 20 0.308 2.48 2.111 344.77
832.44 19.06 0.295 2.31 2.113 343.68
832.48 21.32 0.295 2.08 2.123 342.34
832.52 23.94 0.296 1.9 2.133 340.79
832.56 25.23 0.299 1.79 2.143 339.1
832.6 24.77 0.295 1.71 2.154 337.34
832.64 22.55 0.288 1.67 2.155 335.61
832.68 22.07 0.288 1.65 2.142 334.04
832.72 23.82 0.288 1.64 2.132 332.77
832.76 23.79 0.287 1.66 2.129 332.01
