# Exported from Geomodeling Studio 8.5
# Project: RedLion
# Date: 2023-06-07T16:32:40
# User: xuepi
# Geodetic Coordinate System: NAD27 / UTM zone 12N
# 
~Version
VERS          .          3.0                                         :CWLS LOG ASCII STANDARD - VERSION 3.00
WRAP          .          NO                                          :One line per depth step
DLM           .          SPACE                                       :Delimiter character between data columns
#Delimiting character ( SPACE TAB OR COMMA ).
#----          ----      -------------                                -----------
#MNEM         .UNIT      DATA                                        :DESCRIPTION
~Well
STRT          .m         770.040                                     :FIRST INDEX VALUE
STOP          .m         859.480                                     :LAST INDEX VALUE
STEP          .m         0.0400                                      :STEP
NULL          .          -9999.990                                   :NULL VALUE
COMP          .                                                      :COMPANY
WELL          .          100/16-32-038-03W4/00                       :WELL
FLD           .                                                      :FIELD
LOC           .                  :LOCATION                              
SRVC          .                                                      :SERVICE COMPANY
CTRY          .                                                      :COUNTRY
CNTY          .                                                      :COUNTY
STAT          .                                                      :STATE
API           .                                                      :API NUMBER
DATE          .                                                      :LOG DATE
X             .          541852.200                                  :X OR EAST-WEST COORDINATE
Y             .          5796064.200                                 :Y OR NORTH-SOUTH COORDINATE
HZCS          .                                                      :HORIZONTAL CO-ORDINATE SYSTEM
GDAT          .          NAD27                                       :GEODETIC DATUM
UWI           .          100163203803W400                            :Unique Well Identifier
#----          ----      -----                                        -----------
~Parameter 
#MNEM         .UNIT      VALUE                                        Description
APD           .M         00.00                                       :Above Permanent Datum
DREF          .          KB                                          :Depth Reference (KB,DF,CB)
EREF          .m         674.300                                     :Elevation of Depth Deference
RUN           .          1                                           :Run Number
EKB           .m         674.300                                     :Kelling Bush Elevation
#----          ----      ---------                                    -----------------
#MNEM          UNIT      LOG CODES                                    Curve Description
~Curve
DEPTH         .m                                                     :DEPTH
GR            .GAPI                                                  :
NPHI          .Fraction                                              :
PE            .Bar/e                                                 :
RHOB          .g/cm^3                                                :
AC            .us/m                                                  :
#----          ----      ---------                                    -----------------
~Ascii
# ...
797.28 59.05 0.259 2.14 2.236 325.29
797.32 67.48 0.248 2.27 2.229 324.01
797.36 76.01 0.24 2.32 2.239 322.7
797.4 85.42 0.229 2.24 2.266 321.4
797.44 92.17 0.215 2.15 2.307 320.11
797.48 91.76 0.214 2.08 2.363 318.79
797.52 92.31 0.213 1.99 2.42 317.42
797.56 93.59 0.218 1.94 2.475 316
797.6 90.09 0.236 2 2.511 314.61
797.64 87.24 0.243 2.04 2.514 313.43
797.68 86.27 0.249 2.12 2.491 312.72
797.72 85.03 0.247 2.26 2.46 312.72
797.76 81.84 0.248 2.3 2.444 313.58
797.8 77.97 0.247 2.26 2.445 315.34
797.84 73.46 0.259 2.25 2.437 317.9
797.88 68.95 0.254 2.18 2.435 321.03
797.92 65.91 0.25 2.21 2.441 324.41
797.96 63.05 0.251 2.32 2.429 327.63
798 55.86 0.253 2.34 2.405 330.36
798.04 48.97 0.256 2.36 2.38 332.37
798.08 44.57 0.255 2.39 2.347 333.66
798.12 44.15 0.256 2.32 2.315 334.34
798.16 47.57 0.267 2.3 2.283 334.55
798.2 49.19 0.274 2.32 2.254 334.41
798.24 49.13 0.267 2.22 2.226 334.03
798.28 54.34 0.257 2.07 2.209 333.57
798.32 61.59 0.25 1.99 2.207 333.11
798.36 62.35 0.241 1.95 2.22 332.76
798.4 61.28 0.234 1.91 2.254 332.52
798.44 66.22 0.233 1.95 2.297 332.47
798.48 68.19 0.24 2 2.336 332.68
798.52 60.79 0.249 2 2.361 333.27
798.56 54.86 0.256 2.04 2.37 334.31
798.6 55.93 0.259 2.16 2.374 335.78
798.64 57.78 0.267 2.27 2.363 337.61
798.68 55.19 0.276 2.3 2.347 339.61
798.72 49.76 0.28 2.26 2.33 341.57
798.76 50.34 0.282 2.2 2.311 343.31
798.8 52.48 0.273 2.09 2.299 344.68
798.84 49.68 0.257 2 2.27 345.52
798.88 47.72 0.25 1.96 2.231 345.64
798.92 50.63 0.252 1.88 2.222 344.8
798.96 53.12 0.252 1.89 2.237 342.78
799 52.06 0.247 1.99 2.236 339.57
799.04 51.35 0.251 2.01 2.22 335.38
799.08 50.03 0.248 1.97 2.212 330.69
799.12 49.45 0.239 1.96 2.227 326.08
799.16 53.31 0.228 1.95 2.261 322.07
799.2 58.6 0.222 1.91 2.309 318.94
799.24 58.93 0.225 1.81 2.362 316.58
799.28 56.84 0.228 1.79 2.397 314.7
799.32 56.51 0.23 1.91 2.42 312.92
799.36 55.55 0.232 2.08 2.459 311.03
799.4 52.32 0.234 2.21 2.496 309.09
799.44 50.85 0.225 2.43 2.485 307.38
799.48 49.5 0.223 2.68 2.425 306.28
799.52 47.29 0.231 2.69 2.362 306.14
799.56 44.75 0.244 2.59 2.317 307.17
799.6 42.13 0.266 2.58 2.278 309.46
799.64 43.03 0.28 2.63 2.237 312.94
799.68 47.17 0.272 2.53 2.21 317.35
799.72 46.93 0.261 2.33 2.2 322.26
799.76 40.57 0.263 2.16 2.203 327.14
799.8 33.26 0.27 2.03 2.21 331.52
799.84 28.08 0.284 1.94 2.216 335.09
799.88 27.29 0.291 1.93 2.219 337.71
799.92 29.31 0.312 1.97 2.213 339.44
799.96 29.84 0.316 1.97 2.192 340.37
800 27.37 0.318 1.91 2.15 340.71
800.04 21.82 0.301 1.87 2.113 340.65
800.08 19.9 0.293 1.83 2.104 340.38
800.12 22.94 0.286 1.77 2.116 340.14
800.16 26.75 0.291 1.75 2.128 340
800.2 28.93 0.288 1.78 2.132 340.03
800.24 29.34 0.288 1.79 2.141 340.15
800.28 28.2 0.283 1.79 2.153 340.25
800.32 26.21 0.27 1.81 2.155 340.16
800.36 25.32 0.265 1.85 2.154 339.67
800.4 25.35 0.26 1.9 2.152 338.68
800.44 26.3 0.254 1.91 2.157 337.11
800.48 32.24 0.245 1.89 2.162 335.09
800.52 41.61 0.246 1.93 2.156 332.81
800.56 50.83 0.245 1.98 2.148 330.47
800.6 54.51 0.245 1.97 2.151 328.19
800.64 53.89 0.247 1.95 2.174 326.01
800.68 56.92 0.248 1.94 2.219 323.93
800.72 62.19 0.246 1.94 2.278 321.96
800.76 61.65 0.239 1.97 2.321 320.11
800.8 61.3 0.236 1.99 2.346 318.37
800.84 63.25 0.237 2 2.377 316.74
800.88 66.34 0.245 2.16 2.409 315.19
800.92 66.58 0.256 2.45 2.422 313.76
800.96 66.71 0.256 2.62 2.415 312.46
801 67.22 0.253 2.68 2.406 311.26
801.04 68.99 0.254 2.61 2.409 310.15
801.08 72.02 0.252 2.46 2.411 309.07
801.12 70.48 0.25 2.32 2.401 308.08
801.16 66.28 0.237 2.29 2.386 307.26
801.2 65.1 0.227 2.3 2.383 306.68
801.24 67.91 0.235 2.26 2.401 306.35
801.28 73.39 0.243 2.23 2.417 306.22
801.32 75.01 0.246 2.27 2.4 306.25
801.36 73.63 0.242 2.32 2.385 306.42
801.4 74.07 0.244 2.34 2.4 306.72
801.44 77.75 0.249 2.39 2.423 307.21
801.48 85.13 0.254 2.44 2.443 307.84
801.52 93.43 0.249 2.43 2.454 308.52
801.56 97.65 0.25 2.38 2.455 309.09
801.6 98.47 0.244 2.37 2.452 309.47
801.64 97.88 0.243 2.44 2.451 309.69
801.68 91.44 0.24 2.51 2.462 309.88
801.72 85.4 0.242 2.57 2.488 310.18
801.76 89.32 0.25 2.72 2.49 310.68
801.8 100.31 0.26 2.86 2.469 311.36
801.84 103.26 0.256 2.89 2.45 312.17
801.88 102 0.252 2.87 2.443 313.1
801.92 101.51 0.259 2.84 2.448 314.18
801.96 100.34 0.268 2.85 2.465 315.39
802 99.88 0.272 2.79 2.488 316.71
802.04 100.35 0.271 2.73 2.513 318.04
802.08 100.48 0.271 2.74 2.523 319.31
802.12 106.23 0.271 2.82 2.511 320.48
802.16 108.09 0.275 2.85 2.501 321.6
802.2 101.89 0.277 2.84 2.497 322.68
802.24 98.98 0.286 2.83 2.497 323.74
802.28 104.33 0.29 2.86 2.499 324.76
802.32 109.23 0.289 2.93 2.49 325.8
802.36 109.05 0.296 2.89 2.49 326.91
802.4 105.65 0.302 2.69 2.521 328.19
802.44 111.6 0.314 2.56 2.553 329.78
802.48 120.47 0.319 2.67 2.549 331.8
802.52 121.72 0.329 2.77 2.541 334.29
802.56 119.37 0.332 2.75 2.547 337.15
802.6 116.88 0.334 2.73 2.553 340.17
802.64 114.28 0.334 2.83 2.542 343.12
802.68 111.99 0.336 2.99 2.506 345.78
802.72 108.89 0.336 3 2.476 348.03
802.76 110.84 0.337 2.88 2.493 349.84
802.8 116.28 0.331 2.73 2.549 351.19
802.84 116.47 0.322 2.69 2.587 351.99
802.88 110.41 0.313 2.77 2.59 352.18
802.92 102.66 0.314 2.86 2.574 351.63
802.96 99.45 0.308 3 2.559 350.38
803 104.59 0.297 3.21 2.565 348.48
803.04 107.9 0.298 3.48 2.593 346.09
803.08 104.45 0.292 3.79 2.613 343.3
803.12 100.98 0.284 3.93 2.588 340.15
803.16 97.66 0.272 3.67 2.552 336.63
803.2 91.6 0.271 3.41 2.542 332.83
803.24 82.52 0.283 3.25 2.542 328.89
803.28 73.17 0.292 3.23 2.548 325.01
803.32 67.43 0.285 3.33 2.567 321.19
803.36 64.31 0.262 3.47 2.573 317.28
803.4 63.52 0.247 3.46 2.586 313
803.44 65.12 0.229 3.45 2.626 308.14
803.48 68.16 0.216 3.98 2.656 302.66
803.52 69.88 0.215 4.88 2.65 296.72
803.56 69.05 0.222 5.46 2.637 290.6
803.6 65.74 0.217 5.09 2.639 284.54
803.64 62.28 0.202 4.46 2.681 278.74
803.68 59.85 0.185 4.35 2.736 273.27
803.72 57.18 0.17 4.59 2.737 268.08
803.76 53.77 0.161 4.57 2.677 262.98
803.8 49.74 0.159 4.04 2.636 257.73
803.84 45.55 0.148 3.62 2.654 252.09
803.88 42.29 0.131 3.61 2.685 245.95
803.92 38.84 0.114 3.9 2.701 239.34
803.96 35.91 0.099 4.3 2.71 232.42
804 35.2 0.087 4.68 2.712 225.49
804.04 35.03 0.078 4.8 2.711 218.91
804.08 35.24 0.07 4.77 2.708 213
804.12 35.24 0.066 4.74 2.711 207.9
804.16 35.84 0.064 4.78 2.712 203.5
804.2 33.64 0.062 4.99 2.712 199.57
804.24 30.19 0.06 5.2 2.715 195.9
804.28 28.12 0.055 5.37 2.701 192.54
804.32 27.22 0.05 5.34 2.69 189.75
804.36 28.02 0.048 5.14 2.697 187.85
804.4 28.52 0.045 5.18 2.68 187.04
804.44 29.4 0.047 5.45 2.629 187.31
804.48 30.21 0.048 5.57 2.587 188.5
804.52 30.98 0.051 5.11 2.599 190.5
804.56 31.22 0.058 4.7 2.629 193.26
804.6 33.13 0.064 4.79 2.629 196.74
804.64 37.45 0.07 5.11 2.61 200.85
804.68 43.39 0.077 5.08 2.622 205.46
804.72 49.03 0.084 4.92 2.663 210.34
804.76 54.47 0.094 4.96 2.697 215.28
804.8 61.51 0.104 5.27 2.697 220.18
804.84 64.15 0.113 5.73 2.672 225.01
804.88 64.05 0.122 5.68 2.648 229.78
804.92 63.99 0.13 5.09 2.648 234.45
804.96 63.15 0.136 4.62 2.664 239
805 60.99 0.147 4.55 2.669 243.47
805.04 58.93 0.16 4.45 2.66 247.98
805.08 56.22 0.178 4.21 2.645 252.7
805.12 53.01 0.196 3.86 2.639 257.69
805.16 50.35 0.211 3.6 2.643 262.83
805.2 49.59 0.215 3.68 2.625 267.86
805.24 52.16 0.21 3.84 2.596 272.54
805.28 56.46 0.209 3.91 2.576 276.75
805.32 63.02 0.217 4.1 2.553 280.51
805.36 73.47 0.214 4.37 2.528 284
805.4 83.55 0.212 4.42 2.505 287.53
805.44 87.56 0.217 4.36 2.493 291.56
805.48 84.85 0.236 4.15 2.514 296.52
805.52 87 0.261 3.7 2.551 302.72
805.56 92.18 0.288 3.29 2.559 310.2
805.6 94.3 0.31 3.01 2.552 318.59
805.64 93.58 0.331 2.95 2.556 327.22
805.68 93.54 0.348 3.06 2.554 335.24
805.72 96.99 0.37 3.2 2.535 341.93
805.76 99.01 0.388 3.21 2.517 346.9
805.8 97.29 0.403 3.09 2.492 350.1
805.84 95.89 0.405 3.19 2.44 351.83
805.88 93.04 0.371 3.4 2.391 352.46
805.92 84.75 0.342 3.57 2.372 352.19
805.96 83.33 0.321 3.77 2.365 350.93
806 89.98 0.313 3.81 2.35 348.48
806.04 92.17 0.317 3.63 2.33 344.63
806.08 87.88 0.331 3.48 2.314 339.44
806.12 83.29 0.354 3.37 2.289 333.24
