# Exported from Geomodeling Studio 8.5
# Project: RedLion
# Date: 2023-06-07T16:32:40
# User: xuepi
# Geodetic Coordinate System: NAD27 / UTM zone 12N
# 
~Version
VERS          .          3.0                                         :CWLS LOG ASCII STANDARD - VERSION 3.00
WRAP          .          NO                                          :One line per depth step
DLM           .          SPACE                                       :Delimiter character between data columns
#Delimiting character ( SPACE TAB OR COMMA ).
#----          ----      -------------                                -----------
#MNEM         .UNIT      DATA                                        :DESCRIPTION
~Well
STRT          .m         770.040                                     :FIRST INDEX VALUE
STOP          .m         859.480                                     :LAST INDEX VALUE
STEP          .m         0.0400                                      :STEP
NULL          .          -9999.990                                   :NULL VALUE
COMP          .                                                      :COMPANY
WELL          .          100/16-32-038-03W4/00                       :WELL
FLD           .                                                      :FIELD
LOC           .                  :LOCATION                              
SRVC          .                                                      :SERVICE COMPANY
CTRY          .                                                      :COUNTRY
CNTY          .                                                      :COUNTY
STAT          .                                                      :STATE
API           .                                                      :API NUMBER
DATE          .                                                      :LOG DATE
X             .          541852.200                                  :X OR EAST-WEST COORDINATE
Y             .          5796064.200                                 :Y OR NORTH-SOUTH COORDINATE
HZCS          .                                                      :HORIZONTAL CO-ORDINATE SYSTEM
GDAT          .          NAD27                                       :GEODETIC DATUM
UWI           .          100163203803W400                            :Unique Well Identifier
#----          ----      -----                                        -----------
~Parameter 
#MNEM         .UNIT      VALUE                                        Description
APD           .M         00.00                                       :Above Permanent Datum
DREF          .          KB                                          :Depth Reference (KB,DF,CB)
EREF          .m         674.300                                     :Elevation of Depth Deference
RUN           .          1                                           :Run Number
EKB           .m         674.300                                     :Kelling Bush Elevation
#----          ----      ---------                                    -----------------
#MNEM          UNIT      LOG CODES                                    Curve Description
~Curve
DEPTH         .m                                                     :DEPTH
GR            .GAPI                                                  :
NPHI          .Fraction                                              :
PE            .Bar/e                                                 :
RHOB          .g/cm^3                                                :
AC            .us/m                                                  :
#----          ----      ---------                                    -----------------
~Ascii
# ...
779.6 81.06 0.344 2.28 2.299 342.01
779.64 83.41 0.352 2.31 2.316 342.16
779.68 89.33 0.355 2.37 2.338 342.39
779.72 88.57 0.346 2.48 2.349 343.27
779.76 82.65 0.354 2.57 2.345 345.33
779.8 79.63 0.377 2.59 2.338 348.91
779.84 80.92 0.405 2.64 2.333 354.04
779.88 82.17 0.418 2.66 2.344 360.6
779.92 81.95 0.426 2.53 2.358 368.31
779.96 81.17 0.448 2.42 2.334 376.86
780 76.3 0.479 2.38 2.256 385.88
780.04 61.05 0.501 2.35 2.13 395.02
780.08 47.95 0.49 2.31 1.998 403.85
780.12 42.8 0.475 2.32 1.895 412.02
780.16 36.81 0.461 2.38 1.802 419.28
780.2 31.69 0.464 2.44 1.684 425.58
780.24 29.96 0.488 2.23 1.551 431.01
780.28 28.18 0.507 1.8 1.447 435.53
780.32 25.55 0.499 1.53 1.39 439.02
780.36 24.23 0.468 1.48 1.365 441.28
780.4 24.78 0.472 1.49 1.37 442.27
780.44 31.42 0.473 1.49 1.397 442.26
780.48 44.29 0.479 1.52 1.416 441.73
780.52 52.73 0.514 1.59 1.409 441.27
780.56 55.44 0.575 1.58 1.413 441.31
780.6 60.8 0.588 1.45 1.477 442.04
780.64 71.47 0.582 1.36 1.604 443.38
780.68 83.55 0.535 1.45 1.762 445.03
780.72 86.1 0.505 1.46 1.857 446.62
780.76 81.11 0.507 1.19 1.874 447.76
780.8 74.03 0.509 1.08 1.874 448.06
780.84 66.79 0.498 1.27 1.865 447.22
780.88 62.36 0.527 1.64 1.821 445.07
780.92 59.33 0.536 1.98 1.723 441.72
780.96 52.42 0.521 2.05 1.578 437.55
781 46.74 0.51 1.86 1.447 433.09
781.04 45.38 0.506 1.68 1.386 428.8
781.08 47.24 0.497 1.63 1.387 424.84
781.12 53.64 0.484 1.64 1.408 421.03
781.16 60.5 0.46 1.57 1.42 416.95
781.2 60.28 0.436 1.44 1.422 412.21
781.24 59.25 0.428 1.34 1.452 406.49
781.28 60.2 0.407 1.34 1.54 399.78
781.32 60.19 0.416 1.47 1.682 392.35
781.36 62.48 0.421 1.61 1.821 384.75
781.4 64.82 0.43 1.63 1.9 377.58
781.44 65.31 0.42 1.57 1.945 371.28
781.48 65.78 0.391 1.59 2.014 366.02
781.52 64.44 0.36 1.79 2.116 361.54
781.56 59.78 0.329 2.12 2.216 357.34
781.6 60.54 0.308 2.33 2.268 352.89
781.64 65.34 0.297 2.35 2.267 347.88
781.68 69.18 0.287 2.31 2.254 342.39
781.72 68.68 0.27 2.23 2.242 336.8
781.76 67.56 0.257 2.24 2.234 331.63
781.8 69.27 0.247 2.3 2.246 327.23
781.84 69.96 0.261 2.31 2.276 323.68
781.88 71.44 0.262 2.25 2.289 320.91
781.92 76.26 0.261 2.21 2.29 318.75
781.96 79.44 0.257 2.24 2.289 317.08
782 77.73 0.263 2.23 2.29 315.82
782.04 75.09 0.272 2.19 2.286 314.94
782.08 72.46 0.279 2.1 2.278 314.47
782.12 65.1 0.277 2.08 2.269 314.51
782.16 58.79 0.287 2.12 2.264 315.19
782.2 58.52 0.289 2.15 2.272 316.7
782.24 59.98 0.295 2.25 2.262 319.19
782.28 58.86 0.289 2.31 2.232 322.71
782.32 54.99 0.285 2.24 2.211 327.15
782.36 52.87 0.283 2.14 2.206 332.23
782.4 55.19 0.292 2.09 2.215 337.65
782.44 58.25 0.308 2.06 2.231 343.1
782.48 61.03 0.323 2.06 2.244 348.53
782.52 65.18 0.327 2.1 2.258 354.01
782.56 68.94 0.314 2.11 2.272 359.6
782.6 72.39 0.307 2.1 2.29 365.24
782.64 79.53 0.31 2.1 2.328 370.68
782.68 88.37 0.318 2.23 2.366 375.62
782.72 95.05 0.328 2.46 2.383 379.86
782.76 97.99 0.336 2.66 2.386 383.32
782.8 100.43 0.352 2.67 2.389 385.96
782.84 101.91 0.385 2.6 2.399 387.9
782.88 103.51 0.4 2.69 2.397 389.29
782.92 108.32 0.402 2.87 2.391 390.43
782.96 113.56 0.387 2.89 2.405 391.54
783 118.39 0.39 2.87 2.421 392.77
783.04 116.21 0.404 2.93 2.421 393.97
783.08 111.56 0.406 2.91 2.424 394.75
783.12 110.83 0.399 2.87 2.416 394.66
783.16 112.9 0.391 2.85 2.403 393.36
783.2 116.23 0.392 2.83 2.406 390.81
783.24 117.77 0.381 2.77 2.42 387.12
783.28 117.02 0.364 2.73 2.427 382.36
783.32 115.07 0.368 2.72 2.425 376.42
783.36 110.99 0.366 2.73 2.416 369.13
783.4 109.84 0.355 2.79 2.41 360.68
783.44 108.45 0.335 2.78 2.425 351.8
783.48 101.22 0.331 2.69 2.45 343.58
783.52 86.99 0.321 2.63 2.468 336.86
783.56 69 0.287 2.55 2.473 331.85
783.6 57.67 0.248 2.51 2.449 328.02
783.64 52.91 0.227 2.53 2.407 324.55
783.68 51.45 0.219 2.47 2.376 320.84
783.72 48.93 0.213 2.36 2.346 316.73
783.76 42.45 0.204 2.24 2.318 312.55
783.8 36.61 0.192 2.16 2.294 308.84
783.84 36.06 0.188 2.13 2.272 306.15
783.88 38.15 0.192 2.08 2.247 304.9
783.92 38.49 0.2 1.99 2.219 305.33
783.96 36.66 0.207 1.91 2.213 307.4
784 34.72 0.215 1.87 2.216 310.93
784.04 33.75 0.218 1.83 2.21 315.57
784.08 35.05 0.222 1.76 2.212 320.95
784.12 36.12 0.227 1.7 2.227 326.79
784.16 35.86 0.233 1.69 2.229 332.91
784.2 34.77 0.236 1.71 2.218 339.21
784.24 33.61 0.25 1.77 2.21 345.5
784.28 35.05 0.256 1.8 2.214 351.38
784.32 38.67 0.258 1.78 2.219 356.37
784.36 39 0.254 1.76 2.219 360.01
784.4 35.96 0.259 1.79 2.209 362.08
784.44 36.52 0.263 1.85 2.195 362.68
784.48 39.37 0.264 1.9 2.186 362.11
784.52 37.94 0.27 1.94 2.182 360.75
784.56 33.86 0.264 1.95 2.178 358.89
784.6 30.2 0.263 1.95 2.174 356.79
784.64 27.96 0.26 1.93 2.177 354.71
784.68 29.01 0.267 1.88 2.187 352.8
784.72 30.2 0.275 1.86 2.191 351.13
784.76 31.57 0.28 1.86 2.193 349.5
784.8 34.8 0.284 1.83 2.19 347.67
784.84 37.58 0.29 1.81 2.185 345.48
784.88 39.72 0.295 1.82 2.182 343.02
784.92 39.44 0.295 1.81 2.181 340.6
784.96 37.43 0.301 1.85 2.172 338.66
785 38.72 0.286 1.87 2.162 337.43
785.04 41.47 0.274 1.83 2.158 336.83
785.08 39.98 0.266 1.81 2.166 336.5
785.12 37.05 0.258 1.84 2.185 336.02
785.16 36.25 0.253 1.84 2.212 335.11
785.2 36.44 0.249 1.76 2.248 333.76
785.24 36.72 0.243 1.7 2.282 332.19
785.28 38.01 0.248 1.7 2.301 330.68
785.32 39.39 0.257 1.72 2.32 329.42
785.36 40.06 0.256 1.7 2.348 328.47
785.4 38.71 0.252 1.7 2.362 327.76
785.44 36.7 0.247 1.76 2.345 327.24
785.48 36.41 0.248 1.83 2.324 326.89
785.52 37.62 0.259 1.9 2.313 326.83
785.56 36.82 0.266 1.95 2.303 327.24
785.6 35.74 0.269 1.96 2.288 328.26
785.64 36.36 0.264 1.94 2.265 329.89
785.68 38.06 0.259 1.92 2.231 331.96
785.72 40.27 0.252 1.9 2.21 334.16
785.76 40.48 0.25 1.83 2.218 336.24
785.8 41.13 0.253 1.78 2.236 338.03
785.84 46.31 0.26 1.75 2.239 339.52
785.88 50.87 0.256 1.79 2.226 340.79
785.92 47.4 0.262 1.86 2.208 341.93
785.96 44.27 0.275 1.87 2.195 342.99
786 43.94 0.289 1.81 2.194 343.96
786.04 42.12 0.289 1.74 2.202 344.84
786.08 39.47 0.281 1.74 2.205 345.61
786.12 38.4 0.279 1.82 2.193 346.28
786.16 38.46 0.281 1.87 2.183 346.95
786.2 37.3 0.278 1.89 2.187 347.7
786.24 33.33 0.291 1.91 2.186 348.59
786.28 30.43 0.302 1.97 2.179 349.65
786.32 29.32 0.299 2.01 2.172 350.85
786.36 29.59 0.294 2.01 2.164 352.06
786.4 30.62 0.286 2 2.165 353.19
786.44 31.9 0.287 1.94 2.171 354.17
786.48 33.02 0.289 1.84 2.176 355.02
786.52 31.66 0.288 1.82 2.176 355.81
786.56 28.66 0.287 1.9 2.169 356.62
786.6 29.43 0.29 1.96 2.172 357.43
786.64 31.11 0.293 1.95 2.19 358.12
786.68 29.77 0.294 1.93 2.207 358.52
786.72 29.49 0.292 1.9 2.209 358.51
786.76 32.66 0.28 1.9 2.2 358.05
786.8 35.05 0.268 1.92 2.196 357.25
786.84 32.69 0.262 1.91 2.21 356.33
786.88 30.93 0.269 1.84 2.231 355.56
786.92 31.5 0.275 1.83 2.226 355.14
786.96 31.16 0.271 1.89 2.198 355.13
787 31.91 0.263 1.97 2.178 355.47
787.04 36.22 0.267 2 2.176 356.08
787.08 36.96 0.268 2.01 2.18 356.87
787.12 33.08 0.275 2.04 2.183 357.83
787.16 32.4 0.268 1.98 2.196 358.92
787.2 32.66 0.261 1.94 2.212 360.06
787.24 34.1 0.259 1.93 2.226 361.04
787.28 38.68 0.259 1.92 2.234 361.61
787.32 41.4 0.26 1.9 2.226 361.62
787.36 41.89 0.266 1.94 2.215 361.1
787.4 40.55 0.276 2.04 2.206 360.31
787.44 41.06 0.283 2.11 2.209 359.61
787.48 43.54 0.28 2.04 2.233 359.25
787.52 41.87 0.28 1.92 2.25 359.33
787.56 39.72 0.275 1.93 2.239 359.83
787.6 39.81 0.279 2.03 2.226 360.64
787.64 38.91 0.281 2.04 2.224 361.57
787.68 37.71 0.282 1.93 2.228 362.32
787.72 39.25 0.279 1.89 2.232 362.7
787.76 40.68 0.267 1.96 2.238 362.71
787.8 40.01 0.265 2.02 2.238 362.55
787.84 40.21 0.27 2.04 2.22 362.54
787.88 41.09 0.278 1.99 2.194 362.89
787.92 42.83 0.27 1.94 2.178 363.64
787.96 46.37 0.264 1.94 2.168 364.62
788 46.32 0.264 1.93 2.17 365.6
788.04 40.85 0.273 1.86 2.178 366.46
788.08 38.48 0.281 1.8 2.182 367.11
788.12 39.33 0.272 1.81 2.176 367.57
788.16 38.22 0.27 1.86 2.168 367.88
788.2 38.17 0.276 1.93 2.16 368.05
788.24 39.78 0.276 2 2.154 368.08
788.28 39.57 0.276 2.08 2.148 367.96
788.32 38.67 0.28 2.12 2.148 367.74
788.36 41.74 0.282 2.02 2.161 367.47
788.4 46.08 0.285 1.82 2.179 367.25
