# LAS format log file from PETREL
# Project units are specified as depth units
#==================================================================
~Version information
VERS.   2.0:
WRAP.   NO:
#==================================================================
~Well
STRT .m      743.10000000 :
STOP .m      842.00000000 :
STEP .m     0.10000000 :
NULL .        -999.250000 :
COMP.           : COMPANY
WELL.  100120603903W400   : WELL
FLD.            : FIELD
LOC.            : LOCATION
SRVC.           : SERVICE COMPANY
DATE.  2023-06-01 13:43:19   : Log Export Date {yyyy-MM-dd HH:mm:ss}
PROV.           : PROVINCE
UWI.      : UNIQUE WELL ID
API.            : API NUMBER
#==================================================================
~Curve
DEPT .m                   : DEPTH
AC .us/m                  : AC
GR .gAPI                  : GR
PEF .b/e                  : PEF
DEN .g/cm3                : DEN
NPHI .m3/m3               : NPHI
~Parameter
#==================================================================
~Ascii
# ...
 794.10000000 286.26998901 66.230003357 2.2599999905 2.4164199829 0.2806000113
 794.20000000 290.70001221 61.349998474 2.2899999619 2.3942899704 0.2926999927
 794.30000000 296.67001343 57.720001221 2.2899999619 2.3616499901 0.3003000021
 794.40000000 303.79000854 56.029998779 2.2599999905 2.3323500156 0.3034999967
 794.50000000 308.66998291 56.610000610 2.2200000286 2.3134198189 0.3036000133
 794.60000000 307.55001831 59.310001373 2.1900000572 2.3088300228 0.3018999994
 794.70000000 302.10000610 62.939998627 2.1900000572 2.3190500736 0.3012000024
 794.80000000 299.52001953 65.190002441 2.2000000477 2.3316798210 0.3039000034
 794.90000000 301.70001221 65.010002136 2.2300000191 2.3374500275 0.3100999892
 795.00000000 304.13000488 62.790000916 2.2500000000 2.3303899765 0.3158999979
 795.10000000 305.88000488 59.930000305 2.2599999905 2.3219699860 0.3156999946
 795.20000000 306.82000732 58.419998169 2.2799999714 2.3221600056 0.3109000027
 795.30000000 305.36999512 59.959999084 2.2999999523 2.3307900429 0.3066000044
 795.40000000 301.72000122 63.520000458 2.3399999142 2.3461000919 0.3041000068
 795.50000000 296.52001953 65.610000610 2.3599998951 2.3594498634 0.2994000018
 795.60000000 287.70001221 63.750000000 2.3499999046 2.3685500622 0.2892000079
 795.70000000 276.67001343 59.150001526 2.3299999237 2.3753499985 0.2759000063
 795.80000000 269.69000244 53.959999084 2.3199999332 2.3826498985 0.2640999854
 795.90000000 268.42001343 49.459999084 2.3399999142 2.3849799633 0.2558999956
 796.00000000 269.42001343 46.279998779 2.3499999046 2.3731200695 0.2540999949
 796.10000000 274.05999756 45.240001678 2.3199999332 2.3454298973 0.2615000010
 796.20000000 283.95999146 46.659999847 2.2500000000 2.3102099895 0.2775999904
 796.30000000 297.01998901 49.880001068 2.1500000954 2.2828600407 0.2964000106
 796.40000000 308.29998779 53.340000153 2.0899999142 2.2726800442 0.3075999916
 796.50000000 311.77999878 56.029998779 2.0699999332 2.2820601463 0.3061000109
 796.60000000 307.41000366 58.009998322 2.0899999142 2.3064198494 0.2973000109
 796.70000000 301.08999634 59.580001831 2.1199998856 2.3344900608 0.2903000116
 796.80000000 295.29000854 60.509998322 2.1600000858 2.3567600250 0.2870999873
 796.90000000 291.00000000 60.630001068 2.2000000477 2.3711299896 0.2845000029
 797.00000000 290.26000977 60.909999847 2.2300000191 2.3776102066 0.2811000049
 797.10000000 290.22000122 61.630001068 2.2599999905 2.3801200390 0.2784000039
 797.20000000 290.53997803 62.259998322 2.2899999619 2.3777499199 0.2768999934
 797.30000000 291.79000854 62.520000458 2.2999999523 2.3705999851 0.2761999965
 797.40000000 289.73001099 62.740001678 2.2999999523 2.3633799553 0.2768000066
 797.50000000 286.04998779 62.750000000 2.3099999428 2.3565700054 0.2802999914
 797.60000000 286.41000366 61.639999390 2.3299999237 2.3486900330 0.2876999974
 797.70000000 291.73999023 58.619998932 2.3199999332 2.3328101635 0.2996999919
 797.80000000 300.02001953 54.549999237 2.2699999809 2.3082599640 0.3134000003
 797.90000000 308.51998901 51.279998779 2.2000000477 2.2792899609 0.3212000132
 798.00000000 312.27999878 50.240001678 2.1300001144 2.2545099258 0.3192999959
 798.10000000 312.82998657 51.560001373 2.0699999332 2.2419099808 0.3165000081
 798.20000000 314.26998901 54.090000153 2.0399999619 2.2434198856 0.3185999990
 798.30000000 313.67999268 56.240001678 2.0399999619 2.2564299107 0.3208000064
 798.40000000 308.52999878 56.830001831 2.0499999523 2.2727799416 0.3185000122
 798.50000000 300.79000854 56.240001678 2.0799999237 2.2863898277 0.3149999976
 798.60000000 294.72000122 55.459999084 2.0799999237 2.2976598740 0.3122999966
 798.70000000 294.98001099 54.639999390 2.0899999142 2.3071899414 0.3084999919
 798.80000000 299.67001343 53.220001221 2.0999999046 2.3110299110 0.3068000078
 798.90000000 305.54998779 50.979999542 2.1199998856 2.3013000488 0.3122999966
 799.00000000 311.55999756 47.889999390 2.1400001049 2.2779600620 0.3237999976
 799.10000000 316.33999634 44.669998169 2.1199998856 2.2481200695 0.3341000080
 799.20000000 319.47000122 42.810001373 2.0799999237 2.2237300873 0.3355999887
 799.30000000 321.64999390 44.099998474 2.0199999809 2.2141799927 0.3258000016
 799.40000000 321.38998413 48.450000763 1.9700000286 2.2240600586 0.3115000129
 799.50000000 317.63998413 54.220001221 1.9700000286 2.2521798611 0.3018999994
 799.60000000 310.14999390 59.130001068 2.0199999809 2.2868897915 0.2998000085
 799.70000000 301.50000000 62.099998474 2.1099998951 2.3169498444 0.3032000065
 799.80000000 297.01998901 62.849998474 2.2100000381 2.3326001167 0.3093000054
 799.90000000 299.00997925 61.930000305 2.2699999809 2.3323798180 0.3156000078
 800.00000000 304.12002563 60.150001526 2.2799999714 2.3228700161 0.3199999928
 800.10000000 307.02999878 58.290000916 2.2400000095 2.3080301285 0.3206000030
 800.20000000 309.76000977 56.950000763 2.2000000477 2.2947199345 0.3194000125
 800.30000000 313.80999756 56.409999847 2.1900000572 2.2840099335 0.3204999864
 800.40000000 317.10000610 56.169998169 2.1900000572 2.2770600319 0.3242999911
 800.50000000 320.31997681 55.770000458 2.1900000572 2.2763500214 0.3276000023
 800.60000000 320.88998413 55.259998322 2.1900000572 2.2791001797 0.3294000030
 800.70000000 314.94000244 55.490001678 2.1900000572 2.2829599380 0.3285999894
 800.80000000 307.33999634 57.259998322 2.2100000381 2.2899899483 0.3240999877
 800.90000000 302.48001099 59.740001678 2.2000000477 2.3026101589 0.3194000125
 801.00000000 298.48001099 60.860000610 2.2200000286 2.3198797703 0.3195999861
 801.10000000 296.22998047 59.240001678 2.2400000095 2.3325200081 0.3244999945
 801.20000000 296.41000366 56.049999237 2.2599999905 2.3319299221 0.3310999870
 801.30000000 298.50000000 53.630001068 2.2599999905 2.3210501671 0.3352999985
 801.40000000 301.31997681 53.720001221 2.2400000095 2.3090200424 0.3303000033
 801.50000000 303.92001343 56.500000000 2.2200000286 2.3075399399 0.3156999946
 801.60000000 303.33999634 60.099998474 2.2000000477 2.3215801716 0.3003999889
 801.70000000 298.23001099 62.779998779 2.2000000477 2.3437500000 0.2924000025
 801.80000000 292.05001831 64.230003357 2.2000000477 2.3661000729 0.2928000093
 801.90000000 287.69000244 64.599998474 2.2200000286 2.3770201206 0.2998000085
 802.00000000 288.80999756 62.909999847 2.2500000000 2.3708798885 0.3131000102
 802.10000000 294.41998291 57.990001678 2.2400000095 2.3404800892 0.3328000009
 802.20000000 298.80999756 50.630001068 2.1900000572 2.2922999859 0.3522000015
 802.30000000 300.11999512 43.930000305 2.0799999237 2.2476298809 0.3591000140
 802.40000000 302.50000000 40.500000000 1.9800000191 2.2227499485 0.3508999944
 802.50000000 306.92999268 40.849998474 1.9199999571 2.2203500271 0.3375000060
 802.60000000 310.10000610 43.650001526 1.9199999571 2.2350099087 0.3276000023
 802.70000000 312.51998901 46.919998169 1.9900000095 2.2565600872 0.3233999908
 802.80000000 313.44000244 48.959999084 2.0699999332 2.2724499702 0.3230000138
 802.90000000 312.12002563 48.930000305 2.1199998856 2.2750999928 0.3244000077
 803.00000000 312.89001465 46.860000610 2.1300001144 2.2639498711 0.3274999857
 803.10000000 315.72998047 43.729999542 2.1099998951 2.2435901165 0.3309000134
 803.20000000 316.27999878 41.270000458 2.0799999237 2.2254700661 0.3314000070
 803.30000000 315.25000000 41.000000000 2.0399999619 2.2164299488 0.3278999925
 803.40000000 315.62002563 42.599998474 2.0199999809 2.2185199261 0.3224000037
 803.50000000 315.01000977 44.290000916 2.0000000000 2.2295601368 0.3167999983
 803.60000000 309.88000488 44.790000916 2.0099999905 2.2432298660 0.3136000037
 803.70000000 303.61999512 44.500000000 2.0299999714 2.2545900345 0.3143999875
 803.80000000 300.17999268 43.860000610 2.0599999428 2.2593400478 0.3186999857
 803.90000000 300.22000122 42.950000763 2.0799999237 2.2555501461 0.3249999881
 804.00000000 302.83999634 41.430000305 2.0799999237 2.2434399128 0.3309000134
 804.10000000 307.15002441 39.060001373 2.0599999428 2.2258400917 0.3355000019
 804.20000000 313.50000000 36.090000153 2.0199999809 2.2057199478 0.3413999975
