# LAS format log file from PETREL
# Project units are specified as depth units
#==================================================================
~Version information
VERS.   2.0:
WRAP.   NO:
#==================================================================
~Well
STRT .m      743.10000000 :
STOP .m      842.00000000 :
STEP .m     0.10000000 :
NULL .        -999.250000 :
COMP.           : COMPANY
WELL.  100120603903W400   : WELL
FLD.            : FIELD
LOC.            : LOCATION
SRVC.           : SERVICE COMPANY
DATE.  2023-06-01 13:43:19   : Log Export Date {yyyy-MM-dd HH:mm:ss}
PROV.           : PROVINCE
UWI.      : UNIQUE WELL ID
API.            : API NUMBER
#==================================================================
~Curve
DEPT .m                   : DEPTH
AC .us/m                  : AC
GR .gAPI                  : GR
PEF .b/e                  : PEF
DEN .g/cm3                : DEN
NPHI .m3/m3               : NPHI
~Parameter
#==================================================================
~Ascii
# ...
 824.70000000 301.76998901 21.219999313 1.7000000477 2.1166398525 0.3253000081
 824.80000000 302.73999023 20.920000076 1.7000000477 2.1142699718 0.3274999857
 824.90000000 306.54000854 20.610000610 1.7000000477 2.1146399975 0.3298000097
 825.00000000 310.27999878 20.569999695 1.7000000477 2.1158201694 0.3321999907
 825.10000000 312.25000000 20.600000381 1.7000000477 2.1178500652 0.3316999972
 825.20000000 314.17001343 20.569999695 1.7000000477 2.1205801964 0.3278999925
 825.30000000 315.69998169 20.659999847 1.7000000477 2.1207399368 0.3251999915
 825.40000000 315.22998047 20.700000763 1.7100000381 2.1224799156 0.3273000121
 825.50000000 313.38000488 20.350000381 1.7300000191 2.1223502159 0.3357999921
 825.60000000 310.48999023 19.909999847 1.7500000000 2.1215400696 0.3481999934
 825.70000000 306.60000610 20.149999619 1.7699999809 2.1198000908 0.3576000035
 825.80000000 303.35998535 21.430000305 1.7799999714 2.1176102161 0.3587000072
 825.90000000 304.17001343 22.819999695 1.7799999714 2.1191399097 0.3526000082
 826.00000000 310.11999512 23.219999313 1.7699999809 2.1215500832 0.3461999893
 826.10000000 315.69998169 22.569999695 1.7699999809 2.1237199306 0.3447999954
 826.20000000 317.02999878 21.879999161 1.7799999714 2.1230499744 0.3467000127
 826.30000000 318.42999268 21.629999161 1.7799999714 2.1194198132 0.3467999995
 826.40000000 320.71002197 21.600000381 1.7699999809 2.1148898602 0.3420999944
 826.50000000 319.70999146 21.190000534 1.7500000000 2.1120500565 0.3359999955
 826.60000000 317.38000488 20.260000229 1.7300000191 2.1101298332 0.3330000043
 826.70000000 314.72000122 19.120000839 1.7200000286 2.1103401184 0.3341999948
 826.80000000 312.36001587 18.440000534 1.7200000286 2.1141698360 0.3373999894
 826.90000000 312.94000244 18.500000000 1.7200000286 2.1162199974 0.3384999931
 827.00000000 313.35000610 18.969999313 1.7200000286 2.1170799732 0.3357000053
 827.10000000 310.22000122 18.950000763 1.7100000381 2.1150100231 0.3314000070
 827.20000000 306.83999634 18.290000916 1.7100000381 2.1119599342 0.3303999901
 827.30000000 305.98999023 17.610000610 1.7000000477 2.1126699448 0.3325999975
 827.40000000 305.96002197 17.649999619 1.7000000477 2.1135599613 0.3382000029
 827.50000000 305.83999634 18.569999695 1.7100000381 2.1159098148 0.3467000127
 827.60000000 305.16000366 19.780000687 1.7300000191 2.1177299023 0.3542000055
 827.70000000 302.91000366 20.639999390 1.7599999905 2.1167399883 0.3555000126
 827.80000000 300.17999268 21.260000229 1.7799999714 2.1161298752 0.3515999913
 827.90000000 299.33999634 21.950000763 1.7699999809 2.1137700081 0.3467999995
 828.00000000 302.00000000 22.659999847 1.7500000000 2.1105101109 0.3415000141
 828.10000000 305.76998901 22.930000305 1.7300000191 2.1075401306 0.3328999877
 828.20000000 307.64001465 22.500000000 1.7300000191 2.1037800312 0.3231999874
 828.30000000 309.04998779 21.620000839 1.7500000000 2.1015400887 0.3204999864
 828.40000000 312.89999390 20.889999390 1.7599999905 2.1006000042 0.3289000094
 828.50000000 317.01000977 20.709999084 1.7799999714 2.0985801220 0.3452000022
 828.60000000 316.76000977 21.059999466 1.7899999619 2.0962600708 0.3612999916
 828.70000000 312.77999878 21.180000305 1.7999999523 2.0934300423 0.3697000146
 828.80000000 311.10000610 20.760000229 1.8099999428 2.0928401947 0.3666999936
 828.90000000 313.58999634 20.190000534 1.7899999619 2.0955700874 0.3560999930
 829.00000000 315.63000488 19.680000305 1.7500000000 2.0979900360 0.3470000029
 829.10000000 316.50000000 19.040000916 1.7300000191 2.1017899513 0.3456999958
 829.20000000 318.36999512 18.569999695 1.7200000286 2.1044600010 0.3528999984
 829.30000000 320.47000122 18.860000610 1.7300000191 2.1074399948 0.3630000055
 829.40000000 320.35000610 19.809999466 1.7400000095 2.1122300625 0.3695000112
 829.50000000 318.30001831 20.809999466 1.7500000000 2.1165099144 0.3697000146
 829.60000000 315.04000854 21.629999161 1.7500000000 2.1211102009 0.3659000099
 829.70000000 311.44000244 22.329999924 1.7500000000 2.1255400181 0.3589999974
 829.80000000 309.11999512 22.770000458 1.7400000095 2.1292400360 0.3486000001
 829.90000000 308.22998047 22.959999084 1.7200000286 2.1320500374 0.3373000026
 830.00000000 308.38000488 22.520000458 1.7200000286 2.1332499981 0.3318000138
 830.10000000 308.97000122 21.639999390 1.7200000286 2.1347100735 0.3327000141
 830.20000000 309.52999878 20.809999466 1.7300000191 2.1348998547 0.3336000144
 830.30000000 310.25000000 20.610000610 1.7500000000 2.1341202259 0.3328000009
 830.40000000 309.95001221 20.790000916 1.7599999905 2.1321001053 0.3339999914
 830.50000000 308.09997559 20.860000610 1.7500000000 2.1308500767 0.3373000026
 830.60000000 306.67001343 20.450000763 1.7400000095 2.1320099831 0.3389999866
 830.70000000 305.95001221 20.159999847 1.7300000191 2.1331799030 0.3397000134
 830.80000000 306.95001221 20.389999390 1.7300000191 2.1361699104 0.3415000141
 830.90000000 308.24002075 20.940000534 1.7300000191 2.1382300854 0.3440999985
 831.00000000 306.95999146 20.979999542 1.7300000191 2.1382999420 0.3463999927
 831.10000000 306.66000366 20.200000763 1.7400000095 2.1375200748 0.3470000029
 831.20000000 309.89999390 19.110000610 1.7599999905 2.1345100403 0.3443999887
 831.30000000 311.60998535 18.889999390 1.7699999809 2.1334500313 0.3389999866
 831.40000000 311.36999512 20.489999771 1.7799999714 2.1353399754 0.3321000040
 831.50000000 312.32998657 24.739999771 1.7799999714 2.1425499916 0.3253999949
 831.60000000 311.39001465 32.240001678 1.7999999523 2.1615099907 0.3210999966
 831.70000000 306.60000610 42.229999542 1.8400000334 2.1978700161 0.3185000122
 831.80000000 299.97998047 51.470001221 1.9299999475 2.2491598129 0.3158999979
 831.90000000 291.91000366 56.040000916 2.0499999523 2.3041999340 0.3147000074
 832.00000000 285.45999146 55.009998322 2.1900000572 2.3428101540 0.3156000078
 832.10000000 280.92001343 50.540000916 2.2999999523 2.3561699390 0.3152000010
 832.20000000 277.54998779 44.880001068 2.3499999046 2.3458600044 0.3147000074
 832.30000000 278.22000122 38.770000458 2.3299999237 2.3209500313 0.3138000071
 832.40000000 283.07000732 32.419998169 2.2500000000 2.2870600224 0.3125999868
 832.50000000 289.76000977 26.579999924 2.1400001049 2.2486000061 0.3136000037
 832.60000000 296.98001099 22.500000000 2.0199999809 2.2142300606 0.3179000020
 832.70000000 303.50000000 20.879999161 1.8899999857 2.1881899834 0.3239000142
 832.80000000 309.39999390 21.090000153 1.7999999523 2.1733500957 0.3287000060
 832.90000000 310.20999146 21.840000153 1.7300000191 2.1654198170 0.3314999938
 833.00000000 306.66000366 22.280000687 1.7000000477 2.1592800617 0.3327000141
 833.10000000 304.86001587 22.040000916 1.6900000572 2.1538701057 0.3328999877
 833.20000000 304.98001099 21.280000687 1.6799999475 2.1478400230 0.3323000073
 833.30000000 306.64999390 20.540000916 1.6799999475 2.1441898346 0.3319999874
 833.40000000 308.25000000 20.049999237 1.6699999571 2.1427500248 0.3337999880
 833.50000000 308.02999878 19.479999542 1.6799999475 2.1416001320 0.3393999934
 833.60000000 307.98999023 19.049999237 1.6900000572 2.1386299133 0.3463999927
 833.70000000 305.83001709 19.129999161 1.7100000381 2.1348500252 0.3497000039
 833.80000000 300.81997681 19.620000839 1.7100000381 2.1322200298 0.3479000032
 833.90000000 297.51000977 20.090000153 1.7000000477 2.1323702335 0.3461999893
 834.00000000 297.45999146 20.309999466 1.7000000477 2.1344799995 0.3458999991
 834.10000000 298.88000488 20.370000839 1.6900000572 2.1382501125 0.3429999948
 834.20000000 300.95999146 20.549999237 1.7000000477 2.1436698437 0.3368000090
 834.30000000 300.02999878 20.899999619 1.7000000477 2.1489398479 0.3301999867
 834.40000000 293.51000977 21.250000000 1.7100000381 2.1532900333 0.3246999979
 834.50000000 286.78997803 21.309999466 1.7300000191 2.1553301811 0.3224999905
 834.60000000 285.39001465 20.909999847 1.7300000191 2.1564199924 0.3255000114
 834.70000000 287.85998535 20.180000305 1.7300000191 2.1561000347 0.3321000040
 834.80000000 292.36999512 19.520000458 1.7300000191 2.1530900002 0.3395999968
