# LAS format log file from PETREL
# Project units are specified as depth units
#==================================================================
~Version information
VERS.   2.0:
WRAP.   NO:
#==================================================================
~Well
STRT .m      743.10000000 :
STOP .m      842.00000000 :
STEP .m     0.10000000 :
NULL .        -999.250000 :
COMP.           : COMPANY
WELL.  100120603903W400   : WELL
FLD.            : FIELD
LOC.            : LOCATION
SRVC.           : SERVICE COMPANY
DATE.  2023-06-01 13:43:19   : Log Export Date {yyyy-MM-dd HH:mm:ss}
PROV.           : PROVINCE
UWI.      : UNIQUE WELL ID
API.            : API NUMBER
#==================================================================
~Curve
DEPT .m                   : DEPTH
AC .us/m                  : AC
GR .gAPI                  : GR
PEF .b/e                  : PEF
DEN .g/cm3                : DEN
NPHI .m3/m3               : NPHI
~Parameter
#==================================================================
~Ascii
# ...
 773.70000000 302.97000122 86.739997864 2.8599998951 2.4819300175 0.3815999925
 773.80000000 292.41000366 85.290000916 2.9900000095 2.5079300404 0.3693000078
 773.90000000 285.26000977 84.919998169 3.1300001144 2.5143201351 0.3625000119
 774.00000000 284.82000732 84.760002136 3.1600000858 2.5087299347 0.3635999858
 774.10000000 285.54998779 84.069999695 3.0899999142 2.4938700199 0.3680999875
 774.20000000 283.70999146 83.050003052 2.9900000095 2.4795000553 0.3698999882
 774.30000000 280.94000244 82.209999084 2.8900001049 2.4722299576 0.3677999973
 774.40000000 278.78997803 81.760002136 2.8399999142 2.4674799442 0.3639000058
 774.50000000 279.22000122 82.029998779 2.8199999332 2.4681699276 0.3583000004
 774.60000000 280.20999146 82.910003662 2.8499999046 2.4711201191 0.3537000120
 774.70000000 281.22000122 83.790000916 2.9100000858 2.4732198715 0.3529999852
 774.80000000 285.24002075 84.629997253 2.9400000572 2.4761798382 0.3540999889
 774.90000000 288.79000854 85.620002747 2.9600000381 2.4761798382 0.3535000086
 775.00000000 287.83999634 86.220001221 2.9400000572 2.4749598503 0.3540999889
 775.10000000 285.44000244 85.879997253 2.9300000668 2.4708101749 0.3578000069
 775.20000000 284.88000488 85.019996643 2.9400000572 2.4674198627 0.3603999913
 775.30000000 285.02999878 84.769996643 2.9200000763 2.4709699154 0.3583999872
 775.40000000 286.38000488 85.250000000 2.8900001049 2.4808797836 0.3540999889
 775.50000000 290.55999756 86.050003052 2.8699998856 2.4983999729 0.3537999988
 775.60000000 295.23999023 87.370002747 2.8800001144 2.5132000446 0.3598999977
 775.70000000 300.02999878 89.809997559 2.9500000477 2.5228998661 0.3682999909
 775.80000000 304.66998291 93.029998779 3.0000000000 2.5285701752 0.3736000061
 775.90000000 306.72000122 96.580001831 3.0000000000 2.5259499550 0.3756000102
 776.00000000 308.61001587 99.419998169 2.9500000477 2.5235600471 0.3772000074
 776.10000000 311.41000366 100.22000122 2.9200000763 2.5250201225 0.3801000118
 776.20000000 315.08999634 98.919998169 2.9100000858 2.5145599842 0.3865999877
 776.30000000 319.35998535 96.980003357 2.9100000858 2.4861998558 0.4004000127
 776.40000000 324.86999512 94.639999390 2.9200000763 2.4269299507 0.4237999916
 776.50000000 333.08999634 89.269996643 2.9100000858 2.3303401470 0.4532999992
 776.60000000 345.80001831 78.639999390 2.9500000477 2.1934499741 0.4846000075
 776.70000000 361.54998779 64.500000000 2.9900000095 2.0398199558 0.5153999925
 776.80000000 372.52999878 51.349998474 3.0000000000 1.9160300493 0.5365999937
 776.90000000 373.89999390 42.270000458 2.9500000477 1.8459500074 0.5372999907
 777.00000000 369.41000366 37.250000000 2.8099999428 1.8440400362 0.5198000073
 777.10000000 359.98999023 34.650001526 2.6500000954 1.8999100924 0.4848999977
 777.20000000 344.47000122 33.369998932 2.4700000286 1.9878100157 0.4307000041
 777.30000000 325.48001099 33.439998627 2.2999999523 2.0821101665 0.3738999963
 777.40000000 309.66000366 34.869998932 2.1700000763 2.1558101177 0.3336000144
 777.50000000 301.63000488 37.189998627 2.0799999237 2.2060301304 0.3134000003
 777.60000000 300.59997559 39.340000153 2.0499999523 2.2320499420 0.3061000109
 777.70000000 299.86999512 40.060001373 2.0099999905 2.2354400158 0.3037000000
 777.80000000 297.98001099 39.240001678 1.9600000381 2.2311100960 0.3023000062
 777.90000000 297.60000610 38.069999695 1.9099999666 2.2235701084 0.3021000028
 778.00000000 297.16998291 37.500000000 1.8899999857 2.2125799656 0.3066999912
 778.10000000 297.07998657 37.020000458 1.8799999952 2.1888999939 0.3190000057
 778.20000000 303.94000244 36.119998932 1.8700000048 2.1392099857 0.3402999938
 778.30000000 318.07000732 36.110000610 1.8400000334 2.0557398796 0.3723999858
 778.40000000 334.36999512 38.720001221 1.7699999809 1.9406899214 0.4199999869
 778.50000000 350.77999878 43.139999390 1.6799999475 1.8191599846 0.4814999998
 778.60000000 368.55001831 47.169998169 1.5900000334 1.7166099548 0.5381000042
 778.70000000 387.01998901 49.490001678 1.5199999809 1.6423900127 0.5690000057
 778.80000000 399.72998047 50.549999237 1.5000000000 1.5959500074 0.5777999759
 778.90000000 404.50000000 50.840000153 1.5099999905 1.5692700148 0.5749999881
 779.00000000 404.31997681 51.580001831 1.5700000525 1.5647599697 0.5600000024
 779.10000000 400.61001587 54.490001678 1.6499999762 1.5929100513 0.5335999727
 779.20000000 393.71002197 60.470001221 1.7200000286 1.6633000374 0.4954999983
 779.30000000 381.69998169 66.959999084 1.7999999523 1.7762600183 0.4512000084
 779.40000000 362.83001709 69.779998779 1.8999999762 1.9124699831 0.4135999978
 779.50000000 339.02001953 66.809997559 2.0299999714 2.0406701565 0.3896999955
 779.60000000 311.58999634 60.279998779 2.2000000477 2.1367700100 0.3686000109
 779.70000000 284.55001831 53.909999847 2.3299999237 2.1993799210 0.3373000026
 779.80000000 261.77001953 49.900001526 2.4400000572 2.2432999611 0.3010999858
 779.90000000 243.47000122 48.200000763 2.5000000000 2.2806000710 0.2748000026
 780.00000000 229.36999512 48.279998779 2.5699999332 2.3150401115 0.2658999860
 780.10000000 225.88999939 50.119998932 2.6500000954 2.3462300301 0.2728999853
 780.20000000 239.40000916 54.529998779 2.7500000000 2.3748700619 0.2908000052
 780.30000000 260.76998901 62.349998474 2.8199999332 2.3996398449 0.3177999854
 780.40000000 281.66000366 73.489997864 2.8699998856 2.4222500324 0.3553999960
 780.50000000 304.16000366 85.639999390 2.9000000954 2.4386298656 0.3966000080
 780.60000000 326.23999023 95.620002747 2.9000000954 2.4491698742 0.4246999919
 780.70000000 338.45999146 101.08999634 2.8900001049 2.4575400352 0.4323999882
 780.80000000 340.92001343 102.20999908 2.8800001144 2.4664099216 0.4280999899
 780.90000000 338.45999146 101.18000031 2.8599998951 2.4719800949 0.4194999933
 781.00000000 335.98001099 100.41000366 2.8499999046 2.4744198322 0.4117999971
 781.10000000 335.95001221 100.38999939 2.8299999237 2.4767398834 0.4097000062
 781.20000000 338.76000977 100.58000183 2.7999999523 2.4773001671 0.4122000039
 781.30000000 343.11999512 100.90000153 2.7799999714 2.4772500992 0.4146000147
 781.40000000 344.40997314 101.44000244 2.7899999619 2.4750199318 0.4144000113
 781.50000000 342.20999146 101.37000275 2.8099999428 2.4723100662 0.4133999944
 781.60000000 339.86999512 100.69999695 2.8499999046 2.4673399925 0.4144999981
 781.70000000 338.95999146 101.11000061 2.8699998856 2.4613301754 0.4172999859
 781.80000000 338.95999146 103.84999847 2.8900001049 2.4541800022 0.4162999988
 781.90000000 339.06997681 107.68000031 2.8800001144 2.4479098320 0.4086000025
 782.00000000 338.69000244 110.81999969 2.8499999046 2.4470901489 0.3995000124
 782.10000000 339.71002197 113.66000366 2.8299999237 2.4452199936 0.3968000114
 782.20000000 342.39999390 117.97000122 2.8099999428 2.4422399998 0.4011999965
 782.30000000 344.39999390 124.12999725 2.7999999523 2.4359800816 0.4061999917
 782.40000000 343.13000488 129.88999939 2.8099999428 2.4262199402 0.4068000019
 782.50000000 338.30999756 132.22999573 2.7899999619 2.4133100510 0.4041999876
 782.60000000 331.13000488 129.22999573 2.7500000000 2.4029200077 0.4018999934
 782.70000000 324.97000122 121.44999695 2.6700000763 2.4035701752 0.4007000029
 782.80000000 320.73999023 111.51999664 2.6099998951 2.4157400131 0.3962999880
 782.90000000 317.58999634 102.16999817 2.5599999428 2.4369699955 0.3833000064
 783.00000000 312.02999878 93.830001831 2.5299999714 2.4613401890 0.3632999957
 783.10000000 302.55001831 85.319999695 2.5099999905 2.4804499149 0.3429000080
 783.20000000 292.75000000 76.360000610 2.4800000191 2.4883100986 0.3255999982
 783.30000000 284.67001343 68.180000305 2.4600000381 2.4836101532 0.3115999997
 783.40000000 277.57000732 61.680000305 2.4500000477 2.4706101418 0.3037000000
 783.50000000 275.69000244 56.770000458 2.4500000477 2.4574298859 0.3039999902
 783.60000000 280.76000977 53.119998932 2.4600000381 2.4355399609 0.3086000085
 783.70000000 288.47998047 51.290000916 2.4500000477 2.4034299850 0.3120999932
 783.80000000 298.83999634 51.310001373 2.4200000763 2.3602099419 0.3138999939
