# Exported from Geomodeling Studio 8.5
# Project: RedLion
# Date: 2023-06-07T16:32:40
# User: xuepi
# Geodetic Coordinate System: NAD27 / UTM zone 12N
# 
~Version
VERS          .          3.0                                         :CWLS LOG ASCII STANDARD - VERSION 3.00
WRAP          .          NO                                          :One line per depth step
DLM           .          SPACE                                       :Delimiter character between data columns
#Delimiting character ( SPACE TAB OR COMMA ).
#----          ----      -------------                                -----------
#MNEM         .UNIT      DATA                                        :DESCRIPTION
~Well
STRT          .m         770.040                                     :FIRST INDEX VALUE
STOP          .m         859.480                                     :LAST INDEX VALUE
STEP          .m         0.0400                                      :STEP
NULL          .          -9999.990                                   :NULL VALUE
COMP          .                                                      :COMPANY
WELL          .          100/16-32-038-03W4/00                       :WELL
FLD           .                                                      :FIELD
LOC           .                  :LOCATION                              
SRVC          .                                                      :SERVICE COMPANY
CTRY          .                                                      :COUNTRY
CNTY          .                                                      :COUNTY
STAT          .                                                      :STATE
API           .                                                      :API NUMBER
DATE          .                                                      :LOG DATE
X             .          541852.200                                  :X OR EAST-WEST COORDINATE
Y             .          5796064.200                                 :Y OR NORTH-SOUTH COORDINATE
HZCS          .                                                      :HORIZONTAL CO-ORDINATE SYSTEM
GDAT          .          NAD27                                       :GEODETIC DATUM
UWI           .          100163203803W400                            :Unique Well Identifier
#----          ----      -----                                        -----------
~Parameter 
#MNEM         .UNIT      VALUE                                        Description
APD           .M         00.00                                       :Above Permanent Datum
DREF          .          KB                                          :Depth Reference (KB,DF,CB)
EREF          .m         674.300                                     :Elevation of Depth Deference
RUN           .          1                                           :Run Number
EKB           .m         674.300                                     :Kelling Bush Elevation
#----          ----      ---------                                    -----------------
#MNEM          UNIT      LOG CODES                                    Curve Description
~Curve
DEPTH         .m                                                     :DEPTH
GR            .GAPI                                                  :
NPHI          .Fraction                                              :
PE            .Bar/e                                                 :
RHOB          .g/cm^3                                                :
AC            .us/m                                                  :
#----          ----      ---------                                    -----------------
~Ascii
770.8 68.87 0.43 0.99 1.916 384.91
770.84 68.38 0.399 1 2.041 376.11
770.88 65.32 0.358 1.16 2.192 366.95
770.92 65.47 0.333 1.5 2.323 358.01
770.96 66.36 0.313 1.92 2.367 349.87
771 65.03 0.298 2.13 2.359 342.99
771.04 66.45 0.293 2.2 2.338 337.69
771.08 68.83 0.298 2.33 2.314 334.15
771.12 67.63 0.295 2.38 2.31 332.33
771.16 67.57 0.296 2.29 2.321 331.98
771.2 71.65 0.298 2.24 2.332 332.68
771.24 78.22 0.301 2.28 2.329 333.86
771.28 86.65 0.303 2.31 2.324 334.99
771.32 90.91 0.298 2.33 2.335 335.7
771.36 87.03 0.292 2.38 2.338 335.83
771.4 84.05 0.289 2.39 2.323 335.42
771.44 85.76 0.282 2.37 2.301 334.58
771.48 89.93 0.278 2.36 2.284 333.45
771.52 90.81 0.281 2.4 2.271 332.16
771.56 82.91 0.292 2.41 2.274 330.71
771.6 76.37 0.297 2.36 2.288 329.08
771.64 74.77 0.304 2.35 2.304 327.17
771.68 72.94 0.304 2.36 2.33 324.93
771.72 74.06 0.298 2.41 2.356 322.28
771.76 78.62 0.289 2.54 2.379 319.28
771.8 83.01 0.284 2.69 2.389 316.03
771.84 79.79 0.281 2.76 2.384 312.74
771.88 73.16 0.285 2.74 2.383 309.71
771.92 72.17 0.29 2.66 2.394 307.18
771.96 79.72 0.287 2.61 2.411 305.32
772 85.84 0.278 2.78 2.402 304.08
772.04 84.69 0.263 2.95 2.389 303.24
772.08 77.39 0.259 2.86 2.39 302.53
772.12 71.05 0.258 2.75 2.386 301.71
772.16 69.41 0.268 2.69 2.385 300.77
772.2 67.72 0.268 2.69 2.389 299.75
772.24 70.01 0.27 2.81 2.389 298.84
772.28 73.75 0.258 2.98 2.385 298.14
772.32 71.98 0.251 3.02 2.387 297.67
772.36 65 0.256 2.85 2.403 297.4
772.4 58.71 0.267 2.63 2.423 297.21
772.44 59.53 0.269 2.52 2.439 296.95
772.48 65.24 0.269 2.56 2.439 296.51
772.52 68.19 0.26 2.69 2.432 295.79
772.56 68.39 0.25 2.95 2.416 294.75
772.6 68.07 0.245 3.12 2.398 293.36
772.64 67.36 0.252 3.01 2.399 291.54
772.68 70.09 0.266 2.82 2.411 289.24
772.72 75.35 0.274 2.86 2.405 286.36
772.76 76.97 0.268 3.09 2.395 282.86
772.8 76.84 0.25 3.25 2.395 278.82
772.84 77.95 0.242 3.27 2.399 274.32
772.88 74.65 0.248 3.2 2.404 269.51
772.92 69.81 0.249 3.1 2.417 264.49
772.96 69.41 0.245 3.04 2.444 259.4
773 69.94 0.231 3.1 2.471 254.34
773.04 65.43 0.224 3.31 2.488 249.48
773.08 59.08 0.221 3.51 2.498 245.01
773.12 56.39 0.213 3.47 2.504 241.21
773.16 54.79 0.201 3.3 2.51 238.35
773.2 54.72 0.201 3.08 2.528 236.65
773.24 56.8 0.205 2.91 2.547 236.07
773.28 61.64 0.218 2.94 2.547 236.37
773.32 66.94 0.222 3.08 2.543 237.09
773.36 68.61 0.217 3.15 2.547 237.73
773.4 66.32 0.205 3.19 2.539 237.94
773.44 60.85 0.194 3.38 2.509 237.59
773.48 55.89 0.194 3.5 2.486 236.79
773.52 56.47 0.194 3.37 2.48 235.72
773.56 58.89 0.199 3.25 2.483 234.58
773.6 56.54 0.197 3.24 2.496 233.53
773.64 52.05 0.19 3.25 2.512 232.63
773.68 48.32 0.18 3.22 2.524 231.9
773.72 47.81 0.168 3.16 2.541 231.24
773.76 50.52 0.151 3.27 2.559 230.39
773.8 51.23 0.139 3.53 2.582 228.98
773.84 50.6 0.123 3.8 2.618 226.69
773.88 48.88 0.109 3.98 2.657 223.38
773.92 46.69 0.098 4.1 2.673 219.24
773.96 45.73 0.093 4.21 2.677 214.58
774 44.59 0.088 4.14 2.687 209.75
774.04 45.86 0.087 4.11 2.673 205
774.08 51.09 0.086 4.22 2.647 200.55
774.12 52.99 0.087 4.31 2.64 196.67
774.16 52.55 0.089 4.3 2.65 193.8
774.2 53.76 0.087 4.19 2.663 192.53
774.24 55.18 0.088 4.12 2.675 193.34
774.28 53.35 0.094 4.24 2.679 196.38
774.32 50.25 0.103 4.4 2.674 201.36
774.36 50.29 0.113 4.23 2.68 207.9
774.4 55.05 0.119 4.05 2.681 215.51
774.44 58.94 0.126 4.06 2.662 223.88
774.48 60.75 0.132 3.96 2.655 232.87
774.52 62.11 0.14 3.73 2.67 242.36
774.56 60.17 0.148 3.53 2.673 252.28
774.6 56.44 0.157 3.49 2.651 262.35
774.64 60.82 0.16 3.63 2.624 272.17
774.68 66.3 0.159 3.85 2.594 281.19
774.72 67.86 0.171 3.93 2.563 289.01
774.76 69.92 0.188 4.04 2.522 295.53
774.8 71.67 0.203 3.84 2.477 301.05
774.84 72.89 0.224 3.49 2.443 306
774.88 72.85 0.25 3.29 2.431 310.64
774.92 69.67 0.266 3.1 2.421 314.91
774.96 67.83 0.276 2.83 2.382 318.48
775 72.99 0.283 2.72 2.349 321.16
775.04 77.23 0.287 2.74 2.341 322.98
775.08 75.79 0.291 2.6 2.365 324.4
775.12 77.5 0.283 2.48 2.387 325.95
775.16 80.13 0.273 2.51 2.395 327.86
775.2 79.15 0.268 2.56 2.401 329.92
775.24 80.62 0.278 2.59 2.41 331.64
775.28 81.9 0.276 2.65 2.419 332.6
775.32 78.15 0.265 2.68 2.427 332.68
775.36 76.89 0.259 2.73 2.427 332.09
775.4 80.74 0.26 2.84 2.418 331.2
775.44 82.77 0.262 3.02 2.398 330.19
775.48 79.03 0.259 3.06 2.378 328.89
775.52 77.39 0.244 2.85 2.377 326.85
775.56 82.55 0.237 2.61 2.393 323.6
775.6 88.21 0.234 2.44 2.407 318.95
775.64 90.15 0.233 2.4 2.412 313.21
775.68 84.08 0.239 2.38 2.426 307.18
775.72 71.51 0.25 2.35 2.453 301.82
775.76 61.17 0.261 2.39 2.472 297.77
775.8 55.64 0.266 2.46 2.501 295.15
775.84 51.64 0.265 2.58 2.55 293.56
775.88 52.18 0.253 2.76 2.641 292.43
775.92 59.05 0.246 3.16 2.737 291.42
775.96 65.09 0.239 3.61 2.748 290.52
776 66.8 0.227 3.78 2.718 290.01
776.04 70.26 0.22 3.99 2.699 290.34
776.08 77.22 0.227 4.55 2.686 291.85
776.12 83.05 0.257 5.25 2.645 294.74
776.16 90.32 0.294 5.2 2.544 298.95
776.2 95.21 0.303 4.33 2.437 304.16
776.24 94.89 0.293 3.57 2.4 309.82
776.28 94.64 0.28 3.19 2.425 315.37
776.32 92.05 0.273 3.03 2.452 320.45
776.36 91.82 0.284 2.99 2.461 324.95
776.4 95.54 0.297 3.05 2.471 328.99
776.44 93.7 0.296 3.08 2.488 332.75
776.48 90.25 0.285 3.04 2.508 336.38
776.52 94.42 0.275 3.12 2.534 339.89
776.56 102.23 0.263 3.27 2.547 343.28
776.6 104.94 0.271 3.29 2.531 346.47
776.64 107.58 0.279 3.25 2.504 349.41
776.68 109.07 0.285 3.14 2.485 352.06
776.72 108.09 0.287 3.12 2.483 354.44
776.76 109.79 0.276 3.16 2.498 356.56
776.8 112.5 0.286 3.12 2.513 358.46
776.84 112.22 0.295 2.88 2.503 360.13
776.88 110.67 0.314 2.65 2.483 361.47
776.92 114.38 0.317 2.58 2.467 362.29
776.96 119.77 0.322 2.68 2.453 362.36
777 114.24 0.319 2.76 2.462 361.47
777.04 108.3 0.31 2.89 2.491 359.54
777.08 110.46 0.297 3.13 2.487 356.65
777.12 112.99 0.292 3.15 2.45 352.97
777.16 110.12 0.285 2.96 2.44 348.77
777.2 104.41 0.286 2.74 2.471 344.32
777.24 101.49 0.294 2.58 2.501 339.84
777.28 99.27 0.303 2.56 2.506 335.52
777.32 95.24 0.31 2.67 2.503 331.41
777.36 93.96 0.303 2.92 2.503 327.54
777.4 95.72 0.287 3.19 2.515 323.79
777.44 92.13 0.27 3.46 2.529 320.05
777.48 87.34 0.269 3.67 2.543 316.3
777.52 90.96 0.277 3.72 2.546 312.65
777.56 95.37 0.287 3.66 2.525 309.4
777.6 93.87 0.279 3.49 2.507 306.95
777.64 88.01 0.278 3.36 2.511 305.63
777.68 81.43 0.278 3.17 2.521 305.62
777.72 80.36 0.278 2.99 2.521 306.75
777.76 86.6 0.279 2.84 2.519 308.56
777.8 96.61 0.282 2.76 2.521 310.55
777.84 101.1 0.287 2.77 2.531 312.26
777.88 98.59 0.291 2.88 2.538 313.5
777.92 94.18 0.294 3 2.538 314.29
777.96 90.21 0.308 3.01 2.535 314.78
778 88.82 0.311 2.93 2.536 315.2
778.04 89.77 0.304 2.85 2.545 315.68
778.08 92.16 0.297 2.86 2.554 316.31
778.12 92.7 0.296 2.87 2.569 317.03
778.16 91.33 0.29 2.87 2.572 317.69
778.2 93.44 0.283 2.97 2.551 318.08
778.24 98.85 0.282 3.12 2.53 318.09
778.28 103.81 0.279 3.16 2.525 317.78
778.32 103.51 0.269 3.26 2.547 317.42
778.36 95.03 0.27 3.59 2.577 317.4
778.4 87.73 0.283 3.89 2.582 318.05
778.44 92.03 0.299 3.65 2.568 319.52
778.48 102.33 0.294 3.14 2.584 321.63
778.52 107.81 0.294 2.87 2.615 323.98
778.56 107.47 0.294 2.92 2.617 326.06
778.6 106.5 0.292 3.05 2.599 327.5
778.64 103.74 0.29 3.11 2.604 328.15
778.68 102.95 0.284 3.17 2.644 328.09
778.72 107.25 0.281 3.27 2.684 327.51
778.76 110.71 0.273 3.45 2.653 326.66
778.8 108.29 0.275 3.57 2.581 325.79
778.84 103.48 0.285 3.47 2.54 325.11
778.88 104.14 0.3 3.32 2.526 324.84
778.92 104.5 0.319 3.29 2.518 325.14
778.96 100.39 0.311 3.43 2.512 326.03
779 99.14 0.304 3.6 2.499 327.38
779.04 97.88 0.303 3.43 2.488 328.98
779.08 90.3 0.311 3.2 2.474 330.63
779.12 84.23 0.317 3.19 2.454 332.18
779.16 83.84 0.323 3.36 2.426 333.57
779.2 83.61 0.332 3.61 2.387 334.75
779.24 85.77 0.341 3.61 2.347 335.71
779.28 83.52 0.34 3.24 2.319 336.46
779.32 78.17 0.341 2.79 2.293 337.05
779.36 77.74 0.337 2.51 2.271 337.56
779.4 79.81 0.342 2.4 2.261 338.14
779.44 82.26 0.336 2.38 2.26 338.89
779.48 87.97 0.342 2.35 2.263 339.83
779.52 90.17 0.34 2.3 2.268 340.8
779.56 85.73 0.34 2.28 2.281 341.58
