# Exported from Geomodeling Studio 8.5
# Project: RedLion
# Date: 2023-06-07T16:32:40
# User: xuepi
# Geodetic Coordinate System: NAD27 / UTM zone 12N
# 
~Version
VERS          .          3.0                                         :CWLS LOG ASCII STANDARD - VERSION 3.00
WRAP          .          NO                                          :One line per depth step
DLM           .          SPACE                                       :Delimiter character between data columns
#Delimiting character ( SPACE TAB OR COMMA ).
#----          ----      -------------                                -----------
#MNEM         .UNIT      DATA                                        :DESCRIPTION
~Well
STRT          .m         770.040                                     :FIRST INDEX VALUE
STOP          .m         859.480                                     :LAST INDEX VALUE
STEP          .m         0.0400                                      :STEP
NULL          .          -9999.990                                   :NULL VALUE
COMP          .                                                      :COMPANY
WELL          .          100/16-32-038-03W4/00                       :WELL
FLD           .                                                      :FIELD
LOC           .                  :LOCATION                              
SRVC          .                                                      :SERVICE COMPANY
CTRY          .                                                      :COUNTRY
CNTY          .                                                      :COUNTY
STAT          .                                                      :STATE
API           .                                                      :API NUMBER
DATE          .                                                      :LOG DATE
X             .          541852.200                                  :X OR EAST-WEST COORDINATE
Y             .          5796064.200                                 :Y OR NORTH-SOUTH COORDINATE
HZCS          .                                                      :HORIZONTAL CO-ORDINATE SYSTEM
GDAT          .          NAD27                                       :GEODETIC DATUM
UWI           .          100163203803W400                            :Unique Well Identifier
#----          ----      -----                                        -----------
~Parameter 
#MNEM         .UNIT      VALUE                                        Description
APD           .M         00.00                                       :Above Permanent Datum
DREF          .          KB                                          :Depth Reference (KB,DF,CB)
EREF          .m         674.300                                     :Elevation of Depth Deference
RUN           .          1                                           :Run Number
EKB           .m         674.300                                     :Kelling Bush Elevation
#----          ----      ---------                                    -----------------
#MNEM          UNIT      LOG CODES                                    Curve Description
~Curve
DEPTH         .m                                                     :DEPTH
GR            .GAPI                                                  :
NPHI          .Fraction                                              :
PE            .Bar/e                                                 :
RHOB          .g/cm^3                                                :
AC            .us/m                                                  :
#----          ----      ---------                                    -----------------
~Ascii
# ...
815.04 25.6 0.275 1.73 2.175 320.19
815.08 26.62 0.284 1.8 2.159 319.92
815.12 29.39 0.289 1.82 2.151 319.74
815.16 33.03 0.281 1.78 2.151 319.62
815.2 31.37 0.281 1.73 2.161 319.45
815.24 28.83 0.283 1.71 2.173 319.18
815.28 29.48 0.286 1.71 2.172 318.77
815.32 29.57 0.289 1.71 2.17 318.35
815.36 27.63 0.291 1.72 2.181 318.01
815.4 27.13 0.293 1.71 2.195 317.79
815.44 26.21 0.288 1.72 2.197 317.6
815.48 22.63 0.277 1.77 2.18 317.3
815.52 22.69 0.277 1.8 2.162 316.8
815.56 26.66 0.276 1.82 2.161 316.18
815.6 26.96 0.281 1.83 2.177 315.58
815.64 25.62 0.285 1.82 2.191 315.15
815.68 26.14 0.273 1.8 2.185 314.93
815.72 27.15 0.269 1.74 2.171 314.84
815.76 25.24 0.263 1.71 2.153 314.78
815.8 23.89 0.263 1.7 2.147 314.68
815.84 25 0.26 1.72 2.157 314.56
815.88 26.14 0.263 1.76 2.169 314.48
815.92 24.11 0.275 1.79 2.177 314.54
815.96 23.82 0.287 1.79 2.182 314.78
816 26.25 0.292 1.77 2.188 315.3
816.04 25 0.29 1.72 2.193 316.17
816.08 21.13 0.282 1.7 2.19 317.44
816.12 19.81 0.269 1.75 2.183 319.11
816.16 22.05 0.267 1.76 2.189 321.01
816.2 24.48 0.256 1.73 2.195 322.88
816.24 25.79 0.255 1.69 2.2 324.36
816.28 27.25 0.259 1.66 2.212 325.19
816.32 28.72 0.265 1.64 2.22 325.28
816.36 26.49 0.265 1.64 2.22 324.7
816.4 20.6 0.267 1.67 2.217 323.66
816.44 18.84 0.266 1.69 2.203 322.36
816.48 22.97 0.268 1.69 2.193 320.98
816.52 25.8 0.27 1.72 2.192 319.54
816.56 26.24 0.264 1.79 2.192 318.09
816.6 27 0.259 1.87 2.187 316.59
816.64 28.67 0.259 1.84 2.191 315.18
816.68 29.58 0.262 1.72 2.216 313.95
816.72 27.95 0.257 1.63 2.252 313.05
816.76 24.5 0.26 1.63 2.273 312.51
816.8 21.72 0.259 1.66 2.262 312.2
816.84 21.83 0.269 1.68 2.247 311.93
816.88 22.33 0.275 1.73 2.246 311.59
816.92 22.02 0.283 1.77 2.251 311.18
816.96 24.2 0.284 1.79 2.253 310.78
817 28.01 0.281 1.78 2.239 310.52
817.04 28.37 0.275 1.73 2.221 310.45
817.08 26.17 0.273 1.66 2.213 310.59
817.12 24.05 0.267 1.64 2.206 310.96
817.16 22.45 0.265 1.71 2.189 311.6
817.2 21.37 0.262 1.78 2.175 312.51
817.24 21.79 0.272 1.8 2.169 313.62
817.28 22.12 0.284 1.78 2.165 314.8
817.32 21.8 0.296 1.71 2.168 315.89
817.36 22.14 0.294 1.65 2.173 316.84
817.4 22.32 0.286 1.61 2.174 317.7
817.44 19.71 0.281 1.61 2.174 318.56
817.48 18.39 0.278 1.63 2.174 319.56
817.52 18.04 0.279 1.64 2.166 320.68
817.56 18.85 0.277 1.64 2.158 321.78
817.6 21.14 0.28 1.67 2.153 322.64
817.64 21.26 0.278 1.7 2.148 323.14
817.68 18.77 0.276 1.71 2.144 323.27
817.72 17.78 0.28 1.68 2.144 323.14
817.76 19.63 0.278 1.65 2.147 322.9
817.8 20.77 0.277 1.65 2.141 322.65
817.84 18.9 0.271 1.63 2.141 322.45
817.88 17.17 0.261 1.65 2.145 322.28
817.92 17.43 0.249 1.71 2.143 322.12
817.96 18.83 0.248 1.7 2.149 321.93
818 20.12 0.26 1.67 2.157 321.73
818.04 21.36 0.269 1.7 2.155 321.48
818.08 22.46 0.273 1.8 2.144 321.13
818.12 23.61 0.274 1.93 2.139 320.68
818.16 24.65 0.271 1.96 2.147 320.12
818.2 25.67 0.265 1.88 2.158 319.5
818.24 25.13 0.259 1.76 2.163 318.87
818.28 24.43 0.269 1.68 2.165 318.27
818.32 23.51 0.283 1.66 2.157 317.73
818.36 20.88 0.286 1.67 2.14 317.3
818.4 19.65 0.287 1.68 2.136 317.02
818.44 20.79 0.286 1.63 2.155 316.86
818.48 21.23 0.278 1.59 2.171 316.73
818.52 20.93 0.265 1.6 2.169 316.47
818.56 23.04 0.252 1.61 2.164 316
818.6 25.93 0.253 1.63 2.155 315.35
818.64 25.56 0.262 1.65 2.145 314.71
818.68 22.66 0.266 1.67 2.153 314.28
818.72 20.63 0.263 1.66 2.177 314.14
818.76 21.02 0.253 1.62 2.191 314.24
818.8 21.62 0.251 1.62 2.181 314.42
818.84 20.27 0.251 1.66 2.162 314.46
818.88 17.88 0.255 1.7 2.153 314.24
818.92 18.28 0.253 1.7 2.169 313.77
818.96 20.64 0.254 1.64 2.193 313.16
819 20.56 0.259 1.65 2.197 312.56
819.04 18.95 0.263 1.71 2.185 312.09
819.08 18.52 0.267 1.68 2.179 311.76
819.12 20.14 0.261 1.61 2.177 311.46
819.16 23.55 0.256 1.62 2.172 311.09
819.2 25.22 0.252 1.66 2.173 310.56
819.24 25.67 0.26 1.65 2.179 309.9
819.28 25.39 0.276 1.65 2.179 309.21
819.32 23.84 0.274 1.73 2.164 308.59
819.36 22.02 0.269 1.8 2.149 308.09
819.4 19.13 0.263 1.81 2.15 307.69
819.44 16.93 0.259 1.77 2.162 307.35
819.48 16.89 0.255 1.67 2.178 307.05
819.52 18.46 0.248 1.58 2.185 306.79
819.56 20.81 0.247 1.59 2.175 306.6
819.6 21.1 0.251 1.62 2.173 306.52
819.64 20.36 0.255 1.61 2.178 306.53
819.68 20.95 0.263 1.54 2.192 306.58
819.72 23.68 0.267 1.48 2.205 306.66
819.76 24.08 0.266 1.52 2.191 306.73
819.8 21.23 0.263 1.6 2.174 306.81
819.84 19.29 0.27 1.66 2.173 306.94
819.88 20.14 0.269 1.67 2.174 307.17
819.92 21.98 0.254 1.63 2.172 307.61
819.96 22.84 0.252 1.61 2.173 308.34
820 21.73 0.253 1.61 2.174 309.42
820.04 21.56 0.254 1.65 2.171 310.81
820.08 22.66 0.256 1.7 2.171 312.35
820.12 21.76 0.262 1.68 2.178 313.82
820.16 19.26 0.268 1.65 2.176 315.02
820.2 20.22 0.274 1.69 2.154 315.86
820.24 22.1 0.282 1.72 2.144 316.41
820.28 20.29 0.278 1.69 2.15 316.83
820.32 17.76 0.277 1.69 2.144 317.36
820.36 17.55 0.273 1.75 2.13 318.2
820.4 18.57 0.272 1.77 2.12 319.35
820.44 20.93 0.272 1.73 2.122 320.66
820.48 23.16 0.268 1.66 2.14 321.77
820.52 21.2 0.268 1.6 2.158 322.3
820.56 19.55 0.264 1.57 2.166 322.05
820.6 19.26 0.27 1.59 2.165 321.13
820.64 18.67 0.28 1.6 2.168 319.9
820.68 20.45 0.279 1.58 2.177 318.76
820.72 22.98 0.279 1.57 2.187 317.93
820.76 23.63 0.277 1.6 2.195 317.46
820.8 22.52 0.275 1.64 2.195 317.24
820.84 21.18 0.273 1.67 2.188 317.15
820.88 19.11 0.27 1.68 2.175 317.14
820.92 18.07 0.262 1.69 2.153 317.13
820.96 17.96 0.255 1.69 2.142 317.09
821 19.72 0.255 1.66 2.15 316.94
821.04 22.34 0.259 1.63 2.161 316.62
821.08 22.7 0.266 1.65 2.159 316.17
821.12 22.27 0.266 1.69 2.16 315.65
821.16 23.3 0.261 1.71 2.167 315.17
821.2 23.57 0.264 1.73 2.168 314.79
821.24 21.36 0.259 1.77 2.166 314.53
821.28 19.18 0.266 1.82 2.176 314.32
821.32 18.42 0.274 1.81 2.189 314.08
821.36 18.56 0.273 1.73 2.194 313.74
821.4 19.37 0.273 1.65 2.189 313.33
821.44 20.33 0.27 1.65 2.169 312.99
821.48 20.69 0.268 1.71 2.156 312.85
821.52 22.32 0.264 1.72 2.171 313
821.56 23.88 0.265 1.7 2.182 313.38
821.6 22.85 0.273 1.7 2.177 313.9
821.64 20.71 0.28 1.68 2.177 314.46
821.68 19.54 0.279 1.69 2.177 315.04
821.72 19.3 0.277 1.7 2.17 315.6
821.76 19.09 0.275 1.67 2.169 316.09
821.8 18.02 0.276 1.66 2.175 316.42
821.84 16.32 0.275 1.65 2.176 316.59
821.88 15.53 0.276 1.62 2.175 316.67
821.92 17.26 0.278 1.63 2.165 316.81
821.96 19.34 0.277 1.68 2.164 317.14
822 18.79 0.281 1.69 2.17 317.66
822.04 17.92 0.274 1.67 2.167 318.27
822.08 19.16 0.28 1.63 2.166 318.86
822.12 19.17 0.293 1.62 2.171 319.35
822.16 17.38 0.298 1.65 2.176 319.8
822.2 16.32 0.302 1.68 2.17 320.31
822.24 17.61 0.295 1.67 2.158 320.99
822.28 20.63 0.282 1.67 2.151 321.84
822.32 21.51 0.274 1.66 2.163 322.72
822.36 21.43 0.28 1.67 2.176 323.44
822.4 22.01 0.291 1.69 2.172 323.84
822.44 22.53 0.301 1.67 2.162 323.88
822.48 24.09 0.304 1.64 2.166 323.63
822.52 24.27 0.3 1.66 2.174 323.31
822.56 21.61 0.289 1.73 2.173 323.11
822.6 20.31 0.28 1.75 2.169 323.12
822.64 22.02 0.271 1.73 2.163 323.33
822.68 23.18 0.267 1.73 2.156 323.67
822.72 22.41 0.267 1.73 2.15 324.04
822.76 22.38 0.276 1.72 2.148 324.32
822.8 23.22 0.283 1.71 2.15 324.4
822.84 20.03 0.281 1.64 2.162 324.22
822.88 18.34 0.278 1.59 2.173 323.81
822.92 18.87 0.273 1.63 2.172 323.3
822.96 18.36 0.28 1.71 2.15 322.85
823 17.49 0.289 1.75 2.136 322.56
823.04 17.82 0.287 1.71 2.147 322.46
823.08 20.1 0.282 1.65 2.162 322.52
823.12 21.17 0.277 1.62 2.166 322.68
823.16 19.65 0.275 1.63 2.163 322.92
823.2 17.32 0.268 1.6 2.168 323.22
823.24 15.55 0.273 1.56 2.176 323.54
823.28 14.81 0.275 1.61 2.168 323.87
823.32 16.79 0.283 1.72 2.148 324.2
823.36 19.41 0.285 1.78 2.135 324.5
823.4 18.83 0.282 1.76 2.13 324.77
823.44 18.51 0.289 1.73 2.126 324.91
823.48 19.25 0.284 1.73 2.123 324.82
823.52 18.99 0.278 1.71 2.126 324.43
823.56 20.05 0.272 1.67 2.134 323.73
823.6 21.14 0.275 1.65 2.14 322.86
823.64 20.25 0.279 1.68 2.139 322.01
823.68 19.97 0.284 1.7 2.142 321.36
823.72 22.01 0.28 1.68 2.146 320.96
823.76 22.79 0.289 1.64 2.146 320.75
823.8 20.54 0.278 1.63 2.149 320.66
823.84 19.17 0.271 1.66 2.16 320.61
823.88 18.32 0.27 1.69 2.165 320.55
