# LAS format log file from PETREL
# Project units are specified as depth units
#==================================================================
~Version information
VERS.   2.0:
WRAP.   NO:
#==================================================================
~Well
STRT .m      743.10000000 :
STOP .m      842.00000000 :
STEP .m     0.10000000 :
NULL .        -999.250000 :
COMP.           : COMPANY
WELL.  100120603903W400   : WELL
FLD.            : FIELD
LOC.            : LOCATION
SRVC.           : SERVICE COMPANY
DATE.  2023-06-01 13:43:19   : Log Export Date {yyyy-MM-dd HH:mm:ss}
PROV.           : PROVINCE
UWI.      : UNIQUE WELL ID
API.            : API NUMBER
#==================================================================
~Curve
DEPT .m                   : DEPTH
AC .us/m                  : AC
GR .gAPI                  : GR
PEF .b/e                  : PEF
DEN .g/cm3                : DEN
NPHI .m3/m3               : NPHI
~Parameter
#==================================================================
~Ascii
# ...
 753.30000000 188.74000549 62.009998322 3.3299999237 2.6520700455 0.1991000026
 753.40000000 188.47999573 63.049999237 3.3900001049 2.6548399925 0.1959999949
 753.50000000 188.13000488 63.240001678 3.4500000477 2.6541101933 0.1970999986
 753.60000000 187.72000122 61.900001526 3.4400000572 2.6512598991 0.2047999948
 753.70000000 191.42999268 60.090000153 3.4300000668 2.6400899887 0.2194000036
 753.80000000 201.53999329 59.040000916 3.4100000858 2.6112198830 0.2407000065
 753.90000000 215.11999512 59.369998932 3.3900001049 2.5611898899 0.2673000097
 754.00000000 226.04000854 60.409999847 3.2999999523 2.5028700829 0.2966000140
 754.10000000 234.27000427 61.639999390 3.1500000954 2.4568898678 0.3183000088
 754.20000000 242.88000488 62.880001068 3.0000000000 2.4342100620 0.3240000010
 754.30000000 249.99000549 64.139999390 2.9000000954 2.4351999760 0.3199999928
 754.40000000 253.52000427 64.629997253 2.9000000954 2.4446799755 0.3183999956
 754.50000000 255.63000488 64.050003052 2.9800000191 2.4471299648 0.3242999911
 754.60000000 259.75000000 62.959999084 3.0399999619 2.4325699806 0.3343999982
 754.70000000 269.10998535 62.810001373 3.0399999619 2.4039800167 0.3443000019
 754.80000000 282.01000977 63.990001678 2.9700000286 2.3732500076 0.3540000021
 754.90000000 295.17001343 65.370002747 2.8599998951 2.3447999954 0.3641999960
 755.00000000 305.76000977 65.900001526 2.7599999905 2.3236100674 0.3716999888
 755.10000000 309.30999756 65.660003662 2.6700000763 2.3104000092 0.3736999929
 755.20000000 307.84997559 65.550003052 2.5699999332 2.3058400154 0.3697000146
 755.30000000 309.43997192 66.540000916 2.4900000095 2.3087399006 0.3605999947
 755.40000000 314.70999146 69.269996643 2.4200000763 2.3189299107 0.3501000106
 755.50000000 316.74002075 73.860000610 2.3599998951 2.3347299099 0.3443000019
 755.60000000 313.33999634 79.430000305 2.3299999237 2.3502299786 0.3461000025
 755.70000000 310.05001831 84.370002747 2.2999999523 2.3548700809 0.3547999859
 755.80000000 312.29998779 87.470001221 2.2500000000 2.3321499825 0.3698000014
 755.90000000 321.86999512 87.169998169 2.0499999523 2.2596201897 0.3928999901
 756.00000000 338.74002075 81.580001831 1.8200000525 2.1311700344 0.4269999862
 756.10000000 360.22000122 69.870002747 1.5099999905 1.9465799332 0.4731000066
 756.20000000 383.87997437 55.020000458 1.2500000000 1.7588499784 0.5274000168
 756.30000000 406.50000000 42.119998932 1.0700000525 1.6068000793 0.5766000152
 756.40000000 422.98001099 34.569999695 0.9399999976 1.4997600317 0.5992000103
 756.50000000 429.55999756 32.490001678 0.8799999952 1.4499399662 0.5885000229
 756.60000000 424.65997314 35.099998474 0.8500000238 1.4496899843 0.5566999912
 756.70000000 411.89999390 41.619998932 0.8500000238 1.5054500103 0.5139999986
 756.80000000 396.77999878 51.369998932 0.8700000048 1.6197299957 0.4645999968
 756.90000000 381.19998169 61.549999237 0.9300000072 1.7716999054 0.4183999896
 757.00000000 365.47998047 68.989997864 1.0900000334 1.9442199469 0.3833000064
 757.10000000 349.58999634 72.230003357 1.3600000143 2.0900099277 0.3605999947
 757.20000000 336.36001587 72.599998474 1.6799999475 2.1847701073 0.3492000103
 757.30000000 327.05999756 71.580001831 1.9700000286 2.2398700714 0.3472999930
 757.40000000 319.14001465 70.069999695 2.1099998951 2.2608101368 0.3495000005
 757.50000000 312.29998779 68.809997559 2.1600000858 2.2697699070 0.3490000069
 757.60000000 309.66000366 68.919998169 2.1600000858 2.2722799778 0.3436000049
 757.70000000 310.35000610 70.029998779 2.1500000954 2.2736899853 0.3359999955
 757.80000000 311.14001465 71.099998474 2.1700000763 2.2776799202 0.3309000134
 757.90000000 310.36999512 71.650001526 2.1900000572 2.2832100391 0.3312999904
 758.00000000 307.00000000 72.610000610 2.2000000477 2.2917499542 0.3353999853
 758.10000000 302.11001587 74.279998779 2.2200000286 2.3036599159 0.3382999897
 758.20000000 297.45999146 75.910003662 2.2400000095 2.3180201054 0.3386999965
 758.30000000 294.73001099 77.339996338 2.2699999809 2.3317999840 0.3406000137
 758.40000000 293.80999756 78.949996948 2.2899999619 2.3427700996 0.3447000086
 758.50000000 294.19000244 80.269996643 2.2999999523 2.3501100540 0.3463999927
 758.60000000 295.51998901 80.319999695 2.2899999619 2.3540301323 0.3445000052
 758.70000000 299.02999878 78.980003357 2.2899999619 2.3565900326 0.3440000117
 758.80000000 302.19000244 76.949996948 2.3099999428 2.3565599918 0.3463999927
 758.90000000 303.23999023 75.069999695 2.3499999046 2.3546102047 0.3483999968
 759.00000000 305.25000000 73.910003662 2.3900001049 2.3520700932 0.3470000029
 759.10000000 308.79000854 74.050003052 2.4000000954 2.3488700390 0.3420000076
 759.20000000 309.96002197 75.449996948 2.3699998856 2.3469400406 0.3366000056
 759.30000000 309.05999756 77.400001526 2.3199999332 2.3472299576 0.3357999921
 759.40000000 308.22000122 78.379997253 2.2799999714 2.3480701447 0.3402000070
 759.50000000 307.77001953 77.860000610 2.2500000000 2.3518400192 0.3465999961
 759.60000000 305.91998291 77.139999390 2.2400000095 2.3556299210 0.3510999978
 759.70000000 303.48999023 78.620002747 2.2599999905 2.3611299992 0.3504000008
 759.80000000 301.07998657 82.129997253 2.2699999809 2.3683199883 0.3429999948
 759.90000000 295.79000854 85.059997559 2.2999999523 2.3738000393 0.3346999884
 760.00000000 290.33001709 86.040000916 2.3199999332 2.3763601780 0.3336000144
 760.10000000 291.44000244 86.260002136 2.3399999142 2.3741102219 0.3400000036
 760.20000000 299.23001099 86.800003052 2.3499999046 2.3718700409 0.3465000093
 760.30000000 310.38998413 86.790000916 2.3699998856 2.3739500046 0.3461999893
 760.40000000 321.58999634 84.900001526 2.3800001144 2.3841202259 0.3393999934
 760.50000000 325.48999023 81.500000000 2.3699998856 2.4061598778 0.3310000002
 760.60000000 318.38998413 77.260002136 2.3900001049 2.4442300797 0.3231000006
 760.70000000 304.63000488 73.269996643 2.4300000668 2.5027799606 0.3154999912
 760.80000000 291.15997314 71.419998169 2.5799999237 2.5674500465 0.3127000034
 760.90000000 280.94998169 72.529998779 2.8699998856 2.5930199623 0.3210000098
 761.00000000 277.07000732 74.370002747 3.0499999523 2.5269198418 0.3431999981
 761.10000000 288.45001221 74.040000916 2.8199999332 2.3805902004 0.3772000074
 761.20000000 315.92999268 70.879997253 2.4800000191 2.2163798809 0.4171000123
 761.30000000 345.20001221 66.900001526 2.0799999237 2.0610001087 0.4544000030
 761.40000000 367.22000122 64.699996948 1.8099999428 1.9366099834 0.4850000143
 761.50000000 380.36999512 66.319999695 1.5900000334 1.8527799845 0.5108000040
 761.60000000 388.81997681 71.260002136 1.4500000477 1.8213700056 0.5250999928
 761.70000000 393.58001709 77.349998474 1.3999999762 1.8413800001 0.5192999840
 761.80000000 392.45999146 82.300003052 1.4099999666 1.8914300203 0.4997000098
 761.90000000 389.23001099 84.720001221 1.4900000095 1.9510999918 0.4842000008
 762.00000000 386.55001831 83.500000000 1.6100000143 1.9869399071 0.4844000041
 762.10000000 385.14001465 78.730003357 1.6799999475 1.9877200127 0.4964999855
 762.20000000 387.14999390 71.730003357 1.7200000286 1.9406899214 0.5074999928
 762.30000000 390.91000366 64.980003357 1.6399999857 1.8606400490 0.5091000199
 762.40000000 390.48001099 61.509998322 1.5099999905 1.7914499044 0.4993999898
 762.50000000 384.88000488 63.750000000 1.3799999952 1.7684799433 0.4763999879
 762.60000000 375.45001221 71.440002441 1.2899999619 1.8133900166 0.4381999969
 762.70000000 360.45001221 80.860000610 1.2899999619 1.9142600298 0.3975000083
 762.80000000 341.45001221 88.220001221 1.3999999762 2.0502901077 0.3722000122
 762.90000000 325.95999146 91.519996643 1.6100000143 2.1798601151 0.3610999882
 763.00000000 315.91000366 91.169998169 1.8700000048 2.2706899643 0.3587999940
 763.10000000 309.46002197 89.410003662 2.0499999523 2.3156700134 0.3632999957
 763.20000000 308.07998657 88.809997559 2.1199998856 2.3103101254 0.3768000007
 763.30000000 313.41000366 89.230003357 2.0999999046 2.2714500427 0.4016000032
 763.40000000 324.41998291 88.410003662 1.9800000191 2.1889600754 0.4365000129
