# LAS format log file from PETREL
# Project units are specified as depth units
#==================================================================
~Version information
VERS.   2.0:
WRAP.   NO:
#==================================================================
~Well
STRT .m      743.10000000 :
STOP .m      842.00000000 :
STEP .m     0.10000000 :
NULL .        -999.250000 :
COMP.           : COMPANY
WELL.  100120603903W400   : WELL
FLD.            : FIELD
LOC.            : LOCATION
SRVC.           : SERVICE COMPANY
DATE.  2023-06-01 13:43:19   : Log Export Date {yyyy-MM-dd HH:mm:ss}
PROV.           : PROVINCE
UWI.      : UNIQUE WELL ID
API.            : API NUMBER
#==================================================================
~Curve
DEPT .m                   : DEPTH
AC .us/m                  : AC
GR .gAPI                  : GR
PEF .b/e                  : PEF
DEN .g/cm3                : DEN
NPHI .m3/m3               : NPHI
~Parameter
#==================================================================
~Ascii
# ...
 804.30000000 319.19998169 33.209999084 1.9800000191 2.1833000183 0.3503000140
 804.40000000 320.26000977 30.579999924 1.9199999571 2.1615099907 0.3578000069
 804.50000000 320.76998901 28.049999237 1.8799999952 2.1416499615 0.3594999909
 804.60000000 324.10000610 25.670000076 1.8500000238 2.1250901222 0.3585000038
 804.70000000 328.16000366 24.459999084 1.8300000429 2.1129398346 0.3589000106
 804.80000000 328.86999512 25.520000458 1.8200000525 2.1048400402 0.3583999872
 804.90000000 327.22998047 28.420000076 1.8099999428 2.1022500992 0.3535000086
 805.00000000 326.94000244 31.610000610 1.8099999428 2.1047799587 0.3472999930
 805.10000000 326.37997437 34.000000000 1.8200000525 2.1161599159 0.3438000083
 805.20000000 324.23001099 36.090000153 1.8300000429 2.1373200417 0.3418000042
 805.30000000 321.80999756 37.900001526 1.8600000143 2.1672399044 0.3402999938
 805.40000000 319.54000854 38.450000763 1.9099999666 2.1970601082 0.3415000141
 805.50000000 318.35000610 37.220001221 1.9700000286 2.2129399776 0.3476000130
 805.60000000 318.58999634 35.790000916 2.0000000000 2.2127799988 0.3555000126
 805.70000000 319.95999146 35.939998627 1.9900000095 2.2043099403 0.3564999998
 805.80000000 322.42999268 37.759998322 1.9500000477 2.1988301277 0.3477999866
 805.90000000 325.98001099 39.680000305 1.9199999571 2.2001101971 0.3386000097
 806.00000000 330.83999634 40.389999390 1.8999999762 2.2001299858 0.3389999866
 806.10000000 336.10000610 39.580001831 1.8999999762 2.1940400600 0.3490000069
 806.20000000 337.72000122 37.630001068 1.8899999857 2.1810500622 0.3589999974
 806.30000000 335.91998291 35.049999237 1.8700000048 2.1669700146 0.3603000045
 806.40000000 334.25000000 32.939998627 1.8500000238 2.1606500149 0.3521000147
 806.50000000 335.89001465 32.200000763 1.8500000238 2.1619899273 0.3411000073
 806.60000000 338.42999268 32.610000610 1.8400000334 2.1661498547 0.3346999884
 806.70000000 337.54000854 32.930000305 1.8500000238 2.1682901382 0.3348999918
 806.80000000 332.10000610 31.969999313 1.8400000334 2.1635000706 0.3391000032
 806.90000000 324.06997681 30.260000229 1.8300000429 2.1556899548 0.3440999985
 807.00000000 317.32000732 29.360000610 1.8200000525 2.1493301392 0.3470000029
 807.10000000 315.11999512 29.510000229 1.7999999523 2.1471998692 0.3481000066
 807.20000000 315.11999512 29.239999771 1.7899999619 2.1481900215 0.3490000069
 807.30000000 314.70001221 27.709999084 1.7899999619 2.1483199596 0.3492999971
 807.40000000 315.39001465 25.920000076 1.7999999523 2.1453101635 0.3490999937
 807.50000000 317.01998901 24.940000534 1.7999999523 2.1407799721 0.3492000103
 807.60000000 316.39001465 24.530000687 1.7999999523 2.1364099979 0.3486000001
 807.70000000 316.35000610 24.129999161 1.7999999523 2.1344099045 0.3456999958
 807.80000000 318.91000366 23.569999695 1.7899999619 2.1336998940 0.3425999880
 807.90000000 319.64001465 23.120000839 1.7699999809 2.1309800148 0.3416000009
 808.00000000 317.33999634 23.430000305 1.7699999809 2.1264700890 0.3416999876
 808.10000000 316.17999268 25.290000916 1.7699999809 2.1214199066 0.3420999944
 808.20000000 316.77999878 28.110000610 1.7899999619 2.1186900139 0.3454000056
 808.30000000 315.94000244 30.180000305 1.7999999523 2.1211898327 0.3513000011
 808.40000000 313.85000610 30.319999695 1.8099999428 2.1274399757 0.3524000049
 808.50000000 313.73001099 29.520000458 1.8099999428 2.1374299526 0.3429000080
 808.60000000 317.38000488 29.379999161 1.8099999428 2.1489698887 0.3300999999
 808.70000000 321.79000854 30.819999695 1.8200000525 2.1623001099 0.3246999979
 808.80000000 322.77001953 34.200000763 1.8200000525 2.1816799641 0.3276999891
 808.90000000 320.25000000 38.669998169 1.8300000429 2.2041800022 0.3334999979
 809.00000000 318.14999390 42.069999695 1.8500000238 2.2236700058 0.3386000097
 809.10000000 316.04000854 43.080001831 1.8700000048 2.2338700294 0.3411999941
 809.20000000 311.32000732 42.680000305 1.8899999857 2.2358500957 0.3402999938
 809.30000000 307.22000122 42.040000916 1.9099999666 2.2335000038 0.3393999934
 809.40000000 305.25000000 40.830001831 1.9500000477 2.2277400494 0.3449999988
 809.50000000 303.65002441 38.189998627 1.9900000095 2.2130501270 0.3562999964
 809.60000000 304.01000977 34.639999390 1.9800000191 2.1891999245 0.3634000123
 809.70000000 307.27999878 31.110000610 1.9299999475 2.1641700268 0.3601000011
 809.80000000 309.51000977 28.389999390 1.8700000048 2.1441202164 0.3549999893
 809.90000000 307.35000610 26.540000916 1.8300000429 2.1338701248 0.3560000062
 810.00000000 305.63998413 25.680000305 1.7999999523 2.1307899952 0.3596000075
 810.10000000 307.91000366 25.780000687 1.7699999809 2.1312999725 0.3594000041
 810.20000000 312.12002563 26.600000381 1.7599999905 2.1345200539 0.3578999937
 810.30000000 314.63998413 26.969999313 1.7599999905 2.1383099556 0.3600000143
 810.40000000 314.50997925 26.149999619 1.7599999905 2.1400599480 0.3653999865
 810.50000000 314.08001709 24.500000000 1.7599999905 2.1397399902 0.3691000044
 810.60000000 314.79000854 23.069999695 1.7599999905 2.1363000870 0.3675999939
 810.70000000 316.25000000 22.340000153 1.7500000000 2.1321201324 0.3619999886
 810.80000000 318.08001709 22.239999771 1.7300000191 2.1285700798 0.3556999862
 810.90000000 321.33001709 22.649999619 1.7300000191 2.1269199848 0.3499000072
 811.00000000 324.67999268 23.930000305 1.7300000191 2.1306998730 0.3434999883
 811.10000000 325.88000488 26.540000916 1.7400000095 2.1403000355 0.3350999951
 811.20000000 325.07000732 30.850000381 1.7599999905 2.1588301659 0.3246000111
 811.30000000 321.64999390 36.189998627 1.7899999619 2.1853201389 0.3142000139
 811.40000000 316.51998901 40.990001678 1.8400000334 2.2167298794 0.3068999946
 811.50000000 311.17999268 43.340000153 1.8899999857 2.2489500046 0.3043000102
 811.60000000 305.95001221 43.400001526 1.9400000572 2.2744500637 0.3043999970
 811.70000000 299.58999634 42.950000763 1.9800000191 2.2920601368 0.3043000102
 811.80000000 294.50000000 42.520000458 2.0099999905 2.3000800610 0.3034999967
 811.90000000 295.23001099 40.439998627 2.0499999523 2.2953898907 0.3057999909
 812.00000000 300.07000732 35.770000458 2.0899999142 2.2750799656 0.3149999976
 812.10000000 304.79998779 29.799999237 2.0799999237 2.2391498089 0.3319999874
 812.20000000 310.20001221 24.899999619 2.0399999619 2.1972200871 0.3503000140
 812.30000000 317.01998901 21.709999084 1.9700000286 2.1593999863 0.3610000014
 812.40000000 323.39999390 19.819999695 1.8999999762 2.1307599545 0.3643999994
 812.50000000 327.52001953 18.850000381 1.8400000334 2.1123001575 0.3653999865
 812.60000000 328.00000000 18.899999619 1.7899999619 2.1028501987 0.3639000058
 812.70000000 326.08999634 19.590000153 1.7500000000 2.1026499271 0.3587999940
 812.80000000 322.60998535 20.639999390 1.7300000191 2.1091799736 0.3522999883
 812.90000000 319.02999878 21.770000458 1.7200000286 2.1176798344 0.3456999958
 813.00000000 316.98001099 22.790000916 1.7100000381 2.1245300770 0.3395999968
 813.10000000 317.38998413 23.280000687 1.7100000381 2.1271898746 0.3361999989
 813.20000000 319.05999756 22.959999084 1.7100000381 2.1272599697 0.3370000124
 813.30000000 321.28997803 22.059999466 1.7100000381 2.1271898746 0.3397000134
 813.40000000 323.79998779 21.360000610 1.7200000286 2.1287300587 0.3395999968
 813.50000000 323.70999146 21.459999084 1.7200000286 2.1341497898 0.3370000124
 813.60000000 317.98999023 22.479999542 1.7200000286 2.1445701122 0.3359999955
 813.70000000 310.58001709 23.739999771 1.7100000381 2.1604099274 0.3352999985
 813.80000000 307.40002441 24.760000229 1.7100000381 2.1764600277 0.3319999874
 813.90000000 306.48999023 25.610000610 1.7100000381 2.1883702278 0.3273999989
 814.00000000 305.54998779 26.020000458 1.7200000286 2.1953101158 0.3240000010
 814.10000000 304.81997681 25.420000076 1.7300000191 2.1985199451 0.3233999908
 814.20000000 305.64999390 23.879999161 1.7400000095 2.1951498985 0.3258000016
 814.30000000 308.51000977 22.549999237 1.7500000000 2.1860101223 0.3294000030
 814.40000000 311.20001221 22.260000229 1.7500000000 2.1760499477 0.3309000134
