# Exported from Geomodeling Studio 8.5
# Project: RedLion
# Date: 2023-06-07T16:32:40
# User: xuepi
# Geodetic Coordinate System: NAD27 / UTM zone 12N
# 
~Version
VERS          .          3.0                                         :CWLS LOG ASCII STANDARD - VERSION 3.00
WRAP          .          NO                                          :One line per depth step
DLM           .          SPACE                                       :Delimiter character between data columns
#Delimiting character ( SPACE TAB OR COMMA ).
#----          ----      -------------                                -----------
#MNEM         .UNIT      DATA                                        :DESCRIPTION
~Well
STRT          .m         770.040                                     :FIRST INDEX VALUE
STOP          .m         859.480                                     :LAST INDEX VALUE
STEP          .m         0.0400                                      :STEP
NULL          .          -9999.990                                   :NULL VALUE
COMP          .                                                      :COMPANY
WELL          .          100/16-32-038-03W4/00                       :WELL
FLD           .                                                      :FIELD
LOC           .                  :LOCATION                              
SRVC          .                                                      :SERVICE COMPANY
CTRY          .                                                      :COUNTRY
CNTY          .                                                      :COUNTY
STAT          .                                                      :STATE
API           .                                                      :API NUMBER
DATE          .                                                      :LOG DATE
X             .          541852.200                                  :X OR EAST-WEST COORDINATE
Y             .          5796064.200                                 :Y OR NORTH-SOUTH COORDINATE
HZCS          .                                                      :HORIZONTAL CO-ORDINATE SYSTEM
GDAT          .          NAD27                                       :GEODETIC DATUM
UWI           .          100163203803W400                            :Unique Well Identifier
#----          ----      -----                                        -----------
~Parameter 
#MNEM         .UNIT      VALUE                                        Description
APD           .M         00.00                                       :Above Permanent Datum
DREF          .          KB                                          :Depth Reference (KB,DF,CB)
EREF          .m         674.300                                     :Elevation of Depth Deference
RUN           .          1                                           :Run Number
EKB           .m         674.300                                     :Kelling Bush Elevation
#----          ----      ---------                                    -----------------
#MNEM          UNIT      LOG CODES                                    Curve Description
~Curve
DEPTH         .m                                                     :DEPTH
GR            .GAPI                                                  :
NPHI          .Fraction                                              :
PE            .Bar/e                                                 :
RHOB          .g/cm^3                                                :
AC            .us/m                                                  :
#----          ----      ---------                                    -----------------
~Ascii
# ...
788.44 47.72 0.279 1.74 2.194 367.09
788.48 48.49 0.269 1.81 2.204 366.79
788.52 47.82 0.27 1.95 2.213 366.1
788.56 47.49 0.279 2.03 2.207 364.82
788.6 46.94 0.294 2 2.194 363.04
788.64 45.69 0.311 1.92 2.186 361.09
788.68 47.65 0.303 1.88 2.182 359.31
788.72 51.86 0.286 1.95 2.173 357.94
788.76 50.33 0.276 2.1 2.156 356.94
788.8 44.17 0.269 2.17 2.139 356.19
788.84 40.78 0.275 2.05 2.137 355.5
788.88 44.25 0.28 1.94 2.146 354.82
788.92 47.41 0.282 1.92 2.155 354.19
788.96 45.41 0.282 1.92 2.155 353.76
789 42.58 0.292 1.95 2.152 353.62
789.04 42.87 0.295 2.02 2.153 353.86
789.08 44.7 0.289 2.03 2.165 354.52
789.12 45.97 0.276 1.95 2.199 355.47
789.16 48.28 0.278 1.9 2.226 356.61
789.2 50.72 0.288 1.89 2.225 357.76
789.24 51.66 0.289 1.83 2.221 358.82
789.28 50.69 0.3 1.8 2.221 359.81
789.32 48.62 0.309 1.86 2.206 360.73
789.36 45.18 0.306 1.93 2.184 361.59
789.4 43.1 0.308 1.93 2.17 362.25
789.44 43.53 0.313 1.89 2.158 362.67
789.48 43.6 0.305 1.85 2.144 362.88
789.52 41.66 0.294 1.87 2.137 363.06
789.56 39.67 0.289 1.89 2.14 363.46
789.6 37.81 0.298 1.88 2.145 364.25
789.64 37.48 0.304 1.87 2.146 365.4
789.68 36.76 0.296 1.9 2.151 366.79
789.72 37.78 0.295 1.94 2.153 368.1
789.76 40.84 0.301 1.93 2.152 368.97
789.8 40.54 0.303 1.93 2.151 369.14
789.84 35.84 0.294 1.96 2.158 368.46
789.88 33.7 0.289 1.98 2.171 367.06
789.92 37.55 0.289 1.98 2.177 365.24
789.96 43.22 0.277 1.96 2.171 363.2
790 47.82 0.263 1.86 2.182 361.06
790.04 52.69 0.262 1.79 2.202 358.68
790.08 54.7 0.273 1.84 2.211 355.89
790.12 53.18 0.278 1.9 2.212 352.57
790.16 52.57 0.279 1.92 2.209 348.76
790.2 58.15 0.272 1.9 2.211 344.74
790.24 67.87 0.27 1.89 2.226 340.93
790.28 72.12 0.27 1.91 2.246 337.77
790.32 70.86 0.269 1.88 2.272 335.63
790.36 71.62 0.273 1.87 2.297 334.7
790.4 74.16 0.282 1.92 2.321 335.02
790.44 71.16 0.322 1.96 2.362 336.39
790.48 64.8 0.379 1.99 2.417 338.46
790.52 60.69 0.422 2.06 2.451 340.83
790.56 62.61 0.412 2.1 2.434 343.16
790.6 65.72 0.389 2.2 2.336 345.25
790.64 59.88 0.373 2.4 2.197 347.09
790.68 51.8 0.374 2.46 2.076 348.85
790.72 52.21 0.375 2.46 1.985 350.81
790.76 56.95 0.398 2.59 1.902 353.28
790.8 58.25 0.447 2.71 1.84 356.42
790.84 61.45 0.516 2.58 1.817 360.28
790.88 71.71 0.548 2.17 1.83 364.82
790.92 79.16 0.537 1.72 1.88 369.88
790.96 79.79 0.53 1.45 1.952 375.24
791 79.31 0.477 1.4 2.046 380.55
791.04 76.48 0.456 1.49 2.169 385.44
791.08 71.5 0.464 1.73 2.252 389.65
791.12 64.9 0.467 1.99 2.225 393.13
791.16 57.26 0.467 2.05 2.125 396.11
791.2 50.69 0.472 1.99 2.021 398.91
791.24 42.19 0.491 2 1.932 401.86
791.28 34.44 0.522 2.09 1.837 405.08
791.32 33.12 0.516 2.22 1.716 408.64
791.36 34.57 0.532 2.37 1.584 412.42
791.4 32.31 0.555 2.49 1.464 416.19
791.44 30.42 0.56 2.56 1.386 419.65
791.48 32.11 0.547 2.56 1.347 422.38
791.52 33.89 0.503 2.34 1.319 424.01
791.56 33.87 0.482 2.04 1.3 424.28
791.6 34.22 0.473 1.88 1.296 423.19
791.64 36.68 0.482 1.87 1.308 421.01
791.68 39.28 0.498 1.85 1.34 418.1
791.72 40.22 0.501 1.77 1.396 414.73
791.76 41.59 0.48 1.69 1.477 411.04
791.8 42.24 0.456 1.63 1.589 407.14
791.84 43 0.44 1.62 1.716 403.13
791.88 47.66 0.443 1.68 1.837 399.18
791.92 57.03 0.439 1.88 1.915 395.29
791.96 64.17 0.424 2.19 1.953 391.24
792 66.56 0.397 2.53 2.021 386.61
792.04 63.49 0.376 2.97 2.105 381.06
792.08 65.22 0.369 3.26 2.145 374.57
792.12 71.58 0.35 3.3 2.149 367.45
792.16 73.33 0.326 3.2 2.158 360.15
792.2 71.8 0.318 2.93 2.229 352.98
792.24 68.91 0.316 2.78 2.369 346.04
792.28 62.2 0.304 2.83 2.485 339.23
792.32 55.94 0.287 2.9 2.516 332.47
792.36 55.87 0.266 2.77 2.512 325.74
792.4 56.96 0.238 2.57 2.517 319.14
792.44 55.67 0.218 2.46 2.526 312.76
792.48 54.68 0.197 2.4 2.535 306.66
792.52 55.43 0.184 2.3 2.535 300.84
792.56 55.57 0.174 2.16 2.523 295.35
792.6 53.67 0.169 2.09 2.514 290.3
792.64 52.8 0.174 2.1 2.504 285.97
792.68 56.58 0.181 2.03 2.516 282.71
792.72 60.77 0.192 2 2.548 280.76
792.76 63.61 0.195 2.08 2.563 280.23
792.8 65.1 0.205 2.14 2.568 280.93
792.84 64.94 0.214 2.18 2.568 282.58
792.88 68.43 0.222 2.18 2.565 284.82
792.92 72.5 0.223 2.21 2.546 287.41
792.96 68.95 0.23 2.29 2.5 290.2
793 62.78 0.232 2.39 2.443 293.14
793.04 57.08 0.242 2.42 2.394 296.19
793.08 51.37 0.255 2.33 2.352 299.23
793.12 43.16 0.267 2.18 2.331 302.13
793.16 36.46 0.278 2.08 2.324 304.84
793.2 33.97 0.277 2.05 2.304 307.41
793.24 33.56 0.29 2.01 2.275 309.91
793.28 32.39 0.283 1.97 2.247 312.43
793.32 32.98 0.285 1.93 2.219 314.99
793.36 36.4 0.282 1.89 2.193 317.56
793.4 41.23 0.275 1.85 2.168 320.09
793.44 44.68 0.264 1.78 2.158 322.62
793.48 45.13 0.26 1.71 2.17 325.22
793.52 45.14 0.256 1.69 2.176 327.94
793.56 44.79 0.259 1.66 2.172 330.8
793.6 42.78 0.265 1.62 2.168 333.77
793.64 40.43 0.266 1.64 2.163 336.7
793.68 41.39 0.269 1.67 2.163 339.42
793.72 46.11 0.266 1.66 2.169 341.67
793.76 49.93 0.263 1.71 2.16 343.33
793.8 49.63 0.27 1.79 2.15 344.35
793.84 43.32 0.282 1.84 2.153 344.9
793.88 40.02 0.282 1.85 2.161 345.21
793.92 46.77 0.273 1.82 2.176 345.59
793.96 56.11 0.264 1.77 2.19 346.24
794 56.13 0.263 1.74 2.189 347.2
794.04 48.74 0.263 1.74 2.193 348.41
794.08 44.38 0.276 1.73 2.213 349.65
794.12 43.67 0.29 1.73 2.229 350.67
794.16 43.13 0.296 1.79 2.232 351.16
794.2 42.46 0.291 1.83 2.229 350.88
794.24 42.3 0.289 1.78 2.235 349.69
794.28 42.67 0.288 1.76 2.238 347.66
794.32 44.97 0.282 1.85 2.227 345.01
794.36 45.91 0.28 1.95 2.216 342.09
794.4 47.52 0.279 1.93 2.216 339.26
794.44 53.19 0.272 1.92 2.226 336.8
794.48 60.82 0.265 1.91 2.253 334.9
794.52 65.81 0.263 1.9 2.295 333.63
794.56 68.24 0.265 1.94 2.34 333
794.6 72.24 0.255 1.95 2.386 332.78
794.64 78.12 0.242 1.92 2.42 332.65
794.68 79.83 0.235 1.97 2.431 332.35
794.72 75.32 0.251 2.1 2.425 331.75
794.76 72.06 0.267 2.28 2.403 330.96
794.8 70.68 0.282 2.48 2.357 330.16
794.84 67.45 0.294 2.61 2.305 329.54
794.88 62.84 0.301 2.53 2.28 329.26
794.92 57.79 0.304 2.4 2.262 329.37
794.96 53.04 0.301 2.32 2.222 329.78
795 51.35 0.307 2.21 2.181 330.36
795.04 53.31 0.303 2.07 2.159 330.9
795.08 52.73 0.299 2.02 2.144 331.22
795.12 47.7 0.29 2.01 2.131 331.24
795.16 43.97 0.283 2 2.139 330.97
795.2 45.78 0.261 2.01 2.165 330.63
795.24 52.59 0.25 2.04 2.198 330.39
795.28 57.33 0.268 2.1 2.229 330.42
795.32 58.97 0.285 2.17 2.251 330.77
795.36 63.26 0.293 2.19 2.281 331.36
795.4 71.04 0.281 2.16 2.337 332.03
795.44 81.64 0.272 2.24 2.387 332.59
795.48 92.09 0.262 2.33 2.402 332.93
795.52 97.17 0.267 2.33 2.404 332.97
795.56 100.36 0.277 2.31 2.414 332.78
795.6 105.28 0.284 2.42 2.421 332.4
795.64 113.17 0.285 2.59 2.421 331.84
795.68 120.8 0.29 2.64 2.438 331.05
795.72 124.92 0.304 2.56 2.479 329.97
795.76 125.06 0.316 2.6 2.503 328.62
795.8 120.41 0.322 2.77 2.503 327.05
795.84 113.3 0.304 2.92 2.498 325.31
795.88 110.94 0.274 2.87 2.508 323.33
795.92 115.04 0.258 2.72 2.514 320.96
795.96 114.37 0.256 2.58 2.523 318.06
796 110.42 0.256 2.53 2.538 314.7
796.04 117.19 0.272 2.61 2.557 311.21
796.08 127.53 0.28 2.64 2.571 308.07
796.12 126.75 0.282 2.63 2.563 305.73
796.16 118.75 0.287 2.68 2.547 304.42
796.2 113.27 0.287 2.76 2.546 304.08
796.24 114.72 0.286 2.69 2.567 304.43
796.28 114.59 0.277 2.53 2.593 305.11
796.32 111.44 0.27 2.46 2.595 305.77
796.36 109.86 0.268 2.42 2.574 306.18
796.4 109.02 0.269 2.44 2.55 306.36
796.44 110.83 0.264 2.6 2.532 306.46
796.48 113.68 0.267 2.64 2.541 306.7
796.52 112.14 0.286 2.53 2.588 307.3
796.56 110.98 0.295 2.53 2.628 308.33
796.6 110.52 0.295 2.64 2.619 309.7
796.64 104.57 0.287 2.76 2.585 311.19
796.68 92.63 0.278 2.76 2.55 312.5
796.72 79.89 0.267 2.68 2.512 313.36
796.76 71.63 0.265 2.61 2.485 313.65
796.8 65.35 0.267 2.6 2.47 313.55
796.84 58.53 0.269 2.61 2.445 313.49
796.88 55.42 0.267 2.54 2.408 314.02
796.92 57.04 0.267 2.46 2.367 315.47
796.96 57.22 0.276 2.43 2.334 317.8
797 55.79 0.281 2.32 2.316 320.61
797.04 51.25 0.271 2.21 2.297 323.34
797.08 45.03 0.268 2.15 2.27 325.51
797.12 41.66 0.272 2.1 2.25 326.87
797.16 42.48 0.277 2.08 2.239 327.38
797.2 46.65 0.276 2.1 2.237 327.17
797.24 52.27 0.271 2.09 2.242 326.4
