# LAS format log file from PETREL
# Project units are specified as depth units
#==================================================================
~Version information
VERS.   2.0:
WRAP.   NO:
#==================================================================
~Well
STRT .m      743.10000000 :
STOP .m      842.00000000 :
STEP .m     0.10000000 :
NULL .        -999.250000 :
COMP.           : COMPANY
WELL.  100120603903W400   : WELL
FLD.            : FIELD
LOC.            : LOCATION
SRVC.           : SERVICE COMPANY
DATE.  2023-06-01 13:43:19   : Log Export Date {yyyy-MM-dd HH:mm:ss}
PROV.           : PROVINCE
UWI.      : UNIQUE WELL ID
API.            : API NUMBER
#==================================================================
~Curve
DEPT .m                   : DEPTH
AC .us/m                  : AC
GR .gAPI                  : GR
PEF .b/e                  : PEF
DEN .g/cm3                : DEN
NPHI .m3/m3               : NPHI
~Parameter
#==================================================================
~Ascii
# ...
 814.50000000 311.45999146 22.840000153 1.7599999905 2.1701698303 0.3300999999
 814.60000000 312.14001465 23.610000610 1.7699999809 2.1671798229 0.3291000128
 814.70000000 315.26000977 24.020000458 1.7999999523 2.1634500027 0.3305999935
 814.80000000 317.30999756 23.950000763 1.8300000429 2.1566898823 0.3359999955
 814.90000000 315.98001099 23.950000763 1.8400000334 2.1491599083 0.3427999914
 815.00000000 314.97998047 24.190000534 1.8200000525 2.1449599266 0.3456999958
 815.10000000 315.34997559 24.459999084 1.7899999619 2.1446499825 0.3425000012
 815.20000000 314.53002930 24.540000916 1.7799999714 2.1500201225 0.3353999853
 815.30000000 311.44000244 24.879999161 1.7699999809 2.1598999500 0.3300999999
 815.40000000 306.20001221 25.690000534 1.7799999714 2.1695899963 0.3307000101
 815.50000000 302.13000488 26.250000000 1.7999999523 2.1758701801 0.3366999924
 815.60000000 301.73001099 25.909999847 1.8099999428 2.1736001968 0.3434999883
 815.70000000 304.64001465 24.709999084 1.8200000525 2.1662199497 0.3483999968
 815.80000000 308.02999878 23.219999313 1.8200000525 2.1563000679 0.3504999876
 815.90000000 309.57000732 22.170000076 1.8300000429 2.1432099342 0.3495000005
 816.00000000 310.17001343 22.270000458 1.8099999428 2.1311101913 0.3474999964
 816.10000000 310.00997925 23.219999313 1.7899999619 2.1202099323 0.3483000100
 816.20000000 311.30999756 23.989999771 1.7699999809 2.1129000187 0.3515000045
 816.30000000 315.30001831 23.860000610 1.7599999905 2.1097199917 0.3517000079
 816.40000000 318.63998413 23.110000610 1.7500000000 2.1094899178 0.3479000032
 816.50000000 320.44998169 22.159999847 1.7300000191 2.1119699478 0.3459999859
 816.60000000 319.98001099 21.350000381 1.7300000191 2.1154499054 0.3485000134
 816.70000000 316.67999268 21.290000916 1.7300000191 2.1189999580 0.3506000042
 816.80000000 313.10000610 22.530000687 1.7400000095 2.1227099895 0.3494000137
 816.90000000 312.16000366 24.620000839 1.7500000000 2.1261498928 0.3476000130
 817.00000000 314.41000366 26.100000381 1.7400000095 2.1277098656 0.3477999866
 817.10000000 316.61001587 26.159999847 1.7400000095 2.1264300346 0.3513000011
 817.20000000 314.30001831 25.360000610 1.7400000095 2.1227400303 0.3576000035
 817.30000000 310.69000244 24.579999924 1.7599999905 2.1200299263 0.3634000123
 817.40000000 308.96002197 23.780000687 1.7799999714 2.1202800274 0.3646999896
 817.50000000 308.33999634 22.870000839 1.7899999619 2.1245501041 0.3607999980
 817.60000000 306.64999390 22.370000839 1.7999999523 2.1356699467 0.3524000049
 817.70000000 305.26998901 23.270000458 1.8099999428 2.1535701752 0.3400000036
 817.80000000 304.95999146 25.709999084 1.7999999523 2.1696798801 0.3269999921
 817.90000000 304.69998169 28.750000000 1.8099999428 2.1818900108 0.3194000125
 818.00000000 303.75000000 31.229999542 1.8200000525 2.1922600269 0.3188999891
 818.10000000 303.45999146 32.189998627 1.8500000238 2.2036800385 0.3226000071
 818.20000000 305.80999756 31.379999161 1.8899999857 2.2084698677 0.3285999894
 818.30000000 307.08999634 28.930000305 1.9199999571 2.1989400387 0.3346999884
 818.40000000 305.63000488 25.540000916 1.9099999666 2.1783301830 0.3361000121
 818.50000000 304.80999756 22.319999695 1.8700000048 2.1583998203 0.3343999982
 818.60000000 306.50997925 20.479999542 1.8200000525 2.1466200352 0.3348999918
 818.70000000 307.89999390 20.260000229 1.7799999714 2.1413998604 0.3350999951
 818.80000000 307.07000732 21.200000763 1.7699999809 2.1408998966 0.3325000107
 818.90000000 306.57000732 22.239999771 1.7599999905 2.1432600021 0.3312000036
 819.00000000 306.30999756 22.889999390 1.7699999809 2.1483199596 0.3327000141
 819.10000000 303.48999023 22.899999619 1.7799999714 2.1570301056 0.3330999911
 819.20000000 300.52999878 22.370000839 1.8099999428 2.1639599800 0.3312000036
 819.30000000 301.02999878 21.430000305 1.8400000334 2.1668601036 0.3312999904
 819.40000000 303.05001831 20.719999313 1.8899999857 2.1648797989 0.3364000022
 819.50000000 302.82000732 20.610000610 1.9400000572 2.1577000618 0.3438000083
 819.60000000 301.75000000 21.059999466 1.9600000381 2.1486599445 0.3483999968
 819.70000000 302.11001587 21.600000381 1.9500000477 2.1394798756 0.3479000032
 819.80000000 304.27001953 21.899999619 1.8999999762 2.1322400570 0.3427999914
 819.90000000 308.01000977 21.850000381 1.8600000143 2.1285600662 0.3361000121
 820.00000000 310.08999634 21.420000076 1.8300000429 2.1275901794 0.3309000134
 820.10000000 309.98001099 20.329999924 1.8099999428 2.1293601990 0.3291000128
 820.20000000 308.58999634 18.930000305 1.7999999523 2.1304600239 0.3312000036
 820.30000000 307.01998901 17.920000076 1.7799999714 2.1310200691 0.3352999985
 820.40000000 307.54000854 17.569999695 1.7699999809 2.1307499409 0.3395000100
 820.50000000 309.16998291 17.530000687 1.7599999905 2.1311500072 0.3431999981
 820.60000000 308.37002563 17.790000916 1.7500000000 2.1343500614 0.3450999856
 820.70000000 305.66998291 18.430000305 1.7400000095 2.1373500824 0.3438999951
 820.80000000 302.13998413 19.170000076 1.7400000095 2.1401298046 0.3398000002
 820.90000000 300.42999268 19.100000381 1.7400000095 2.1405401230 0.3334999979
 821.00000000 301.10000610 18.159999847 1.7500000000 2.1416699886 0.3267000020
 821.10000000 298.75997925 17.379999161 1.7599999905 2.1449398994 0.3217000067
 821.20000000 292.44998169 17.530000687 1.7699999809 2.1492700577 0.3192999959
 821.30000000 285.26000977 17.959999084 1.7799999714 2.1553897858 0.3206000030
 821.40000000 279.98999023 17.739999771 1.7999999523 2.1595299244 0.3251999915
 821.50000000 279.20001221 17.200000763 1.8099999428 2.1603500843 0.3303999901
 821.60000000 284.35000610 17.409999847 1.8099999428 2.1577298641 0.3346999884
 821.70000000 291.92999268 18.540000916 1.7999999523 2.1532800198 0.3384999931
 821.80000000 295.73999023 19.809999466 1.7899999619 2.1487700939 0.3395999968
 821.90000000 296.19000244 20.790000916 1.7599999905 2.1452701092 0.3357000053
 822.00000000 296.48999023 21.260000229 1.7300000191 2.1424098015 0.3309000134
 822.10000000 295.92001343 21.059999466 1.7100000381 2.1405000687 0.3291999996
 822.20000000 294.26000977 20.639999390 1.7100000381 2.1398799419 0.3285000026
 822.30000000 294.36001587 20.450000763 1.7100000381 2.1396398544 0.3258000016
 822.40000000 295.66000366 20.200000763 1.7100000381 2.1406998634 0.3233000040
 822.50000000 295.38000488 19.440000534 1.7000000477 2.1418399811 0.3226999938
 822.60000000 294.48999023 18.399999619 1.6900000572 2.1443400383 0.3228999972
 822.70000000 294.88000488 17.809999466 1.6799999475 2.1481499672 0.3222000003
 822.80000000 295.30999756 18.149999619 1.6699999571 2.1510901451 0.3210999966
 822.90000000 295.39999390 19.379999161 1.6799999475 2.1519198418 0.3219999969
 823.00000000 297.11999512 20.700000763 1.6799999475 2.1499199867 0.3246000111
 823.10000000 298.98001099 21.239999771 1.6900000572 2.1475701332 0.3264000118
 823.20000000 300.69000244 21.110000610 1.6799999475 2.1472699642 0.3262000084
 823.30000000 301.39999390 20.940000534 1.6799999475 2.1485099792 0.3278999925
 823.40000000 300.17001343 20.690000534 1.6699999571 2.1488602161 0.3348000050
 823.50000000 298.48001099 20.200000763 1.6699999571 2.1448199749 0.3438000083
 823.60000000 297.91000366 19.790000916 1.6799999475 2.1381800175 0.3470999897
 823.70000000 298.57000732 19.760000229 1.6799999475 2.1310100555 0.3440000117
 823.80000000 300.37002563 19.850000381 1.6900000572 2.1227400303 0.3413999975
 823.90000000 303.86999512 20.049999237 1.6900000572 2.1151001453 0.3443999887
 824.00000000 307.92999268 20.760000229 1.7100000381 2.1080000401 0.3488999903
 824.10000000 310.10998535 21.750000000 1.7100000381 2.1037299633 0.3483999968
 824.20000000 310.08001709 21.790000916 1.7200000286 2.1040999889 0.3431000113
 824.30000000 308.44000244 20.670000076 1.7100000381 2.1055901051 0.3368000090
 824.40000000 306.38998413 19.670000076 1.7000000477 2.1096999645 0.3307999969
 824.50000000 304.19998169 19.879999161 1.7000000477 2.1129198074 0.3251000047
 824.60000000 302.58999634 20.809999466 1.7000000477 2.1153199673 0.3237000108
