# LAS format log file from PETREL
# Project units are specified as depth units
#==================================================================
~Version information
VERS.   2.0:
WRAP.   NO:
#==================================================================
~Well
STRT .m      743.10000000 :
STOP .m      842.00000000 :
STEP .m     0.10000000 :
NULL .        -999.250000 :
COMP.           : COMPANY
WELL.  100120603903W400   : WELL
FLD.            : FIELD
LOC.            : LOCATION
SRVC.           : SERVICE COMPANY
DATE.  2023-06-01 13:43:19   : Log Export Date {yyyy-MM-dd HH:mm:ss}
PROV.           : PROVINCE
UWI.      : UNIQUE WELL ID
API.            : API NUMBER
#==================================================================
~Curve
DEPT .m                   : DEPTH
AC .us/m                  : AC
GR .gAPI                  : GR
PEF .b/e                  : PEF
DEN .g/cm3                : DEN
NPHI .m3/m3               : NPHI
~Parameter
#==================================================================
~Ascii
# ...
 763.50000000 337.17001343 85.209999084 1.8600000143 2.0870299339 0.4751999974
 763.60000000 349.07000732 81.910003662 1.7500000000 1.9925199747 0.5151000023
 763.70000000 360.94000244 81.190002441 1.6599999666 1.9201700687 0.5475000143
 763.80000000 373.64001465 83.440002441 1.6000000238 1.8891899586 0.5645999908
 763.90000000 385.79998779 85.260002136 1.5900000334 1.8938800097 0.5626999736
 764.00000000 393.73999023 83.519996643 1.6299999952 1.9066200256 0.5504999757
 764.10000000 397.36001587 78.239997864 1.6900000572 1.9115899801 0.5332000256
 764.20000000 395.55001831 72.650001526 1.7200000286 1.8979799747 0.5185999870
 764.30000000 385.34002686 69.410003662 1.6900000572 1.8839999437 0.5058000088
 764.40000000 367.85000610 68.889999390 1.6000000238 1.8931499720 0.4774000049
 764.50000000 348.70999146 69.629997253 1.5299999714 1.9348299503 0.4325999916
 764.60000000 334.35000610 70.510002136 1.5700000525 2.0119600296 0.3941999972
 764.70000000 324.25000000 71.489997864 1.6900000572 2.0918200016 0.3747999966
 764.80000000 318.10998535 72.900001526 1.8600000143 2.1509299278 0.3693000078
 764.90000000 319.54998779 74.199996948 2.0099999905 2.1913599968 0.3689999878
 765.00000000 326.30999756 75.059997559 2.1199998856 2.2139899731 0.3688000143
 765.10000000 330.16000366 76.150001526 2.2200000286 2.2285499573 0.3664999902
 765.20000000 328.14001465 78.389999390 2.2799999714 2.2426698208 0.3639000058
 765.30000000 323.89001465 81.750000000 2.3299999237 2.2692599297 0.3632000089
 765.40000000 316.69000244 83.730003357 2.3699998856 2.3158700466 0.3614000082
 765.50000000 303.92999268 81.459999084 2.4100000858 2.3857200146 0.3558999896
 765.60000000 289.76998901 75.360000610 2.4800000191 2.4770700932 0.3479000032
 765.70000000 281.17999268 70.029998779 2.6199998856 2.5887398720 0.3427999914
 765.80000000 278.46002197 69.699996948 2.9200000763 2.6980099678 0.3474999964
 765.90000000 279.98999023 73.860000610 3.3399999142 2.7449400425 0.3607000113
 766.00000000 285.66000366 78.769996643 3.5699999332 2.7067699432 0.3698999882
 766.10000000 293.79000854 81.389999390 3.4300000668 2.6228501797 0.3675999939
 766.20000000 297.26000977 80.980003357 3.1600000858 2.5490200520 0.3576000035
 766.30000000 290.01998901 78.330001831 2.9600000381 2.5122799873 0.3441999853
 766.40000000 274.16000366 74.889999390 2.8399999142 2.5104598999 0.3271999955
 766.50000000 260.13000488 71.860000610 2.8599998951 2.5352900028 0.3070000112
 766.60000000 252.44999695 69.930000305 3.0000000000 2.5714099407 0.2865999937
 766.70000000 246.72001648 68.260002136 3.2400000095 2.6032400131 0.2680000067
 766.80000000 240.44999695 65.559997559 3.4800000191 2.6259698868 0.2520000041
 766.90000000 234.84999084 61.119998932 3.6500000954 2.6417901516 0.2369000018
 767.00000000 228.02000427 56.310001373 3.7999999523 2.6538701057 0.2223999947
 767.10000000 216.76000977 53.970001221 3.8900001049 2.6656599045 0.2117999941
 767.20000000 206.00000000 55.750000000 3.9700000286 2.6707599163 0.2083999962
 767.30000000 203.44000244 60.349998474 3.9700000286 2.6684999466 0.2143000066
 767.40000000 211.74000549 65.300003052 3.9200000763 2.6569199562 0.2294999957
 767.50000000 226.11000061 70.199996948 3.8399999142 2.6336100101 0.2524999976
 767.60000000 242.52999878 75.650001526 3.7400000095 2.6040501595 0.2816999853
 767.70000000 257.25000000 81.239997864 3.5699999332 2.5640900135 0.3177999854
 767.80000000 267.41000366 85.400001526 3.2999999523 2.5213301182 0.3551999927
 767.90000000 277.30999756 87.800003052 2.9800000191 2.4835500717 0.3792999983
 768.00000000 286.63998413 88.930000305 2.7000000477 2.4574899673 0.3810999990
 768.10000000 293.04000854 89.339996338 2.5499999523 2.4371700287 0.3727000058
 768.20000000 298.94000244 88.989997864 2.5000000000 2.4096598625 0.3711999953
 768.30000000 305.39001465 87.269996643 2.4200000763 2.3438999653 0.3847999871
 768.40000000 316.52999878 83.239997864 2.3099999428 2.2280700207 0.4126999974
 768.50000000 336.51000977 77.410003662 2.1700000763 2.0920400620 0.4469999969
 768.60000000 357.58999634 71.809997559 2.0599999428 1.9717299938 0.4747000039
 768.70000000 369.82998657 69.209999084 1.9800000191 1.9038699865 0.4817000031
 768.80000000 370.22000122 70.500000000 1.9199999571 1.8891899586 0.4668999910
 768.90000000 360.80999756 74.569999695 1.8799999952 1.9267799854 0.4429999888
 769.00000000 344.95999146 78.900001526 1.8799999952 2.0110599995 0.4156999886
 769.10000000 324.60000610 80.970001221 1.9400000572 2.1121201515 0.3826999962
 769.20000000 303.88000488 79.669998169 2.0499999523 2.2153999805 0.3501000106
 769.30000000 287.01000977 76.059997559 2.1800000668 2.3051497936 0.3231000006
 769.40000000 271.88000488 71.760002136 2.3299999237 2.3816101551 0.2964000106
 769.50000000 255.01998901 67.849998474 2.4900000095 2.4540200233 0.2648000121
 769.60000000 236.77000427 63.970001221 2.6600000858 2.5195400715 0.2317000031
 769.70000000 219.86999512 59.889999390 2.8900001049 2.5771899223 0.2041999996
 769.80000000 208.88999939 56.419998169 3.1700000763 2.6215400696 0.1877000034
 769.90000000 203.33000183 55.159999847 3.4600000381 2.6503798962 0.1817999929
 770.00000000 200.38000488 56.490001678 3.6600000858 2.6610000134 0.1834000051
 770.10000000 199.16000366 59.299999237 3.7599999905 2.6601998806 0.1893000007
 770.20000000 199.16000366 62.029998779 3.7400000095 2.6533601284 0.1963000000
 770.30000000 200.69000244 63.779998779 3.6700000763 2.6474399567 0.2025000006
 770.40000000 203.40000916 64.629997253 3.5499999523 2.6425399780 0.2092999965
 770.50000000 205.57000732 65.379997253 3.4500000477 2.6348099709 0.2216999978
 770.60000000 210.04000854 67.000000000 3.3699998856 2.6169400215 0.2423000038
 770.70000000 219.36000061 69.870002747 3.3199999332 2.5862801075 0.2671000063
 770.80000000 234.69000244 73.470001221 3.3199999332 2.5399699211 0.2939999998
 770.90000000 252.78001404 77.050003052 3.2999999523 2.4871299267 0.3219000101
 771.00000000 268.32000732 80.610000610 3.2200000286 2.4388701916 0.3470000029
 771.10000000 281.29998779 84.150001526 3.0699999332 2.4017801285 0.3616000116
 771.20000000 290.97000122 86.879997253 2.9100000858 2.3836598396 0.3661000133
 771.30000000 294.39999390 87.989997864 2.7999999523 2.3778798580 0.3666999936
 771.40000000 293.81997681 87.790000916 2.7200000286 2.3875701427 0.3677999973
 771.50000000 293.72000122 87.160003662 2.6700000763 2.4090800285 0.3718000054
 771.60000000 295.82998657 85.739997864 2.6500000954 2.4424400330 0.3801999986
 771.70000000 296.94998169 83.010002136 2.6600000858 2.4811799526 0.3889000118
 771.80000000 297.24002075 80.500000000 2.7400000095 2.5038797855 0.3905000091
 771.90000000 298.68002319 80.599998474 2.8399999142 2.5072000027 0.3819000125
 772.00000000 297.77999878 83.440002441 2.8900001049 2.4937100410 0.3695000112
 772.10000000 294.56002808 87.010002136 2.8900001049 2.4799900055 0.3630999923
 772.20000000 292.16000366 89.089996338 2.8599998951 2.4821598530 0.3630999923
 772.30000000 291.94000244 89.870002747 2.8699998856 2.4943702221 0.3609000146
 772.40000000 294.16000366 90.970001221 2.9200000763 2.5075500011 0.3558999896
 772.50000000 297.01998901 92.769996643 2.9400000572 2.5031800270 0.3558999896
 772.60000000 299.77999878 93.620002747 2.9000000954 2.4835300446 0.3616000116
 772.70000000 303.22998047 93.330001831 2.8299999237 2.4625799656 0.3652999997
 772.80000000 310.42001343 93.510002136 2.7899999619 2.4443299770 0.3648999929
 772.90000000 318.19000244 94.750000000 2.7500000000 2.4276299477 0.3671999872
 773.00000000 321.75997925 96.339996338 2.7100000381 2.4134199619 0.3761999905
 773.10000000 325.48001099 97.370002747 2.6700000763 2.3979599476 0.3867999911
 773.20000000 331.69000244 97.419998169 2.6400001049 2.3897800446 0.3921000063
 773.30000000 333.95999146 96.540000916 2.6300001144 2.3971898556 0.3928000033
 773.40000000 330.54000854 94.910003662 2.6500000954 2.4119398594 0.3944999874
 773.50000000 323.27001953 92.459999084 2.6900000572 2.4363100529 0.3966000080
 773.60000000 313.38000488 89.449996948 2.7500000000 2.4595100880 0.3925999999
