# Exported from Geomodeling Studio 8.5
# Project: RedLion
# Date: 2023-07-17T09:24:58
# User: xuepi
# Geodetic Coordinate System: NAD27 / UTM zone 12N
# 
~Version
VERS          .          3.0                                         :CWLS LOG ASCII STANDARD - VERSION 3.00
WRAP          .          NO                                          :One line per depth step
DLM           .          SPACE                                       :Delimiter character between data columns
#Delimiting character ( SPACE TAB OR COMMA ).
#----          ----      -------------                                -----------
#MNEM         .UNIT      DATA                                        :DESCRIPTION
~Well
STRT          .m         744.195                                     :FIRST INDEX VALUE
STOP          .m         849.995                                     :LAST INDEX VALUE
STEP          .m         0.0254                                      :STEP
NULL          .          -9999.990                                   :NULL VALUE
COMP          .                                                      :COMPANY
WELL          .          102/06-05-039-03W4/00                       :WELL
FLD           .                                                      :FIELD
LOC           .                  :LOCATION                              
SRVC          .                                                      :SERVICE COMPANY
CTRY          .                                                      :COUNTRY
CNTY          .                                                      :COUNTY
STAT          .                                                      :STATE
API           .                                                      :API NUMBER
DATE          .                                                      :LOG DATE
X             .          540699.200                                  :X OR EAST-WEST COORDINATE
Y             .          5797001.200                                 :Y OR NORTH-SOUTH COORDINATE
HZCS          .                                                      :HORIZONTAL CO-ORDINATE SYSTEM
GDAT          .          NAD27                                       :GEODETIC DATUM
UWI           .          102060503903W400                            :Unique Well Identifier
#----          ----      -----                                        -----------
~Parameter 
#MNEM         .UNIT      VALUE                                        Description
APD           .M         00.00                                       :Above Permanent Datum
DREF          .          KB                                          :Depth Reference (KB,DF,CB)
EREF          .m         671.100                                     :Elevation of Depth Deference
RUN           .          1                                           :Run Number
EKB           .m         671.100                                     :Kelling Bush Elevation
#----          ----      ---------                                    -----------------
#MNEM          UNIT      LOG CODES                                    Curve Description
~Curve
DEPTH         .m                                                     :DEPTH
GR            .GAPI                                                  :
NPHI          .Fraction                                              :
DEN           .g/cm^3                                                :
PEF           .Bar/e                                                 :
Lithology Facies_xueping.                                                      :
AC            .us/m                                                  :
#----          ----      ---------                                    -----------------
~Ascii
# ...
812.571 67.832 0.202 2.49 2.539 8 300.16
812.595 67.848 0.202 2.498 2.617 8 300.094
812.597 67.857 0.202 2.498 2.623 8 300.095
812.62 68.75 0.192 2.491 2.579 8 300.874
812.622 68.828 0.191 2.49 2.576 8 300.942
812.645 69.721 0.182 2.483 2.532 8 301.721
812.648 69.837 0.181 2.482 2.525 8 301.822
812.67 70.689 0.188 2.475 2.432 8 302.566
812.673 70.805 0.189 2.474 2.419 8 302.667
812.695 71.658 0.196 2.468 2.326 8 303.411
812.698 71.774 0.197 2.467 2.313 8 303.512
812.72 72.627 0.189 2.466 2.298 8 304.256
812.724 72.783 0.188 2.466 2.296 8 304.392
812.745 73.598 0.181 2.465 2.283 8 305.103
812.749 73.754 0.179 2.465 2.28 8 305.239
812.77 72.388 0.183 2.465 2.261 8 306.711
812.775 72.058 0.183 2.465 2.257 8 307.064
812.795 70.742 0.187 2.466 2.238 8 308.47
812.8 70.411 0.187 2.466 2.234 8 308.822
812.82 69.091 0.201 2.469 2.258 8 310.233
812.825 68.761 0.204 2.47 2.264 8 310.585
812.845 67.447 0.217 2.472 2.288 8 311.988
812.851 67.05 0.221 2.473 2.296 8 312.413
812.87 65.797 0.232 2.466 2.33 8 313.75
812.876 65.403 0.236 2.463 2.341 8 314.171
812.895 64.147 0.247 2.456 2.375 8 315.512
812.902 63.689 0.251 2.453 2.389 8 316.002
812.92 62.554 0.247 2.438 2.487 4 317.225
812.927 62.111 0.245 2.432 2.525 4 317.701
812.945 60.976 0.241 2.416 2.623 4 318.924
812.952 60.534 0.24 2.41 2.662 4 319.401
812.97 59.402 0.249 2.377 2.666 4 320.62
812.978 58.895 0.253 2.362 2.667 4 321.167
812.995 57.825 0.262 2.33 2.67 4 322.32
813.003 57.321 0.266 2.315 2.671 4 322.863
813.02 56.25 0.269 2.287 2.528 4 324.017
813.029 55.686 0.27 2.273 2.452 4 324.625
813.045 54.677 0.273 2.246 2.317 4 325.711
813.054 54.108 0.274 2.232 2.24 4 326.324
813.07 52.711 0.276 2.216 2.122 4 327.03
813.079 51.927 0.278 2.208 2.055 4 327.426
813.095 50.531 0.28 2.192 1.937 4 328.132
813.105 49.656 0.281 2.183 1.863 4 328.574
813.12 48.345 0.269 2.179 1.807 4 329.237
813.13 47.47 0.262 2.177 1.769 4 329.679
813.145 46.159 0.251 2.173 1.713 4 330.342
813.156 45.199 0.243 2.171 1.673 4 330.827
813.17 43.981 0.245 2.173 1.663 3 331.442
813.181 43.019 0.246 2.175 1.655 3 331.929
813.195 41.798 0.248 2.178 1.645 3 332.546
813.206 40.838 0.25 2.179 1.637 3 333.031
813.22 40.504 0.246 2.185 1.642 3 332.651
813.232 40.24 0.242 2.19 1.646 3 332.297
813.245 39.956 0.238 2.195 1.651 3 331.915
813.257 39.692 0.235 2.2 1.655 3 331.561
813.27 39.407 0.231 2.204 1.673 3 331.178
813.283 39.122 0.227 2.207 1.692 3 330.796
813.295 38.86 0.223 2.211 1.709 3 330.444
813.308 38.575 0.22 2.215 1.728 3 330.061
813.32 38.312 0.22 2.214 1.766 3 329.708
813.333 38.027 0.221 2.213 1.808 3 329.325
813.345 37.765 0.221 2.212 1.846 3 328.974
813.359 37.469 0.222 2.21 1.89 3 328.553
813.37 37.885 0.22 2.211 1.881 3 327.73
813.384 38.413 0.218 2.212 1.871 3 326.682
813.395 38.831 0.216 2.213 1.863 3 325.854
813.41 39.396 0.213 2.215 1.851 3 324.733
813.42 39.775 0.215 2.22 1.83 3 323.983
813.435 40.342 0.219 2.227 1.797 3 322.857
813.445 40.721 0.221 2.233 1.775 3 322.107
813.46 41.289 0.224 2.24 1.743 3 320.982
813.47 41.665 0.224 2.252 1.749 3 320.236
813.486 42.272 0.224 2.272 1.761 3 319.033
813.495 42.61 0.224 2.283 1.768 3 318.362
813.511 43.214 0.224 2.303 1.78 3 317.166
813.52 43.324 0.218 2.314 1.81 3 316.653
813.537 43.519 0.206 2.336 1.869 3 315.697
813.545 43.611 0.2 2.346 1.897 3 315.246
813.562 43.806 0.188 2.368 1.956 3 314.287
813.57 43.898 0.192 2.372 1.989 3 313.836
813.587 44.093 0.201 2.38 2.058 3 312.88
813.595 44.185 0.206 2.384 2.09 3 312.43
813.613 44.392 0.216 2.392 2.163 3 311.415
813.62 44.473 0.215 2.389 2.167 3 311.02
813.638 44.68 0.215 2.381 2.177 3 310.006
813.645 44.761 0.215 2.378 2.18 3 309.61
813.664 44.98 0.214 2.37 2.189 3 308.559
813.67 45.066 0.216 2.368 2.175 4 308.474
813.689 45.338 0.22 2.361 2.131 4 308.206
813.695 45.424 0.222 2.359 2.117 4 308.121
813.714 45.696 0.226 2.352 2.073 4 307.853
813.72 45.782 0.227 2.354 2.069 4 307.768
813.74 46.069 0.23 2.359 2.056 4 307.486
813.745 46.141 0.231 2.361 2.053 4 307.415
813.765 46.428 0.234 2.366 2.041 4 307.132
813.77 46.499 0.234 2.368 2.046 4 307.061
813.791 46.8 0.23 2.374 2.072 4 306.764
813.795 46.857 0.229 2.375 2.077 4 306.708
813.816 47.158 0.225 2.382 2.102 4 306.411
813.82 46.961 0.224 2.382 2.1 4 306.647
813.841 45.932 0.22 2.383 2.091 4 307.877
813.845 45.738 0.22 2.383 2.089 4 308.108
813.867 44.66 0.216 2.384 2.08 4 309.396
813.87 44.513 0.216 2.382 2.081 3 309.571
813.892 43.433 0.221 2.369 2.09 3 310.861
813.895 43.287 0.222 2.368 2.091 3 311.036
813.918 42.159 0.227 2.354 2.1 3 312.383
813.92 42.063 0.226 2.352 2.101 3 312.498
813.943 40.935 0.222 2.322 2.111 3 313.845
813.945 40.836 0.222 2.32 2.112 3 313.963
813.968 39.708 0.217 2.291 2.121 3 315.31
813.97 39.616 0.218 2.288 2.118 3 315.423
813.994 38.485 0.229 2.255 2.068 3 316.81
813.995 38.44 0.23 2.253 2.066 3 316.866
814.019 37.315 0.241 2.22 2.017 3 318.246
814.02 37.266 0.241 2.219 2.013 3 318.306
814.045 36.093 0.231 2.197 1.909 3 319.745
814.07 34.916 0.222 2.176 1.806 3 321.188
814.095 33.743 0.231 2.164 1.732 3 322.628
814.12 32.567 0.24 2.153 1.658 3 324.071
814.121 32.519 0.24 2.152 1.656 3 324.128
814.145 31.237 0.241 2.147 1.637 3 325.582
814.146 31.185 0.241 2.147 1.636 3 325.641
814.17 29.906 0.242 2.141 1.616 3 327.091
814.172 29.799 0.242 2.14 1.615 3 327.213
814.195 28.575 0.258 2.134 1.602 3 328.601
814.197 28.468 0.259 2.133 1.601 3 328.722
814.22 27.244 0.275 2.127 1.588 3 330.11
814.222 27.137 0.276 2.126 1.587 3 330.232
814.245 25.91 0.257 2.12 1.59 3 331.623
814.248 25.75 0.254 2.119 1.591 3 331.804
814.27 24.575 0.235 2.112 1.594 3 333.136
814.273 24.416 0.233 2.111 1.594 3 333.317
814.295 23.798 0.237 2.113 1.592 3 334.064
814.299 23.686 0.238 2.113 1.592 3 334.2
814.32 23.1 0.243 2.114 1.589 3 334.91
814.324 22.99 0.243 2.114 1.589 3 335.044
814.345 22.406 0.236 2.115 1.566 3 335.751
814.349 22.294 0.234 2.115 1.562 3 335.887
814.37 21.708 0.227 2.116 1.54 3 336.597
814.375 21.568 0.225 2.116 1.535 3 336.766
814.395 21.01 0.228 2.116 1.55 3 337.442
814.4 20.871 0.229 2.116 1.554 3 337.611
814.42 20.314 0.232 2.116 1.569 3 338.286
814.426 20.158 0.233 2.116 1.574 3 338.47
814.445 20.198 0.231 2.114 1.597 3 338.238
814.451 20.211 0.23 2.113 1.605 3 338.165
814.47 20.251 0.228 2.111 1.629 3 337.932
814.476 20.264 0.227 2.11 1.636 3 337.858
814.495 20.304 0.233 2.105 1.643 3 337.626
814.502 20.319 0.235 2.103 1.646 3 337.54
814.52 20.357 0.24 2.099 1.652 3 337.32
814.527 20.371 0.243 2.097 1.654 3 337.235
814.545 20.409 0.246 2.094 1.647 3 337.015
814.553 20.426 0.248 2.093 1.643 3 336.917
814.57 20.462 0.251 2.09 1.636 3 336.708
814.578 20.479 0.253 2.089 1.632 3 336.61
814.595 20.748 0.258 2.088 1.639 3 336.416
814.603 20.876 0.261 2.087 1.642 3 336.324
814.62 21.146 0.267 2.086 1.649 3 336.13
814.629 21.289 0.269 2.086 1.653 3 336.027
814.645 21.543 0.262 2.087 1.646 3 335.844
814.654 21.685 0.259 2.087 1.642 3 335.741
814.67 21.938 0.252 2.088 1.635 3 335.559
814.68 22.097 0.248 2.089 1.631 3 335.445
814.695 22.335 0.261 2.093 1.634 3 335.273
814.705 22.494 0.27 2.095 1.636 3 335.158
814.72 22.731 0.283 2.099 1.64 3 334.987
814.73 22.89 0.292 2.101 1.642 3 334.873
814.745 23.357 0.28 2.108 1.644 3 334.578
814.756 23.703 0.272 2.113 1.645 3 334.36
814.77 24.146 0.261 2.12 1.646 3 334.081
814.781 24.493 0.252 2.126 1.647 3 333.862
814.795 24.934 0.249 2.133 1.644 3 333.585
814.807 25.313 0.246 2.139 1.641 3 333.346
814.82 25.723 0.243 2.146 1.638 3 333.087
814.832 26.1 0.24 2.152 1.635 3 332.85
814.845 26.509 0.242 2.155 1.631 3 332.592
814.857 26.888 0.244 2.159 1.627 3 332.353
814.87 27.298 0.245 2.162 1.623 3 332.095
814.883 27.705 0.247 2.165 1.618 3 331.838
814.895 27.916 0.246 2.167 1.602 3 331.694
814.908 28.143 0.245 2.168 1.584 3 331.539
814.92 28.353 0.243 2.169 1.568 3 331.395
814.934 28.598 0.242 2.17 1.55 3 331.227
814.945 28.791 0.245 2.172 1.553 3 331.096
814.959 29.035 0.248 2.175 1.557 3 330.929
814.97 29.228 0.251 2.178 1.56 3 330.797
814.984 29.473 0.254 2.181 1.564 3 330.629
814.995 29.665 0.252 2.184 1.58 3 330.498
