# Exported from Geomodeling Studio 8.5
# Project: RedLion
# Date: 2023-07-17T09:24:58
# User: xuepi
# Geodetic Coordinate System: NAD27 / UTM zone 12N
# 
~Version
VERS          .          3.0                                         :CWLS LOG ASCII STANDARD - VERSION 3.00
WRAP          .          NO                                          :One line per depth step
DLM           .          SPACE                                       :Delimiter character between data columns
#Delimiting character ( SPACE TAB OR COMMA ).
#----          ----      -------------                                -----------
#MNEM         .UNIT      DATA                                        :DESCRIPTION
~Well
STRT          .m         744.195                                     :FIRST INDEX VALUE
STOP          .m         849.995                                     :LAST INDEX VALUE
STEP          .m         0.0254                                      :STEP
NULL          .          -9999.990                                   :NULL VALUE
COMP          .                                                      :COMPANY
WELL          .          102/06-05-039-03W4/00                       :WELL
FLD           .                                                      :FIELD
LOC           .                  :LOCATION                              
SRVC          .                                                      :SERVICE COMPANY
CTRY          .                                                      :COUNTRY
CNTY          .                                                      :COUNTY
STAT          .                                                      :STATE
API           .                                                      :API NUMBER
DATE          .                                                      :LOG DATE
X             .          540699.200                                  :X OR EAST-WEST COORDINATE
Y             .          5797001.200                                 :Y OR NORTH-SOUTH COORDINATE
HZCS          .                                                      :HORIZONTAL CO-ORDINATE SYSTEM
GDAT          .          NAD27                                       :GEODETIC DATUM
UWI           .          102060503903W400                            :Unique Well Identifier
#----          ----      -----                                        -----------
~Parameter 
#MNEM         .UNIT      VALUE                                        Description
APD           .M         00.00                                       :Above Permanent Datum
DREF          .          KB                                          :Depth Reference (KB,DF,CB)
EREF          .m         671.100                                     :Elevation of Depth Deference
RUN           .          1                                           :Run Number
EKB           .m         671.100                                     :Kelling Bush Elevation
#----          ----      ---------                                    -----------------
#MNEM          UNIT      LOG CODES                                    Curve Description
~Curve
DEPTH         .m                                                     :DEPTH
GR            .GAPI                                                  :
NPHI          .Fraction                                              :
DEN           .g/cm^3                                                :
PEF           .Bar/e                                                 :
Lithology Facies_xueping.                                                      :
AC            .us/m                                                  :
#----          ----      ---------                                    -----------------
~Ascii
# ...
793.039 69.438 0.188 2.297 1.849 4 314.482
793.045 69.701 0.189 2.303 1.857 4 314.585
793.064 70.539 0.191 2.325 1.881 4 314.91
793.07 70.802 0.192 2.332 1.888 4 315.013
793.09 71.699 0.194 2.355 1.914 4 315.352
793.095 72.103 0.194 2.362 1.926 4 315.4
793.115 73.739 0.198 2.388 1.977 4 315.592
793.12 74.148 0.199 2.394 1.989 4 315.64
793.14 75.783 0.203 2.42 2.04 4 315.832
793.145 76.192 0.205 2.425 2.054 4 315.88
793.166 77.908 0.216 2.446 2.113 4 316.082
793.17 78.231 0.219 2.45 2.124 4 316.12
793.191 79.942 0.23 2.471 2.183 4 316.321
793.195 80.271 0.228 2.472 2.194 6 316.36
793.217 82.066 0.219 2.479 2.259 6 316.571
793.22 82.311 0.218 2.48 2.268 6 316.6
793.242 84.111 0.209 2.486 2.332 6 316.811
793.245 84.466 0.212 2.485 2.337 6 316.7
793.267 87.083 0.238 2.475 2.371 6 315.883
793.27 87.438 0.242 2.473 2.376 6 315.772
793.293 90.171 0.269 2.463 2.412 6 314.918
793.295 90.403 0.269 2.462 2.42 6 314.845
793.318 93.136 0.274 2.452 2.51 6 313.992
793.32 93.375 0.274 2.451 2.518 6 313.917
793.344 96.217 0.279 2.441 2.612 6 313.029
793.345 96.333 0.279 2.441 2.615 6 312.993
793.369 99.189 0.284 2.441 2.695 6 312.1
793.37 99.305 0.284 2.441 2.698 6 312.064
793.394 102.154 0.289 2.441 2.778 6 311.174
793.395 102.27 0.289 2.441 2.78 6 311.143
793.42 104.922 0.301 2.452 2.805 6 310.511
793.445 107.581 0.313 2.463 2.83 6 309.877
793.47 110.234 0.307 2.483 2.839 6 309.245
793.471 110.344 0.307 2.484 2.839 6 309.218
793.495 112.893 0.3 2.503 2.848 6 308.611
793.496 112.997 0.3 2.504 2.848 6 308.586
793.52 115.546 0.293 2.519 2.822 6 307.978
793.521 115.649 0.293 2.519 2.821 6 307.954
793.545 118.198 0.285 2.534 2.795 6 307.346
793.547 118.394 0.285 2.535 2.792 6 307.297
793.57 118.564 0.273 2.543 2.786 6 306.991
793.572 118.579 0.272 2.543 2.785 6 306.964
793.595 118.748 0.261 2.55 2.779 6 306.659
793.598 118.771 0.26 2.551 2.778 6 306.618
793.62 118.933 0.263 2.552 2.742 6 306.326
793.623 118.955 0.263 2.552 2.738 6 306.286
793.645 119.118 0.266 2.553 2.702 6 305.993
793.648 119.14 0.266 2.553 2.698 6 305.953
793.67 119.302 0.256 2.557 2.695 6 305.661
793.674 119.331 0.254 2.558 2.694 6 305.608
793.695 119.486 0.243 2.562 2.692 6 305.328
793.699 119.516 0.241 2.563 2.692 6 305.275
793.72 118.986 0.239 2.567 2.693 6 304.378
793.725 118.858 0.238 2.568 2.694 6 304.163
793.745 118.345 0.236 2.571 2.695 6 303.301
793.75 118.217 0.236 2.572 2.696 6 303.085
793.77 117.704 0.227 2.573 2.695 6 302.223
793.775 117.576 0.224 2.573 2.694 6 302.008
793.795 117.065 0.215 2.573 2.693 6 301.149
793.801 116.91 0.213 2.574 2.693 6 300.889
793.82 116.424 0.218 2.573 2.677 6 300.071
793.826 116.271 0.219 2.573 2.672 6 299.814
793.845 115.786 0.224 2.572 2.656 6 298.998
793.852 115.614 0.226 2.572 2.651 6 298.717
793.87 115.52 0.218 2.57 2.674 6 298.936
793.877 115.483 0.214 2.57 2.683 6 299.021
793.895 115.389 0.206 2.568 2.706 6 299.24
793.902 115.353 0.203 2.567 2.715 6 299.324
793.92 115.258 0.22 2.564 2.749 6 299.543
793.928 115.217 0.228 2.563 2.764 6 299.64
793.945 115.128 0.245 2.56 2.796 6 299.847
793.953 115.086 0.253 2.558 2.811 6 299.944
793.97 114.997 0.249 2.555 2.823 6 300.15
793.979 114.95 0.247 2.553 2.829 6 300.26
793.995 114.867 0.244 2.55 2.839 6 300.454
794.004 114.82 0.242 2.548 2.845 6 300.563
794.02 114.033 0.249 2.547 2.808 6 300.682
794.029 113.592 0.253 2.546 2.787 6 300.749
794.045 112.805 0.26 2.545 2.749 6 300.869
794.055 112.313 0.265 2.544 2.725 6 300.944
794.07 111.575 0.261 2.545 2.689 6 301.056
794.08 111.082 0.258 2.545 2.665 6 301.13
794.095 110.347 0.254 2.545 2.629 6 301.242
794.106 109.804 0.251 2.545 2.603 6 301.324
794.12 109.116 0.262 2.545 2.595 6 301.429
794.131 108.576 0.271 2.544 2.589 6 301.511
794.145 107.886 0.283 2.544 2.581 6 301.616
794.156 107.345 0.292 2.543 2.574 6 301.698
794.17 106.177 0.282 2.543 2.571 6 302.43
794.182 105.161 0.273 2.542 2.568 6 303.075
794.195 104.06 0.263 2.541 2.565 6 303.774
794.207 103.047 0.254 2.54 2.562 6 304.417
794.22 101.946 0.253 2.54 2.565 6 305.116
794.233 100.845 0.252 2.54 2.567 6 305.815
794.245 99.826 0.252 2.54 2.569 6 306.462
794.258 98.725 0.252 2.54 2.572 6 307.161
794.27 97.707 0.25 2.538 2.591 6 307.807
794.283 96.606 0.248 2.537 2.611 6 308.506
794.295 95.593 0.246 2.536 2.63 6 309.149
794.309 94.39 0.244 2.534 2.652 6 309.894
794.32 92.849 0.248 2.531 2.673 6 310.062
794.334 90.889 0.254 2.527 2.7 6 310.274
794.345 89.344 0.258 2.524 2.722 6 310.442
794.36 87.233 0.264 2.52 2.751 6 310.671
794.37 85.825 0.257 2.512 2.775 6 310.824
794.385 83.714 0.247 2.501 2.811 6 311.053
794.395 82.307 0.24 2.493 2.835 6 311.205
794.41 80.204 0.23 2.482 2.871 6 311.433
794.42 78.797 0.24 2.467 2.881 8 311.586
794.436 76.548 0.257 2.443 2.895 8 311.83
794.445 75.278 0.266 2.429 2.903 4 311.968
794.461 73.03 0.283 2.405 2.917 4 312.212
794.47 72.541 0.277 2.387 2.858 4 312.392
794.487 71.645 0.264 2.353 2.743 4 312.736
794.495 71.225 0.259 2.337 2.689 4 312.897
794.512 70.331 0.247 2.302 2.574 4 313.239
794.52 69.91 0.247 2.29 2.516 4 313.401
794.537 69.017 0.247 2.264 2.392 4 313.743
794.545 68.596 0.247 2.252 2.334 4 313.904
794.563 67.648 0.247 2.225 2.204 4 314.268
794.57 67.279 0.246 2.224 2.172 4 314.409
794.588 66.331 0.245 2.221 2.089 4 314.773
794.595 65.965 0.245 2.22 2.057 4 314.913
794.614 64.997 0.243 2.217 1.972 4 315.304
794.62 65.17 0.242 2.219 1.973 4 315.51
794.639 65.718 0.24 2.228 1.977 4 316.167
794.645 65.892 0.239 2.231 1.978 4 316.375
794.664 66.438 0.236 2.24 1.982 4 317.03
794.67 66.611 0.233 2.245 1.991 4 317.236
794.69 67.189 0.222 2.264 2.023 4 317.929
794.695 67.333 0.22 2.269 2.032 4 318.102
794.715 67.911 0.209 2.288 2.064 4 318.794
794.72 68.054 0.211 2.294 2.085 4 318.965
794.741 68.662 0.219 2.318 2.174 4 319.693
794.745 68.776 0.22 2.322 2.19 4 319.83
794.766 69.382 0.228 2.346 2.279 4 320.556
794.77 69.892 0.227 2.349 2.295 4 320.574
794.791 72.547 0.22 2.367 2.376 4 320.667
794.795 73.049 0.219 2.37 2.391 4 320.684
794.817 75.836 0.211 2.388 2.476 4 320.782
794.82 76.213 0.21 2.389 2.48 4 320.795
794.842 78.985 0.203 2.395 2.509 4 320.892
794.845 79.364 0.202 2.396 2.513 4 320.905
794.868 82.274 0.195 2.402 2.544 4 321.007
794.87 82.528 0.197 2.403 2.546 6 321.016
794.893 85.439 0.217 2.408 2.569 6 321.118
794.895 85.693 0.219 2.409 2.57 6 321.127
794.918 88.604 0.239 2.414 2.593 6 321.229
794.92 88.838 0.239 2.415 2.594 6 321.274
794.944 91.678 0.226 2.428 2.602 6 321.928
794.945 91.801 0.226 2.429 2.602 6 321.956
794.969 94.642 0.214 2.442 2.609 6 322.61
794.97 94.757 0.215 2.444 2.613 6 322.636
794.995 97.713 0.248 2.485 2.717 6 323.317
795.02 100.676 0.281 2.527 2.822 6 323.999
795.045 103.633 0.268 2.527 2.805 6 324.68
795.07 106.596 0.255 2.527 2.787 6 325.362
795.071 106.702 0.255 2.527 2.786 6 325.397
795.095 108.261 0.271 2.522 2.812 6 327.214
795.096 108.328 0.272 2.522 2.814 6 327.293
795.12 109.888 0.288 2.517 2.839 6 329.11
795.122 110.019 0.29 2.516 2.841 6 329.262
795.145 111.515 0.295 2.507 2.84 6 331.005
795.147 111.642 0.296 2.506 2.84 6 331.153
795.17 113.134 0.301 2.497 2.839 6 332.892
795.172 113.264 0.302 2.497 2.839 6 333.044
795.195 114.76 0.303 2.489 2.822 6 334.787
795.198 114.954 0.303 2.488 2.82 6 335.013
795.22 116.383 0.304 2.48 2.803 6 336.678
795.223 116.581 0.304 2.479 2.801 6 336.909
795.245 116.635 0.301 2.473 2.841 6 338.063
795.249 116.643 0.301 2.472 2.848 6 338.274
795.27 116.683 0.298 2.467 2.887 6 339.372
795.274 116.691 0.298 2.466 2.895 6 339.58
795.295 116.732 0.299 2.459 2.918 6 340.679
795.299 116.739 0.3 2.457 2.923 6 340.889
795.32 116.78 0.301 2.45 2.947 6 341.986
795.325 116.789 0.302 2.448 2.952 6 342.247
795.345 116.828 0.302 2.442 2.947 6 343.291
795.35 116.837 0.303 2.441 2.946 6 343.553
795.37 116.876 0.303 2.435 2.94 6 344.601
795.376 116.883 0.303 2.433 2.938 6 344.905
795.395 116.685 0.311 2.434 2.908 6 345.435
795.401 116.623 0.313 2.434 2.899 6 345.602
795.42 116.425 0.321 2.435 2.869 6 346.131
795.426 116.363 0.323 2.435 2.859 6 346.3
795.445 116.165 0.329 2.436 2.858 6 346.829
795.452 116.092 0.331 2.436 2.857 6 347.025
