# Exported from Geomodeling Studio 8.5
# Project: RedLion
# Date: 2023-07-17T09:24:58
# User: xuepi
# Geodetic Coordinate System: NAD27 / UTM zone 12N
# 
~Version
VERS          .          3.0                                         :CWLS LOG ASCII STANDARD - VERSION 3.00
WRAP          .          NO                                          :One line per depth step
DLM           .          SPACE                                       :Delimiter character between data columns
#Delimiting character ( SPACE TAB OR COMMA ).
#----          ----      -------------                                -----------
#MNEM         .UNIT      DATA                                        :DESCRIPTION
~Well
STRT          .m         744.195                                     :FIRST INDEX VALUE
STOP          .m         849.995                                     :LAST INDEX VALUE
STEP          .m         0.0254                                      :STEP
NULL          .          -9999.990                                   :NULL VALUE
COMP          .                                                      :COMPANY
WELL          .          102/06-05-039-03W4/00                       :WELL
FLD           .                                                      :FIELD
LOC           .                  :LOCATION                              
SRVC          .                                                      :SERVICE COMPANY
CTRY          .                                                      :COUNTRY
CNTY          .                                                      :COUNTY
STAT          .                                                      :STATE
API           .                                                      :API NUMBER
DATE          .                                                      :LOG DATE
X             .          540699.200                                  :X OR EAST-WEST COORDINATE
Y             .          5797001.200                                 :Y OR NORTH-SOUTH COORDINATE
HZCS          .                                                      :HORIZONTAL CO-ORDINATE SYSTEM
GDAT          .          NAD27                                       :GEODETIC DATUM
UWI           .          102060503903W400                            :Unique Well Identifier
#----          ----      -----                                        -----------
~Parameter 
#MNEM         .UNIT      VALUE                                        Description
APD           .M         00.00                                       :Above Permanent Datum
DREF          .          KB                                          :Depth Reference (KB,DF,CB)
EREF          .m         671.100                                     :Elevation of Depth Deference
RUN           .          1                                           :Run Number
EKB           .m         671.100                                     :Kelling Bush Elevation
#----          ----      ---------                                    -----------------
#MNEM          UNIT      LOG CODES                                    Curve Description
~Curve
DEPTH         .m                                                     :DEPTH
GR            .GAPI                                                  :
NPHI          .Fraction                                              :
DEN           .g/cm^3                                                :
PEF           .Bar/e                                                 :
Lithology Facies_xueping.                                                      :
AC            .us/m                                                  :
#----          ----      ---------                                    -----------------
~Ascii
# ...
797.87 82.706 0.205 2.509 2.397 6 296.99
797.89 83.854 0.205 2.512 2.397 6 295.521
797.895 84.141 0.204 2.513 2.397 6 295.154
797.916 85.344 0.204 2.516 2.397 6 293.613
797.92 85.572 0.203 2.517 2.397 6 293.322
797.941 86.775 0.197 2.519 2.395 6 291.782
797.945 87.006 0.195 2.52 2.394 6 291.486
797.966 88.21 0.19 2.523 2.392 6 289.946
797.97 88.36 0.192 2.523 2.386 6 289.789
797.992 89.145 0.208 2.524 2.352 6 288.995
797.995 89.252 0.211 2.524 2.347 6 288.887
798.017 90.04 0.227 2.526 2.313 6 288.091
798.02 90.147 0.226 2.526 2.314 6 287.983
798.043 90.97 0.214 2.528 2.33 6 287.152
798.045 91.04 0.213 2.528 2.331 6 287.082
798.068 91.862 0.2 2.53 2.347 6 286.25
798.07 91.934 0.2 2.53 2.348 6 286.178
798.093 92.757 0.198 2.53 2.359 6 285.347
798.095 92.827 0.198 2.53 2.36 6 285.276
798.119 93.675 0.196 2.531 2.372 6 284.422
798.12 93.665 0.196 2.531 2.373 6 284.447
798.144 93.408 0.201 2.533 2.408 6 285.052
798.145 93.397 0.201 2.533 2.409 6 285.078
798.17 93.13 0.206 2.536 2.445 6 285.708
798.195 92.862 0.202 2.538 2.434 6 286.341
798.22 92.595 0.198 2.54 2.422 6 286.971
798.245 92.327 0.196 2.542 2.446 6 287.604
798.246 92.316 0.196 2.542 2.446 6 287.628
798.27 92.059 0.194 2.543 2.469 6 288.236
798.271 92.049 0.194 2.543 2.47 6 288.26
798.295 90.493 0.197 2.543 2.508 6 288.718
798.297 90.362 0.197 2.543 2.511 6 288.756
798.32 88.864 0.2 2.542 2.547 6 289.192
798.322 88.733 0.201 2.542 2.55 6 289.231
798.345 87.235 0.203 2.537 2.542 6 289.667
798.347 87.104 0.203 2.537 2.541 6 289.705
798.37 85.602 0.205 2.531 2.533 6 290.143
798.373 85.407 0.206 2.531 2.532 6 290.2
798.395 83.969 0.195 2.519 2.523 6 290.618
798.398 83.774 0.194 2.517 2.522 6 290.675
798.42 82.34 0.184 2.505 2.513 6 291.093
798.424 82.08 0.182 2.503 2.511 6 291.188
798.445 80.848 0.201 2.492 2.476 6 292.476
798.449 80.616 0.204 2.49 2.47 6 292.719
798.47 79.387 0.223 2.478 2.436 8 294.004
798.474 79.152 0.226 2.476 2.429 8 294.25
798.495 77.92 0.218 2.461 2.397 8 295.538
798.5 77.627 0.215 2.457 2.39 8 295.845
798.52 76.453 0.207 2.443 2.359 4 297.073
798.525 76.159 0.205 2.439 2.351 4 297.38
798.545 74.989 0.206 2.435 2.324 4 298.604
798.551 74.634 0.207 2.434 2.316 4 298.975
798.57 73.521 0.209 2.431 2.29 4 300.139
798.576 73.17 0.209 2.43 2.282 4 300.506
798.595 71.675 0.208 2.439 2.25 4 301.633
798.601 71.199 0.208 2.442 2.24 4 301.992
798.62 69.705 0.206 2.45 2.208 8 303.119
798.627 69.152 0.206 2.454 2.197 8 303.536
798.645 67.737 0.208 2.455 2.21 8 304.602
798.652 67.191 0.209 2.456 2.216 8 305.014
798.67 65.773 0.212 2.457 2.229 8 306.083
798.678 65.143 0.213 2.458 2.235 8 306.558
798.695 63.802 0.207 2.445 2.251 4 307.569
798.703 63.173 0.204 2.438 2.258 4 308.043
798.72 61.836 0.198 2.425 2.274 4 309.051
798.728 61.202 0.195 2.419 2.281 4 309.529
798.745 60.71 0.202 2.397 2.29 4 310.867
798.754 60.458 0.205 2.385 2.295 4 311.584
798.77 60.013 0.211 2.364 2.303 4 312.852
798.779 59.763 0.214 2.352 2.307 4 313.563
798.795 59.318 0.207 2.335 2.277 4 314.828
798.805 59.04 0.203 2.324 2.257 4 315.62
798.82 58.621 0.196 2.308 2.228 4 316.811
798.83 58.342 0.191 2.297 2.208 4 317.605
798.845 57.925 0.195 2.291 2.178 4 318.79
798.855 57.646 0.198 2.286 2.158 4 319.584
798.87 57.228 0.202 2.28 2.128 4 320.775
798.881 56.919 0.204 2.275 2.107 4 321.638
798.895 56.355 0.21 2.277 2.077 4 322.171
798.906 55.914 0.215 2.279 2.055 4 322.588
798.92 55.352 0.22 2.281 2.026 4 323.119
798.932 54.869 0.225 2.283 2.001 4 323.576
798.945 54.346 0.225 2.283 2.003 4 324.069
798.957 53.866 0.225 2.283 2.005 4 324.524
798.97 53.344 0.224 2.282 2.007 4 325.016
798.982 52.862 0.224 2.282 2.008 4 325.472
798.995 52.34 0.228 2.275 1.996 4 325.965
799.008 51.817 0.231 2.268 1.984 4 326.459
799.02 51.334 0.235 2.261 1.972 4 326.915
799.033 50.812 0.239 2.254 1.96 4 327.409
799.045 51.079 0.231 2.247 1.944 4 327.135
799.059 51.406 0.222 2.238 1.926 4 326.8
799.07 51.661 0.215 2.231 1.911 4 326.537
799.084 51.987 0.206 2.222 1.893 4 326.204
799.095 52.243 0.21 2.219 1.884 4 325.941
799.109 52.57 0.213 2.215 1.873 4 325.606
799.12 52.825 0.217 2.212 1.864 4 325.345
799.135 53.174 0.221 2.208 1.853 4 324.987
799.145 53.407 0.218 2.217 1.842 4 324.748
799.16 53.755 0.213 2.229 1.827 4 324.391
799.17 53.988 0.209 2.238 1.817 4 324.152
799.186 54.369 0.204 2.252 1.802 4 323.754
799.195 54.799 0.203 2.265 1.815 4 323.121
799.211 55.56 0.202 2.288 1.839 4 322.002
799.22 55.986 0.201 2.301 1.852 4 321.374
799.236 56.75 0.199 2.325 1.875 4 320.25
799.245 57.177 0.195 2.337 1.912 4 319.622
799.262 57.987 0.187 2.36 1.986 4 318.43
799.27 58.367 0.184 2.371 2.02 4 317.87
799.287 59.174 0.176 2.394 2.093 4 316.683
799.295 59.554 0.183 2.398 2.134 4 316.124
799.313 60.408 0.197 2.408 2.226 4 314.867
799.32 60.742 0.202 2.412 2.261 4 314.376
799.338 61.598 0.217 2.422 2.353 4 313.115
799.345 62.154 0.215 2.421 2.355 4 312.516
799.363 63.593 0.21 2.417 2.359 4 310.966
799.37 64.154 0.209 2.416 2.361 4 310.362
799.389 65.671 0.204 2.412 2.364 4 308.728
799.395 66.153 0.201 2.413 2.343 4 308.207
799.414 67.67 0.192 2.415 2.278 4 306.573
799.42 68.148 0.189 2.416 2.257 4 306.058
799.44 69.747 0.181 2.418 2.19 4 304.335
799.445 70.146 0.181 2.423 2.192 4 303.905
799.465 71.742 0.184 2.443 2.2 4 302.185
799.47 72.137 0.184 2.447 2.202 4 301.76
799.49 73.736 0.186 2.467 2.211 4 300.036
799.495 74.014 0.186 2.472 2.224 8 299.81
799.516 75.129 0.186 2.495 2.282 8 298.942
799.52 75.343 0.186 2.5 2.293 8 298.775
799.541 76.458 0.185 2.523 2.351 8 297.907
799.545 76.669 0.186 2.525 2.363 8 297.743
799.567 77.839 0.191 2.536 2.43 8 296.831
799.57 77.998 0.192 2.537 2.439 8 296.708
799.592 79.165 0.197 2.548 2.505 8 295.799
799.595 79.324 0.198 2.548 2.507 8 295.675
799.617 80.494 0.2 2.549 2.519 8 294.764
799.62 80.653 0.2 2.549 2.521 6 294.641
799.643 81.859 0.203 2.55 2.534 6 293.702
799.645 81.826 0.202 2.549 2.534 6 293.734
799.668 81.442 0.194 2.546 2.529 6 294.108
799.67 81.41 0.194 2.545 2.529 6 294.14
799.694 81.01 0.186 2.541 2.524 6 294.529
799.695 80.993 0.186 2.541 2.524 6 294.545
799.719 80.593 0.192 2.531 2.537 6 294.935
799.72 80.577 0.193 2.53 2.538 6 294.951
799.744 80.176 0.199 2.52 2.551 6 295.341
799.745 80.16 0.199 2.519 2.551 6 295.357
799.77 79.743 0.2 2.504 2.565 8 295.763
799.795 79.328 0.2 2.489 2.578 8 296.167
799.82 76.818 0.226 2.474 2.532 8 298.904
799.821 76.719 0.227 2.474 2.53 8 299.012
799.845 74.293 0.252 2.46 2.485 8 301.658
799.846 74.188 0.253 2.459 2.483 8 301.772
799.87 71.762 0.246 2.443 2.433 4 304.419
799.871 71.664 0.246 2.442 2.431 4 304.526
799.895 69.232 0.24 2.426 2.382 4 307.179
799.897 69.034 0.239 2.425 2.378 4 307.395
799.92 66.707 0.252 2.4 2.363 4 309.933
799.922 66.503 0.253 2.398 2.362 4 310.155
799.945 64.176 0.265 2.372 2.347 4 312.693
799.948 63.874 0.266 2.369 2.346 4 312.977
799.97 61.642 0.258 2.333 2.359 4 312.996
799.973 61.332 0.257 2.328 2.361 4 312.999
799.995 59.095 0.248 2.292 2.374 4 313.019
799.998 58.79 0.247 2.287 2.376 4 313.022
800.02 56.547 0.263 2.257 2.315 4 313.042
800.024 56.143 0.266 2.251 2.304 4 313.045
800.045 54.005 0.281 2.222 2.245 4 313.064
800.049 53.595 0.284 2.217 2.234 4 313.068
800.07 51.458 0.267 2.204 2.142 4 313.087
800.075 50.948 0.263 2.201 2.12 4 313.092
800.095 48.916 0.246 2.189 2.032 4 313.11
800.1 48.407 0.242 2.186 2.01 4 313.114
800.12 47.217 0.264 2.188 1.94 4 312.126
800.125 46.92 0.269 2.188 1.922 4 311.879
800.145 45.728 0.291 2.19 1.851 4 310.888
800.151 45.372 0.297 2.191 1.831 4 310.592
800.17 44.242 0.279 2.201 1.827 3 309.653
800.176 43.882 0.273 2.205 1.825 3 309.354
800.195 42.751 0.255 2.215 1.821 3 308.414
800.202 42.333 0.249 2.219 1.82 3 308.067
800.22 41.265 0.238 2.233 1.842 3 307.179
800.227 40.847 0.234 2.238 1.851 3 306.832
800.245 39.775 0.224 2.252 1.873 3 305.94
800.252 39.357 0.22 2.257 1.881 3 305.593
800.27 40.019 0.211 2.275 1.911 3 303.395
800.278 40.328 0.207 2.283 1.924 3 302.407
800.295 40.984 0.199 2.299 1.952 3 300.315
800.303 41.293 0.196 2.307 1.965 3 299.329
800.32 41.953 0.189 2.327 2.004 3 297.224
