# Exported from Geomodeling Studio 8.5
# Project: RedLion
# Date: 2023-07-17T09:24:58
# User: xuepi
# Geodetic Coordinate System: NAD27 / UTM zone 12N
# 
~Version
VERS          .          3.0                                         :CWLS LOG ASCII STANDARD - VERSION 3.00
WRAP          .          NO                                          :One line per depth step
DLM           .          SPACE                                       :Delimiter character between data columns
#Delimiting character ( SPACE TAB OR COMMA ).
#----          ----      -------------                                -----------
#MNEM         .UNIT      DATA                                        :DESCRIPTION
~Well
STRT          .m         744.195                                     :FIRST INDEX VALUE
STOP          .m         849.995                                     :LAST INDEX VALUE
STEP          .m         0.0254                                      :STEP
NULL          .          -9999.990                                   :NULL VALUE
COMP          .                                                      :COMPANY
WELL          .          102/06-05-039-03W4/00                       :WELL
FLD           .                                                      :FIELD
LOC           .                  :LOCATION                              
SRVC          .                                                      :SERVICE COMPANY
CTRY          .                                                      :COUNTRY
CNTY          .                                                      :COUNTY
STAT          .                                                      :STATE
API           .                                                      :API NUMBER
DATE          .                                                      :LOG DATE
X             .          540699.200                                  :X OR EAST-WEST COORDINATE
Y             .          5797001.200                                 :Y OR NORTH-SOUTH COORDINATE
HZCS          .                                                      :HORIZONTAL CO-ORDINATE SYSTEM
GDAT          .          NAD27                                       :GEODETIC DATUM
UWI           .          102060503903W400                            :Unique Well Identifier
#----          ----      -----                                        -----------
~Parameter 
#MNEM         .UNIT      VALUE                                        Description
APD           .M         00.00                                       :Above Permanent Datum
DREF          .          KB                                          :Depth Reference (KB,DF,CB)
EREF          .m         671.100                                     :Elevation of Depth Deference
RUN           .          1                                           :Run Number
EKB           .m         671.100                                     :Kelling Bush Elevation
#----          ----      ---------                                    -----------------
#MNEM          UNIT      LOG CODES                                    Curve Description
~Curve
DEPTH         .m                                                     :DEPTH
GR            .GAPI                                                  :
NPHI          .Fraction                                              :
DEN           .g/cm^3                                                :
PEF           .Bar/e                                                 :
Lithology Facies_xueping.                                                      :
AC            .us/m                                                  :
#----          ----      ---------                                    -----------------
~Ascii
# ...
832.17 18.699 0.231 2.169 1.547 3 318.222
832.18 18.719 0.228 2.174 1.539 3 318.185
832.195 18.749 0.223 2.181 1.527 3 318.128
832.206 18.771 0.221 2.186 1.519 3 318.087
832.22 18.799 0.23 2.189 1.526 3 318.034
832.231 18.822 0.238 2.192 1.531 3 317.993
832.245 18.85 0.248 2.196 1.538 3 317.94
832.256 18.872 0.255 2.199 1.543 3 317.898
832.27 18.804 0.248 2.195 1.557 3 317.792
832.282 18.743 0.242 2.192 1.57 3 317.699
832.295 18.676 0.235 2.189 1.584 3 317.599
832.307 18.615 0.228 2.185 1.596 3 317.506
832.32 18.549 0.23 2.179 1.594 3 317.406
832.333 18.483 0.232 2.173 1.591 3 317.305
832.345 18.422 0.234 2.167 1.588 3 317.213
832.358 18.355 0.236 2.161 1.585 3 317.113
832.37 18.294 0.237 2.157 1.583 3 317.02
832.383 18.228 0.239 2.152 1.581 3 316.92
832.395 18.167 0.24 2.148 1.579 3 316.827
832.409 18.094 0.242 2.143 1.577 3 316.721
832.42 17.956 0.24 2.141 1.572 3 316.769
832.434 17.78 0.238 2.139 1.566 3 316.83
832.445 17.642 0.237 2.137 1.561 3 316.878
832.46 17.454 0.235 2.134 1.555 3 316.944
832.47 17.329 0.234 2.133 1.562 3 316.987
832.485 17.141 0.234 2.132 1.573 3 317.052
832.495 17.015 0.233 2.131 1.58 3 317.096
832.51 16.827 0.233 2.129 1.59 3 317.161
832.52 16.702 0.23 2.129 1.588 3 317.205
832.536 16.502 0.227 2.128 1.583 3 317.274
832.545 16.389 0.225 2.128 1.58 3 317.314
832.561 16.188 0.221 2.128 1.576 3 317.383
832.57 16.197 0.225 2.128 1.575 3 317.328
832.587 16.219 0.231 2.127 1.575 3 317.22
832.595 16.229 0.234 2.127 1.575 3 317.169
832.612 16.251 0.241 2.127 1.575 3 317.06
832.62 16.262 0.239 2.126 1.571 3 317.009
832.637 16.284 0.236 2.124 1.563 3 316.9
832.645 16.294 0.235 2.124 1.559 3 316.849
832.663 16.318 0.232 2.122 1.55 3 316.734
832.67 16.327 0.233 2.122 1.551 3 316.689
832.688 16.35 0.236 2.122 1.553 3 316.574
832.695 16.359 0.237 2.122 1.554 3 316.53
832.714 16.388 0.239 2.122 1.556 3 316.41
832.72 16.472 0.237 2.123 1.557 3 316.387
832.739 16.741 0.231 2.128 1.559 3 316.313
832.745 16.825 0.228 2.13 1.559 3 316.29
832.764 17.093 0.222 2.135 1.562 3 316.218
832.77 17.178 0.222 2.137 1.561 3 316.194
832.79 17.459 0.223 2.142 1.558 3 316.118
832.795 17.53 0.223 2.144 1.557 3 316.098
832.815 17.812 0.225 2.149 1.554 3 316.022
832.82 17.882 0.225 2.15 1.553 3 316.002
832.841 18.178 0.224 2.154 1.553 3 315.922
832.845 18.234 0.224 2.155 1.553 3 315.906
832.866 18.53 0.224 2.159 1.553 3 315.826
832.87 18.567 0.225 2.159 1.553 3 315.816
832.891 18.76 0.229 2.157 1.555 3 315.766
832.895 18.797 0.229 2.157 1.555 3 315.756
832.917 19 0.233 2.156 1.556 3 315.703
832.92 19.027 0.233 2.156 1.557 3 315.696
832.942 19.231 0.229 2.153 1.559 3 315.643
832.945 19.258 0.229 2.153 1.559 3 315.636
832.968 19.47 0.225 2.15 1.561 3 315.58
832.97 19.488 0.226 2.15 1.56 3 315.576
832.993 19.7 0.229 2.152 1.547 3 315.52
832.995 19.719 0.229 2.152 1.546 3 315.515
833.018 19.931 0.233 2.153 1.532 3 315.46
833.02 19.944 0.233 2.154 1.531 3 315.451
833.044 20.085 0.234 2.159 1.509 3 315.336
833.045 20.09 0.234 2.16 1.508 3 315.331
833.069 20.231 0.234 2.165 1.486 3 315.215
833.07 20.237 0.235 2.165 1.486 3 315.21
833.095 20.384 0.243 2.167 1.485 3 315.09
833.12 20.531 0.252 2.169 1.484 3 314.969
833.145 20.678 0.253 2.168 1.483 3 314.848
833.17 20.825 0.253 2.167 1.482 3 314.728
833.171 20.828 0.253 2.167 1.482 3 314.727
833.195 20.704 0.233 2.167 1.487 3 315
833.196 20.699 0.232 2.167 1.488 3 315.011
833.22 20.574 0.212 2.168 1.493 3 315.284
833.222 20.563 0.211 2.168 1.493 3 315.307
833.245 20.443 0.218 2.166 1.511 3 315.57
833.247 20.433 0.219 2.166 1.512 3 315.593
833.27 20.313 0.225 2.165 1.53 3 315.855
833.272 20.303 0.226 2.165 1.531 3 315.877
833.295 20.183 0.23 2.162 1.539 3 316.14
833.298 20.168 0.23 2.162 1.54 3 316.174
833.32 20.053 0.234 2.159 1.546 3 316.425
833.323 20.037 0.235 2.159 1.547 3 316.459
833.345 20.008 0.256 2.156 1.563 3 316.497
833.349 20.002 0.26 2.155 1.566 3 316.503
833.37 19.975 0.28 2.152 1.582 3 316.537
833.374 19.969 0.284 2.151 1.584 3 316.544
833.395 19.942 0.251 2.147 1.584 3 316.578
833.399 19.937 0.245 2.146 1.584 3 316.585
833.42 19.909 0.213 2.143 1.583 3 316.619
833.425 19.902 0.205 2.142 1.583 3 316.627
833.445 19.876 0.217 2.141 1.587 3 316.66
833.45 19.87 0.22 2.141 1.588 3 316.668
833.47 19.843 0.232 2.14 1.592 3 316.701
833.476 19.835 0.235 2.139 1.593 3 316.708
833.495 19.799 0.24 2.139 1.582 3 316.633
833.501 19.788 0.241 2.14 1.579 3 316.609
833.52 19.752 0.245 2.14 1.568 3 316.535
833.526 19.741 0.246 2.14 1.565 3 316.511
833.545 19.705 0.244 2.14 1.555 3 316.436
833.552 19.692 0.243 2.14 1.551 3 316.408
833.57 19.658 0.24 2.14 1.541 3 316.337
833.577 19.645 0.239 2.14 1.537 3 316.31
833.595 19.611 0.232 2.14 1.543 3 316.239
833.603 19.596 0.23 2.14 1.546 3 316.207
833.62 19.564 0.223 2.139 1.552 3 316.14
833.628 19.549 0.221 2.139 1.554 3 316.109
833.645 19.432 0.222 2.139 1.568 3 316.215
833.653 19.378 0.223 2.138 1.575 3 316.265
833.67 19.262 0.225 2.138 1.589 3 316.371
833.679 19.2 0.225 2.137 1.596 3 316.428
833.695 19.091 0.224 2.138 1.599 3 316.528
833.704 19.03 0.224 2.138 1.6 3 316.584
833.72 18.921 0.223 2.138 1.602 3 316.684
833.73 18.852 0.222 2.138 1.604 3 316.747
833.745 18.75 0.225 2.139 1.604 3 316.841
833.755 18.681 0.228 2.14 1.604 3 316.903
833.77 18.579 0.231 2.141 1.605 3 316.997
833.78 18.51 0.234 2.142 1.605 3 317.06
833.795 18.517 0.238 2.143 1.603 3 317.093
833.806 18.523 0.241 2.144 1.601 3 317.116
833.82 18.531 0.245 2.144 1.598 3 317.145
833.831 18.538 0.248 2.145 1.596 3 317.168
833.845 18.546 0.244 2.144 1.588 3 317.197
833.857 18.553 0.24 2.144 1.582 3 317.222
833.87 18.561 0.236 2.143 1.575 3 317.249
833.882 18.568 0.233 2.142 1.568 3 317.274
833.895 18.576 0.241 2.142 1.562 3 317.301
833.907 18.583 0.248 2.142 1.557 3 317.326
833.92 18.591 0.256 2.143 1.552 3 317.353
833.933 18.597 0.264 2.143 1.546 3 317.38
833.945 18.494 0.265 2.142 1.547 3 317.34
833.958 18.383 0.266 2.142 1.547 3 317.298
833.97 18.281 0.268 2.142 1.548 3 317.259
833.984 18.161 0.269 2.141 1.548 3 317.213
833.995 18.067 0.265 2.141 1.544 3 317.177
834.009 17.948 0.259 2.141 1.539 3 317.131
834.02 17.854 0.255 2.142 1.536 3 317.095
834.034 17.735 0.249 2.142 1.531 3 317.05
834.045 17.641 0.252 2.141 1.523 3 317.014
834.06 17.512 0.256 2.141 1.512 3 316.965
834.07 17.427 0.259 2.14 1.504 3 316.932
834.085 17.299 0.264 2.14 1.493 3 316.883
834.095 17.309 0.259 2.14 1.494 3 316.887
834.111 17.33 0.252 2.14 1.495 3 316.893
834.12 17.341 0.248 2.139 1.496 3 316.897
834.136 17.361 0.241 2.139 1.498 3 316.904
834.145 17.372 0.241 2.139 1.505 3 316.908
834.161 17.393 0.24 2.138 1.519 3 316.914
834.17 17.404 0.24 2.138 1.526 3 316.918
834.187 17.425 0.239 2.138 1.54 3 316.925
834.195 17.435 0.239 2.137 1.546 3 316.929
834.212 17.457 0.239 2.136 1.556 3 316.936
834.22 17.467 0.239 2.136 1.561 3 316.939
834.238 17.488 0.239 2.134 1.573 3 316.946
834.245 17.464 0.239 2.133 1.573 3 316.943
834.263 17.403 0.238 2.131 1.574 3 316.934
834.27 17.379 0.237 2.13 1.574 3 316.93
834.288 17.318 0.236 2.127 1.574 3 316.922
834.295 17.294 0.234 2.127 1.576 3 316.918
834.314 17.23 0.226 2.128 1.581 3 316.909
834.32 17.209 0.223 2.128 1.582 3 316.906
834.339 17.145 0.215 2.128 1.587 3 316.897
834.345 17.125 0.219 2.129 1.588 3 316.894
834.365 17.057 0.23 2.133 1.59 3 316.884
834.37 17.04 0.233 2.134 1.59 3 316.881
834.39 16.972 0.244 2.138 1.592 3 316.872
834.395 17.04 0.248 2.139 1.59 3 316.865
834.415 17.311 0.263 2.143 1.579 3 316.839
834.42 17.379 0.267 2.144 1.576 3 316.833
834.441 17.664 0.283 2.149 1.565 3 316.805
834.445 17.719 0.281 2.149 1.565 3 316.8
834.466 18.004 0.266 2.151 1.567 3 316.773
834.47 18.058 0.263 2.152 1.568 3 316.768
834.492 18.357 0.248 2.154 1.57 3 316.739
834.495 18.398 0.249 2.154 1.57 3 316.735
834.517 18.697 0.252 2.153 1.571 3 316.706
834.52 18.737 0.252 2.153 1.571 3 316.703
834.542 19.036 0.254 2.152 1.571 3 316.674
834.545 19.031 0.255 2.151 1.572 3 316.689
834.568 18.937 0.257 2.147 1.578 3 316.826
834.57 18.929 0.257 2.147 1.578 3 316.838
834.593 18.836 0.26 2.142 1.584 3 316.975
