# Exported from Geomodeling Studio 8.5
# Project: RedLion
# Date: 2023-07-17T09:24:58
# User: xuepi
# Geodetic Coordinate System: NAD27 / UTM zone 12N
# 
~Version
VERS          .          3.0                                         :CWLS LOG ASCII STANDARD - VERSION 3.00
WRAP          .          NO                                          :One line per depth step
DLM           .          SPACE                                       :Delimiter character between data columns
#Delimiting character ( SPACE TAB OR COMMA ).
#----          ----      -------------                                -----------
#MNEM         .UNIT      DATA                                        :DESCRIPTION
~Well
STRT          .m         744.195                                     :FIRST INDEX VALUE
STOP          .m         849.995                                     :LAST INDEX VALUE
STEP          .m         0.0254                                      :STEP
NULL          .          -9999.990                                   :NULL VALUE
COMP          .                                                      :COMPANY
WELL          .          102/06-05-039-03W4/00                       :WELL
FLD           .                                                      :FIELD
LOC           .                  :LOCATION                              
SRVC          .                                                      :SERVICE COMPANY
CTRY          .                                                      :COUNTRY
CNTY          .                                                      :COUNTY
STAT          .                                                      :STATE
API           .                                                      :API NUMBER
DATE          .                                                      :LOG DATE
X             .          540699.200                                  :X OR EAST-WEST COORDINATE
Y             .          5797001.200                                 :Y OR NORTH-SOUTH COORDINATE
HZCS          .                                                      :HORIZONTAL CO-ORDINATE SYSTEM
GDAT          .          NAD27                                       :GEODETIC DATUM
UWI           .          102060503903W400                            :Unique Well Identifier
#----          ----      -----                                        -----------
~Parameter 
#MNEM         .UNIT      VALUE                                        Description
APD           .M         00.00                                       :Above Permanent Datum
DREF          .          KB                                          :Depth Reference (KB,DF,CB)
EREF          .m         671.100                                     :Elevation of Depth Deference
RUN           .          1                                           :Run Number
EKB           .m         671.100                                     :Kelling Bush Elevation
#----          ----      ---------                                    -----------------
#MNEM          UNIT      LOG CODES                                    Curve Description
~Curve
DEPTH         .m                                                     :DEPTH
GR            .GAPI                                                  :
NPHI          .Fraction                                              :
DEN           .g/cm^3                                                :
PEF           .Bar/e                                                 :
Lithology Facies_xueping.                                                      :
AC            .us/m                                                  :
#----          ----      ---------                                    -----------------
~Ascii
# ...
758.85 79.093 0.277 2.491 3.452 8 296.085
758.87 79.106 0.264 2.462 3.141 8 295.496
758.876 79.11 0.26 2.453 3.047 8 295.32
758.895 79.123 0.246 2.425 2.748 4 294.76
758.901 79.127 0.242 2.416 2.655 4 294.584
758.92 79.14 0.244 2.413 2.467 4 294.026
758.927 79.144 0.245 2.412 2.399 4 293.819
758.945 79.157 0.247 2.41 2.222 4 293.291
758.952 79.161 0.248 2.409 2.154 4 293.085
758.97 79.304 0.247 2.423 2.169 4 293.055
758.977 79.359 0.247 2.429 2.175 4 293.043
758.995 79.502 0.246 2.443 2.191 4 293.013
759.003 79.566 0.245 2.45 2.199 4 292.999
759.02 79.701 0.241 2.488 2.331 8 292.971
759.028 79.764 0.239 2.506 2.393 8 292.957
759.045 79.899 0.234 2.544 2.525 8 292.929
759.054 79.971 0.232 2.565 2.601 8 292.914
759.07 80.097 0.234 2.627 2.944 6 292.887
759.079 80.169 0.235 2.662 3.137 6 292.872
759.095 80.296 0.236 2.724 3.48 6 292.845
759.104 80.367 0.237 2.759 3.674 6 292.83
759.12 81.277 0.232 2.792 3.986 6 293.044
759.13 81.858 0.229 2.812 4.181 6 293.182
759.145 82.731 0.224 2.842 4.473 6 293.389
759.155 83.314 0.221 2.862 4.668 6 293.527
759.17 84.184 0.234 2.837 4.62 6 293.734
759.181 84.827 0.244 2.818 4.582 6 293.886
759.195 85.64 0.257 2.794 4.533 6 294.079
759.206 86.279 0.267 2.776 4.494 6 294.231
759.22 87.092 0.266 2.744 4.359 6 294.423
759.231 87.735 0.266 2.718 4.253 6 294.576
759.245 88.548 0.265 2.686 4.118 6 294.769
759.257 89.242 0.264 2.659 4.001 6 294.935
759.27 89.698 0.261 2.64 3.86 6 295.116
759.282 90.117 0.258 2.622 3.731 6 295.283
759.295 90.574 0.255 2.602 3.589 6 295.464
759.308 91.031 0.252 2.583 3.449 6 295.646
759.32 91.453 0.255 2.576 3.335 6 295.814
759.333 91.91 0.258 2.568 3.212 6 295.995
759.345 92.331 0.261 2.561 3.1 6 296.162
759.358 92.788 0.264 2.553 2.977 6 296.344
759.37 93.21 0.263 2.548 2.931 6 296.512
759.384 93.701 0.261 2.542 2.881 6 296.707
759.395 94.09 0.26 2.537 2.841 6 296.861
759.409 94.581 0.258 2.532 2.791 6 297.057
759.42 94.901 0.257 2.525 2.75 6 297.849
759.435 95.338 0.256 2.516 2.694 6 298.947
759.445 95.629 0.256 2.51 2.657 6 299.677
759.46 96.064 0.255 2.501 2.602 6 300.772
759.47 96.354 0.254 2.492 2.538 6 301.5
759.485 96.791 0.254 2.48 2.443 6 302.598
759.495 97.082 0.253 2.471 2.38 6 303.329
759.511 97.547 0.253 2.458 2.279 6 304.499
759.52 97.81 0.254 2.452 2.249 6 305.159
759.536 98.275 0.256 2.442 2.195 6 306.329
759.545 98.536 0.257 2.436 2.165 6 306.985
759.562 99.015 0.26 2.426 2.111 6 308.221
759.57 98.94 0.26 2.422 2.132 6 308.637
759.587 98.78 0.26 2.414 2.177 6 309.52
759.595 98.705 0.26 2.411 2.198 6 309.935
759.612 98.545 0.26 2.403 2.243 6 310.819
759.62 98.47 0.259 2.406 2.279 6 311.235
759.638 98.3 0.258 2.415 2.36 6 312.172
759.645 98.234 0.257 2.419 2.392 6 312.537
759.663 98.064 0.256 2.427 2.473 6 313.474
759.67 97.999 0.259 2.432 2.516 6 313.836
759.689 97.82 0.268 2.446 2.636 6 314.827
759.695 97.763 0.271 2.45 2.674 6 315.138
759.714 97.585 0.28 2.463 2.793 6 316.126
759.72 97.739 0.282 2.464 2.801 6 316.397
759.739 98.23 0.289 2.467 2.827 6 317.258
759.745 98.384 0.291 2.467 2.835 6 317.528
759.765 98.901 0.298 2.47 2.862 6 318.434
759.77 99.029 0.295 2.468 2.846 6 318.659
759.79 99.543 0.286 2.463 2.781 6 319.56
759.795 99.672 0.284 2.461 2.765 6 319.786
759.816 100.214 0.275 2.455 2.698 6 320.736
759.82 100.318 0.276 2.454 2.694 6 320.918
759.841 100.859 0.284 2.445 2.671 6 321.867
759.845 100.962 0.285 2.444 2.666 6 322.047
759.866 101.505 0.293 2.435 2.643 6 322.999
759.87 101.506 0.292 2.433 2.631 6 323.576
759.892 101.457 0.284 2.421 2.559 6 327.005
759.895 101.451 0.283 2.419 2.549 6 327.471
759.917 101.402 0.275 2.406 2.477 6 330.89
759.92 101.396 0.277 2.404 2.461 6 331.355
759.943 101.345 0.289 2.389 2.33 6 334.927
759.945 101.341 0.29 2.387 2.319 6 335.241
759.968 101.29 0.302 2.372 2.188 6 338.822
759.97 101.285 0.303 2.371 2.182 6 339.126
759.993 101.235 0.312 2.357 2.112 6 342.707
759.995 101.23 0.313 2.356 2.106 6 343.02
760.019 101.16 0.323 2.341 2.033 6 346.757
760.02 101.061 0.323 2.34 2.035 6 346.944
760.044 98.771 0.327 2.318 2.079 6 351.249
760.045 98.678 0.328 2.317 2.081 6 351.424
760.07 96.289 0.333 2.294 2.125 6 355.915
760.095 93.905 0.354 2.253 2.082 6 360.395
760.12 91.522 0.375 2.211 2.038 6 364.876
760.145 89.133 0.392 2.152 2.07 6 369.367
760.146 89.04 0.393 2.15 2.071 6 369.542
760.17 86.75 0.409 2.093 2.102 6 373.847
760.171 86.651 0.409 2.09 2.103 6 374.033
760.195 83.097 0.436 2.01 2.092 6 379.405
760.197 82.798 0.438 2.003 2.091 6 379.857
760.22 79.388 0.464 1.926 2.08 7 385.004
760.222 79.089 0.466 1.919 2.079 7 385.456
760.245 75.67 0.512 1.819 1.956 7 390.616
760.247 75.371 0.516 1.81 1.945 7 391.068
760.27 71.961 0.562 1.71 1.822 7 396.217
760.273 71.517 0.567 1.697 1.805 7 396.886
760.295 68.253 0.6 1.612 1.561 7 401.815
760.298 67.809 0.605 1.6 1.528 7 402.485
760.32 64.535 0.638 1.514 1.283 7 407.427
760.324 63.964 0.643 1.5 1.241 7 408.275
760.345 61.88 0.645 1.453 1.099 7 410.581
760.349 61.48 0.646 1.444 1.072 7 411.023
760.37 59.397 0.648 1.397 0.93 7 413.328
760.374 58.997 0.649 1.388 0.902 7 413.771
760.395 56.914 0.677 1.362 0.9 7 416.076
760.4 56.417 0.684 1.356 0.9 7 416.626
760.42 54.436 0.71 1.331 0.9 7 418.817
760.425 53.94 0.717 1.325 0.9 7 419.367
760.445 51.958 0.729 1.322 0.9 7 421.56
760.451 51.366 0.732 1.321 0.9 7 422.215
760.47 49.482 0.743 1.318 0.9 7 424.299
760.476 48.882 0.746 1.317 0.9 7 424.963
760.495 49.404 0.726 1.322 0.9 7 422.721
760.501 49.569 0.72 1.324 0.9 7 422.014
760.52 50.092 0.7 1.328 0.9 7 419.764
760.527 50.283 0.693 1.33 0.9 7 418.942
760.545 50.778 0.672 1.348 0.9 7 416.815
760.552 50.971 0.664 1.354 0.9 7 415.986
760.57 51.466 0.643 1.371 0.9 7 413.859
760.578 51.686 0.634 1.38 0.9 7 412.915
760.595 52.151 0.633 1.439 0.9 7 410.915
760.603 52.372 0.633 1.467 0.9 7 409.965
760.62 52.839 0.633 1.526 0.9 7 407.961
760.628 53.058 0.632 1.554 0.9 7 407.017
760.645 54.365 0.577 1.634 0.9 7 403.836
760.654 55.065 0.547 1.677 0.9 7 402.144
760.67 56.313 0.493 1.753 0.9 7 399.129
760.679 57.017 0.463 1.796 0.9 7 397.426
760.695 58.265 0.461 1.919 1.039 7 394.411
760.705 59.046 0.459 1.997 1.126 7 392.524
760.72 60.212 0.458 2.113 1.258 4 389.704
760.73 60.993 0.456 2.19 1.345 4 387.817
760.745 62.164 0.433 2.234 1.447 4 384.986
760.755 62.945 0.418 2.264 1.515 4 383.098
760.77 64.114 0.395 2.308 1.617 4 380.274
760.781 64.961 0.378 2.339 1.69 4 378.207
760.795 65.426 0.354 2.354 1.728 4 375.531
760.806 65.793 0.336 2.366 1.757 4 373.416
760.82 66.258 0.312 2.381 1.795 4 370.74
760.832 66.656 0.292 2.394 1.828 4 368.449
760.845 67.089 0.289 2.411 1.891 4 365.96
760.857 67.489 0.286 2.426 1.95 4 363.658
760.87 67.922 0.283 2.443 2.013 4 361.169
760.882 68.322 0.279 2.459 2.072 4 358.867
760.895 68.754 0.278 2.481 2.198 8 356.377
760.908 69.187 0.276 2.503 2.326 8 353.888
760.92 69.584 0.274 2.523 2.444 8 351.603
760.933 70.015 0.272 2.545 2.572 8 349.12
760.945 70.192 0.266 2.557 2.717 8 347.846
760.959 70.392 0.258 2.571 2.887 8 346.39
760.97 70.549 0.252 2.581 3.02 8 345.245
760.984 70.749 0.244 2.595 3.191 8 343.783
760.995 70.906 0.243 2.571 3.152 8 342.638
761.009 71.106 0.243 2.54 3.103 8 341.182
761.02 71.264 0.242 2.516 3.064 8 340.031
761.035 71.477 0.242 2.484 3.009 8 338.473
761.045 71.62 0.238 2.471 2.889 8 337.43
761.06 71.835 0.233 2.451 2.709 8 335.865
761.07 71.978 0.23 2.438 2.588 4 334.822
761.086 72.2 0.224 2.417 2.398 4 333.193
761.095 72.185 0.222 2.412 2.331 4 333.04
761.111 72.16 0.218 2.402 2.212 4 332.764
761.12 72.145 0.216 2.397 2.145 4 332.61
761.136 72.12 0.212 2.387 2.026 4 332.336
761.145 72.105 0.218 2.385 2.017 4 332.18
761.162 72.078 0.23 2.382 2.006 4 331.889
761.17 72.066 0.235 2.38 2.001 4 331.751
761.187 72.038 0.247 2.377 1.99 4 331.459
761.195 72.026 0.245 2.373 1.992 4 331.321
761.213 71.997 0.24 2.365 1.996 4 331.012
761.22 71.986 0.238 2.362 1.998 4 330.893
761.238 71.957 0.233 2.353 2.002 4 330.583
761.245 72.205 0.231 2.349 1.993 4 330.603
761.263 72.841 0.228 2.338 1.969 4 330.654
761.27 73.09 0.226 2.334 1.96 4 330.674
761.289 73.763 0.222 2.322 1.935 4 330.728
