# Exported from Geomodeling Studio 8.5
# Project: RedLion
# Date: 2023-07-17T09:24:58
# User: xuepi
# Geodetic Coordinate System: NAD27 / UTM zone 12N
# 
~Version
VERS          .          3.0                                         :CWLS LOG ASCII STANDARD - VERSION 3.00
WRAP          .          NO                                          :One line per depth step
DLM           .          SPACE                                       :Delimiter character between data columns
#Delimiting character ( SPACE TAB OR COMMA ).
#----          ----      -------------                                -----------
#MNEM         .UNIT      DATA                                        :DESCRIPTION
~Well
STRT          .m         744.195                                     :FIRST INDEX VALUE
STOP          .m         849.995                                     :LAST INDEX VALUE
STEP          .m         0.0254                                      :STEP
NULL          .          -9999.990                                   :NULL VALUE
COMP          .                                                      :COMPANY
WELL          .          102/06-05-039-03W4/00                       :WELL
FLD           .                                                      :FIELD
LOC           .                  :LOCATION                              
SRVC          .                                                      :SERVICE COMPANY
CTRY          .                                                      :COUNTRY
CNTY          .                                                      :COUNTY
STAT          .                                                      :STATE
API           .                                                      :API NUMBER
DATE          .                                                      :LOG DATE
X             .          540699.200                                  :X OR EAST-WEST COORDINATE
Y             .          5797001.200                                 :Y OR NORTH-SOUTH COORDINATE
HZCS          .                                                      :HORIZONTAL CO-ORDINATE SYSTEM
GDAT          .          NAD27                                       :GEODETIC DATUM
UWI           .          102060503903W400                            :Unique Well Identifier
#----          ----      -----                                        -----------
~Parameter 
#MNEM         .UNIT      VALUE                                        Description
APD           .M         00.00                                       :Above Permanent Datum
DREF          .          KB                                          :Depth Reference (KB,DF,CB)
EREF          .m         671.100                                     :Elevation of Depth Deference
RUN           .          1                                           :Run Number
EKB           .m         671.100                                     :Kelling Bush Elevation
#----          ----      ---------                                    -----------------
#MNEM          UNIT      LOG CODES                                    Curve Description
~Curve
DEPTH         .m                                                     :DEPTH
GR            .GAPI                                                  :
NPHI          .Fraction                                              :
DEN           .g/cm^3                                                :
PEF           .Bar/e                                                 :
Lithology Facies_xueping.                                                      :
AC            .us/m                                                  :
#----          ----      ---------                                    -----------------
~Ascii
# ...
751.52 66.518 0.247 2.217 2.194 4 335.118
751.535 66.375 0.249 2.215 2.192 4 334.84
751.545 66.28 0.247 2.214 2.18 4 334.655
751.561 66.127 0.243 2.212 2.16 4 334.358
751.57 66.041 0.241 2.211 2.148 4 334.19
751.586 65.888 0.238 2.209 2.128 4 333.894
751.595 65.802 0.236 2.209 2.118 4 333.727
751.611 65.649 0.232 2.208 2.1 4 333.43
751.62 65.563 0.23 2.208 2.09 4 333.263
751.637 65.402 0.227 2.207 2.072 4 332.949
751.645 65.368 0.226 2.208 2.077 4 332.866
751.662 65.296 0.224 2.209 2.088 4 332.689
751.67 65.262 0.223 2.21 2.093 4 332.606
751.688 65.186 0.222 2.211 2.105 4 332.418
751.695 65.156 0.228 2.212 2.111 4 332.345
751.713 65.08 0.243 2.212 2.127 4 332.157
751.72 65.05 0.248 2.212 2.133 4 332.085
751.738 64.974 0.263 2.213 2.148 4 331.897
751.745 64.944 0.263 2.213 2.148 4 331.824
751.764 64.864 0.26 2.213 2.147 4 331.626
751.77 64.838 0.259 2.214 2.146 4 331.563
751.789 64.758 0.257 2.214 2.145 4 331.365
751.795 64.892 0.253 2.214 2.136 4 331.364
751.815 65.359 0.242 2.216 2.106 4 331.366
751.82 65.475 0.24 2.217 2.098 4 331.367
751.84 65.941 0.228 2.218 2.068 4 331.369
751.845 66.056 0.23 2.22 2.063 4 331.37
751.865 66.523 0.238 2.225 2.044 4 331.373
751.87 66.64 0.24 2.226 2.039 4 331.373
751.891 67.129 0.247 2.231 2.019 4 331.376
751.895 67.223 0.246 2.232 2.016 4 331.376
751.916 67.713 0.238 2.237 1.999 4 331.379
751.92 67.805 0.236 2.238 1.996 4 331.38
751.942 68.32 0.228 2.244 1.978 4 331.38
751.945 68.4 0.228 2.244 1.974 4 331.362
751.967 68.988 0.227 2.249 1.944 4 331.229
751.97 69.068 0.227 2.249 1.94 4 331.211
751.992 69.658 0.227 2.254 1.91 4 331.078
751.995 69.737 0.228 2.254 1.908 4 331.06
752.018 70.352 0.238 2.255 1.893 4 330.921
752.02 70.405 0.239 2.256 1.892 4 330.909
752.043 71.021 0.248 2.257 1.876 4 330.77
752.045 71.073 0.248 2.257 1.875 4 330.758
752.069 71.715 0.237 2.258 1.863 4 330.613
752.07 71.743 0.237 2.258 1.862 4 330.607
752.094 72.384 0.227 2.258 1.849 4 330.462
752.095 72.417 0.227 2.258 1.85 4 330.41
752.119 73.225 0.241 2.26 1.865 4 329.141
752.12 73.258 0.241 2.26 1.865 4 329.089
752.145 74.099 0.256 2.262 1.881 4 327.768
752.17 74.936 0.248 2.27 1.873 4 326.453
752.195 75.776 0.24 2.279 1.866 4 325.132
752.196 75.809 0.24 2.279 1.865 4 325.08
752.22 76.615 0.256 2.291 1.862 4 323.814
752.221 76.65 0.257 2.291 1.862 4 323.759
752.245 77.456 0.273 2.302 1.859 4 322.492
752.246 77.489 0.273 2.303 1.859 4 322.441
752.27 78.508 0.271 2.317 1.878 4 321.513
752.272 78.591 0.271 2.318 1.879 4 321.438
752.295 79.57 0.268 2.332 1.898 4 320.557
752.297 79.655 0.268 2.333 1.899 4 320.48
752.32 80.634 0.258 2.35 1.924 6 319.598
752.323 80.761 0.257 2.352 1.928 6 319.483
752.345 81.694 0.247 2.368 1.951 6 318.643
752.348 81.823 0.246 2.371 1.955 6 318.527
752.37 82.758 0.252 2.384 2.01 6 317.685
752.373 82.885 0.253 2.385 2.018 6 317.57
752.395 83.822 0.259 2.398 2.073 6 316.726
752.399 83.987 0.26 2.4 2.083 6 316.575
752.42 84.413 0.263 2.404 2.121 6 315.933
752.424 84.495 0.264 2.405 2.128 6 315.81
752.445 84.921 0.266 2.409 2.166 6 315.168
752.45 85.023 0.267 2.41 2.175 6 315.015
752.47 85.428 0.267 2.406 2.212 6 314.404
752.475 85.53 0.267 2.405 2.221 6 314.251
752.495 85.935 0.267 2.4 2.257 6 313.64
752.5 86.037 0.267 2.399 2.266 6 313.487
752.52 86.443 0.262 2.391 2.306 6 312.875
752.526 86.564 0.261 2.389 2.318 6 312.692
752.545 86.95 0.256 2.381 2.356 6 312.111
752.551 87.072 0.254 2.379 2.368 6 311.926
752.57 87.26 0.255 2.377 2.4 6 311.184
752.577 87.328 0.255 2.377 2.412 6 310.909
752.595 87.504 0.256 2.375 2.442 6 310.206
752.602 87.572 0.256 2.375 2.454 6 309.931
752.62 87.748 0.26 2.378 2.476 6 309.226
752.627 87.817 0.261 2.379 2.485 6 308.951
752.645 87.993 0.264 2.382 2.507 6 308.246
752.653 88.071 0.266 2.383 2.517 6 307.932
752.67 88.236 0.272 2.386 2.57 6 307.269
752.678 88.314 0.274 2.388 2.595 6 306.957
752.695 88.48 0.28 2.392 2.649 6 306.29
752.704 88.559 0.283 2.394 2.676 6 305.955
752.72 88.333 0.284 2.394 2.711 6 306.055
752.729 88.206 0.285 2.395 2.73 6 306.111
752.745 87.98 0.287 2.396 2.764 6 306.211
752.754 87.852 0.288 2.396 2.784 6 306.267
752.77 87.626 0.279 2.392 2.781 6 306.367
752.78 87.485 0.273 2.389 2.779 6 306.429
752.795 87.274 0.264 2.385 2.776 6 306.522
752.805 87.132 0.259 2.382 2.774 6 306.584
752.82 86.921 0.263 2.375 2.735 6 306.678
752.831 86.766 0.266 2.371 2.706 6 306.746
752.845 86.568 0.27 2.365 2.669 6 306.833
752.856 86.412 0.274 2.36 2.64 6 306.902
752.87 86.603 0.269 2.357 2.584 6 306.9
752.881 86.752 0.266 2.354 2.541 6 306.899
752.895 86.944 0.261 2.351 2.485 6 306.897
752.907 87.107 0.257 2.348 2.437 6 306.895
752.92 87.284 0.26 2.349 2.399 6 306.894
752.932 87.448 0.262 2.35 2.363 6 306.892
752.945 87.625 0.265 2.351 2.325 6 306.891
752.958 87.802 0.267 2.352 2.287 6 306.889
752.97 87.965 0.263 2.351 2.291 6 306.887
752.983 88.142 0.259 2.349 2.295 6 306.886
752.995 88.306 0.255 2.347 2.298 6 306.884
753.008 88.482 0.251 2.345 2.302 6 306.883
753.02 88.566 0.247 2.343 2.305 6 306.883
753.034 88.659 0.242 2.341 2.309 6 306.883
753.045 88.732 0.239 2.339 2.312 6 306.883
753.059 88.826 0.234 2.337 2.316 6 306.883
753.07 88.9 0.241 2.341 2.321 6 306.883
753.085 89 0.25 2.347 2.328 6 306.883
753.095 89.066 0.256 2.351 2.332 6 306.883
753.11 89.167 0.265 2.356 2.338 6 306.883
753.12 89.234 0.267 2.362 2.338 6 306.883
753.135 89.334 0.269 2.37 2.338 6 306.884
753.145 89.401 0.271 2.376 2.338 6 306.884
753.161 89.508 0.273 2.385 2.338 6 306.884
753.17 89.592 0.271 2.391 2.368 6 306.892
753.186 89.742 0.268 2.403 2.421 6 306.908
753.195 89.827 0.266 2.41 2.451 6 306.917
753.212 89.987 0.263 2.423 2.508 6 306.933
753.22 90.062 0.268 2.428 2.54 6 306.941
753.237 90.222 0.277 2.44 2.608 6 306.957
753.245 90.297 0.281 2.445 2.64 6 306.965
753.262 90.457 0.29 2.456 2.709 6 306.981
753.27 90.532 0.291 2.459 2.735 6 306.989
753.288 90.701 0.292 2.465 2.793 6 307.007
753.295 90.767 0.292 2.467 2.815 6 307.013
753.313 90.936 0.293 2.472 2.874 6 307.031
753.32 91.009 0.285 2.47 2.863 6 306.994
753.339 91.208 0.26 2.463 2.831 6 306.891
753.345 91.271 0.252 2.461 2.821 6 306.859
753.364 91.471 0.228 2.454 2.79 6 306.755
753.37 91.534 0.232 2.45 2.767 6 306.723
753.389 91.733 0.244 2.438 2.696 6 306.62
753.395 91.797 0.248 2.435 2.673 6 306.587
753.415 92.006 0.261 2.422 2.598 6 306.479
753.42 92.059 0.261 2.419 2.581 6 306.452
753.44 92.269 0.258 2.407 2.51 6 306.343
753.445 92.322 0.258 2.404 2.493 6 306.316
753.466 92.545 0.256 2.392 2.42 6 306.211
753.47 92.615 0.255 2.391 2.415 6 306.271
753.491 92.983 0.252 2.386 2.393 6 306.591
753.495 93.052 0.251 2.386 2.388 6 306.651
753.516 93.42 0.247 2.381 2.366 6 306.971
753.52 93.491 0.248 2.38 2.363 6 307.032
753.542 93.876 0.25 2.379 2.346 6 307.367
753.545 93.928 0.25 2.379 2.344 6 307.412
753.567 94.314 0.252 2.378 2.328 6 307.748
753.57 94.367 0.252 2.377 2.327 6 307.793
753.593 94.77 0.247 2.375 2.32 6 308.144
753.595 94.804 0.246 2.375 2.32 6 308.173
753.618 95.207 0.242 2.373 2.313 6 308.524
753.62 95.19 0.243 2.372 2.31 6 308.601
753.643 94.989 0.256 2.366 2.279 6 309.48
753.645 94.971 0.258 2.366 2.276 6 309.557
753.669 94.762 0.272 2.36 2.244 6 310.472
753.67 94.754 0.272 2.359 2.245 6 310.509
753.694 94.545 0.274 2.354 2.264 6 311.426
753.695 94.535 0.274 2.353 2.264 6 311.466
753.72 94.318 0.276 2.347 2.284 6 312.42
753.745 94.099 0.27 2.344 2.309 6 313.377
753.77 93.881 0.265 2.342 2.334 6 314.333
753.795 93.781 0.266 2.343 2.35 6 314.456
753.796 93.777 0.267 2.343 2.351 6 314.46
753.82 93.683 0.268 2.344 2.367 6 314.565
753.821 93.679 0.268 2.344 2.368 6 314.57
753.845 93.585 0.281 2.348 2.394 6 314.675
753.847 93.577 0.282 2.349 2.396 6 314.684
753.87 93.487 0.295 2.352 2.421 6 314.785
753.872 93.479 0.296 2.353 2.423 6 314.794
753.895 93.389 0.287 2.355 2.403 6 314.895
753.897 93.381 0.287 2.355 2.402 6 314.904
753.92 93.291 0.278 2.357 2.383 6 315.005
753.923 93.273 0.277 2.358 2.38 6 315.017
753.945 92.393 0.281 2.36 2.34 6 315.063
753.948 92.273 0.281 2.36 2.334 6 315.07
753.97 91.395 0.285 2.363 2.295 6 315.116
