# Exported from Geomodeling Studio 8.5
# Project: RedLion
# Date: 2023-07-17T09:24:58
# User: xuepi
# Geodetic Coordinate System: NAD27 / UTM zone 12N
# 
~Version
VERS          .          3.0                                         :CWLS LOG ASCII STANDARD - VERSION 3.00
WRAP          .          NO                                          :One line per depth step
DLM           .          SPACE                                       :Delimiter character between data columns
#Delimiting character ( SPACE TAB OR COMMA ).
#----          ----      -------------                                -----------
#MNEM         .UNIT      DATA                                        :DESCRIPTION
~Well
STRT          .m         744.195                                     :FIRST INDEX VALUE
STOP          .m         849.995                                     :LAST INDEX VALUE
STEP          .m         0.0254                                      :STEP
NULL          .          -9999.990                                   :NULL VALUE
COMP          .                                                      :COMPANY
WELL          .          102/06-05-039-03W4/00                       :WELL
FLD           .                                                      :FIELD
LOC           .                  :LOCATION                              
SRVC          .                                                      :SERVICE COMPANY
CTRY          .                                                      :COUNTRY
CNTY          .                                                      :COUNTY
STAT          .                                                      :STATE
API           .                                                      :API NUMBER
DATE          .                                                      :LOG DATE
X             .          540699.200                                  :X OR EAST-WEST COORDINATE
Y             .          5797001.200                                 :Y OR NORTH-SOUTH COORDINATE
HZCS          .                                                      :HORIZONTAL CO-ORDINATE SYSTEM
GDAT          .          NAD27                                       :GEODETIC DATUM
UWI           .          102060503903W400                            :Unique Well Identifier
#----          ----      -----                                        -----------
~Parameter 
#MNEM         .UNIT      VALUE                                        Description
APD           .M         00.00                                       :Above Permanent Datum
DREF          .          KB                                          :Depth Reference (KB,DF,CB)
EREF          .m         671.100                                     :Elevation of Depth Deference
RUN           .          1                                           :Run Number
EKB           .m         671.100                                     :Kelling Bush Elevation
#----          ----      ---------                                    -----------------
#MNEM          UNIT      LOG CODES                                    Curve Description
~Curve
DEPTH         .m                                                     :DEPTH
GR            .GAPI                                                  :
NPHI          .Fraction                                              :
DEN           .g/cm^3                                                :
PEF           .Bar/e                                                 :
Lithology Facies_xueping.                                                      :
AC            .us/m                                                  :
#----          ----      ---------                                    -----------------
~Ascii
744.195 89.281 0.264 2.379 2.502 6 299.626
744.22 87.963 0.287 2.376 2.519 6 295.94
744.245 86.645 0.264 2.371 2.469 6 292.254
744.27 85.324 0.242 2.365 2.42 6 288.559
744.271 85.273 0.241 2.364 2.418 6 288.415
744.295 84.006 0.239 2.372 2.379 6 284.874
744.296 83.952 0.239 2.372 2.377 6 284.721
744.32 82.686 0.238 2.379 2.338 6 281.179
744.322 82.563 0.238 2.38 2.336 6 280.87
744.345 80.454 0.234 2.408 2.369 6 276.839
744.347 80.268 0.234 2.41 2.372 6 276.485
744.37 78.154 0.23 2.438 2.405 4 272.444
744.372 77.969 0.23 2.44 2.408 4 272.09
744.395 75.859 0.228 2.483 2.546 8 268.058
744.398 75.585 0.228 2.489 2.564 8 267.534
744.42 73.566 0.227 2.531 2.697 8 263.674
744.423 73.291 0.227 2.536 2.716 8 263.149
744.445 71.266 0.221 2.589 2.946 8 259.279
744.449 70.901 0.22 2.599 2.988 8 258.582
744.47 68.972 0.214 2.65 3.209 8 254.895
744.474 68.602 0.213 2.66 3.251 8 254.187
744.495 67.4 0.206 2.708 3.545 8 252.88
744.499 67.17 0.205 2.717 3.602 8 252.63
744.52 65.968 0.198 2.765 3.896 8 251.323
744.525 65.682 0.196 2.776 3.966 8 251.012
744.545 64.54 0.193 2.798 4.187 8 249.77
744.55 64.253 0.192 2.804 4.242 8 249.458
744.57 63.11 0.188 2.826 4.464 8 248.215
744.576 62.769 0.187 2.832 4.527 8 247.844
744.595 61.682 0.185 2.833 4.603 8 246.663
744.601 61.337 0.185 2.833 4.627 8 246.287
744.62 60.25 0.183 2.834 4.703 8 245.106
744.626 59.908 0.183 2.834 4.727 8 244.733
744.645 59.679 0.174 2.828 4.747 8 243.813
744.652 59.602 0.171 2.825 4.753 8 243.479
744.67 59.404 0.163 2.819 4.77 8 242.615
744.677 59.326 0.16 2.817 4.777 8 242.278
744.695 59.128 0.167 2.791 4.774 8 241.414
744.703 59.04 0.17 2.779 4.773 8 241.03
744.72 58.853 0.176 2.754 4.77 8 240.218
744.728 58.765 0.179 2.743 4.769 8 239.832
744.745 58.578 0.176 2.712 4.643 8 239.018
744.753 58.49 0.174 2.698 4.584 8 238.634
744.77 58.302 0.171 2.667 4.459 8 237.817
744.779 58.212 0.17 2.651 4.393 8 237.397
744.795 58.774 0.179 2.637 4.279 8 237.606
744.804 59.092 0.184 2.629 4.215 8 237.724
744.82 59.655 0.193 2.615 4.102 8 237.932
744.83 60.007 0.199 2.607 4.029 8 238.063
744.845 60.534 0.196 2.603 3.864 8 238.258
744.855 60.886 0.194 2.6 3.754 8 238.389
744.87 61.414 0.191 2.596 3.589 8 238.585
744.88 61.767 0.189 2.594 3.479 8 238.715
744.895 62.294 0.2 2.607 3.424 8 238.911
744.906 62.679 0.209 2.617 3.385 8 239.054
744.92 63.171 0.219 2.63 3.337 8 239.236
744.931 63.56 0.227 2.641 3.298 8 239.38
744.945 63.921 0.225 2.671 3.372 8 241.31
744.957 64.228 0.223 2.697 3.435 8 242.982
744.97 64.562 0.22 2.726 3.505 8 244.798
744.982 64.87 0.218 2.752 3.569 8 246.478
744.995 65.204 0.219 2.779 3.81 8 248.295
745.007 65.513 0.219 2.803 4.032 8 249.975
745.02 65.847 0.22 2.83 4.272 8 251.791
745.033 66.181 0.221 2.856 4.509 8 253.608
745.045 66.487 0.232 2.845 4.554 8 255.275
745.058 66.82 0.244 2.834 4.602 8 257.088
745.07 67.129 0.255 2.823 4.647 8 258.768
745.084 67.501 0.267 2.811 4.705 8 260.716
745.095 68.177 0.252 2.831 4.928 8 262.105
745.109 69.041 0.233 2.857 5.212 8 263.881
745.12 69.717 0.218 2.877 5.434 8 265.27
745.134 70.577 0.199 2.902 5.717 8 267.038
745.145 71.257 0.203 2.86 5.536 8 268.435
745.16 72.177 0.21 2.799 5.268 8 270.326
745.17 72.793 0.215 2.759 5.089 8 271.592
745.185 73.717 0.222 2.698 4.82 8 273.491
745.195 74.333 0.227 2.679 4.588 8 274.757
745.211 75.317 0.234 2.648 4.215 8 276.779
745.22 75.868 0.237 2.63 4.006 8 277.911
745.236 76.854 0.244 2.6 3.633 8 279.937
745.245 77.358 0.244 2.586 3.462 8 280.39
745.261 78.257 0.244 2.561 3.159 8 281.197
745.27 78.765 0.244 2.548 2.987 8 281.653
745.287 79.719 0.244 2.522 2.667 8 282.51
745.295 80.169 0.252 2.516 2.615 6 282.914
745.312 81.127 0.268 2.502 2.503 6 283.774
745.32 81.576 0.275 2.496 2.45 6 284.177
745.338 82.589 0.292 2.482 2.334 6 285.086
745.345 82.98 0.284 2.479 2.323 6 285.438
745.363 83.992 0.266 2.471 2.296 6 286.347
745.37 84.386 0.258 2.467 2.285 6 286.701
745.388 85.396 0.239 2.459 2.258 6 287.607
745.395 85.891 0.242 2.456 2.253 6 288.883
745.414 87.245 0.252 2.447 2.242 6 292.493
745.42 87.672 0.255 2.444 2.239 6 293.63
745.439 89.03 0.265 2.436 2.228 6 297.252
745.445 89.457 0.269 2.433 2.227 6 298.39
745.465 90.885 0.282 2.425 2.223 6 302.197
745.47 91.238 0.286 2.422 2.222 6 303.137
745.49 92.667 0.299 2.414 2.218 6 306.945
745.495 93.024 0.296 2.412 2.225 6 307.897
745.515 94.452 0.283 2.404 2.25 6 311.704
745.52 94.809 0.28 2.402 2.257 6 312.656
745.541 96.295 0.267 2.393 2.283 6 316.608
745.545 96.378 0.264 2.394 2.282 6 316.691
745.566 96.815 0.247 2.4 2.273 6 317.131
745.57 96.9 0.244 2.401 2.271 6 317.216
745.592 97.359 0.227 2.406 2.261 6 317.677
745.595 97.421 0.229 2.406 2.262 6 317.74
745.617 97.882 0.244 2.406 2.267 6 318.203
745.62 97.945 0.246 2.406 2.268 6 318.265
745.642 98.405 0.261 2.406 2.273 6 318.728
745.645 98.468 0.262 2.405 2.274 6 318.791
745.668 98.949 0.269 2.4 2.283 6 319.274
745.67 98.989 0.27 2.4 2.284 6 319.315
745.693 99.47 0.277 2.395 2.293 6 319.798
745.695 99.536 0.277 2.395 2.292 6 319.851
745.719 100.346 0.272 2.39 2.282 6 320.493
745.72 100.379 0.272 2.39 2.282 6 320.519
745.744 101.192 0.268 2.385 2.272 6 321.163
745.745 101.225 0.268 2.385 2.27 6 321.189
745.769 102.037 0.264 2.383 2.238 6 321.832
745.77 102.072 0.264 2.383 2.236 6 321.86
745.795 102.916 0.26 2.381 2.202 6 322.529
745.82 103.763 0.255 2.379 2.178 6 323.2
745.845 104.608 0.251 2.378 2.154 6 323.869
745.846 104.632 0.251 2.378 2.154 6 323.9
745.87 104.849 0.266 2.381 2.166 6 324.728
745.871 104.858 0.266 2.381 2.166 6 324.762
745.895 105.075 0.281 2.384 2.178 6 325.59
745.896 105.083 0.282 2.384 2.178 6 325.624
745.92 105.3 0.282 2.385 2.18 6 326.452
745.922 105.318 0.282 2.385 2.181 6 326.521
745.945 105.526 0.282 2.385 2.183 6 327.316
745.947 105.545 0.282 2.385 2.183 6 327.385
745.97 105.752 0.277 2.382 2.187 6 328.178
745.973 105.78 0.276 2.382 2.188 6 328.283
745.995 105.978 0.272 2.379 2.192 6 329.042
745.998 106.005 0.271 2.379 2.193 6 329.145
746.02 105.477 0.278 2.373 2.191 6 331.12
746.023 105.406 0.279 2.372 2.191 6 331.388
746.045 104.88 0.285 2.366 2.189 6 333.353
746.049 104.784 0.286 2.365 2.189 6 333.714
746.07 104.281 0.282 2.355 2.207 6 335.596
746.074 104.186 0.281 2.353 2.21 6 335.951
746.095 103.683 0.276 2.342 2.228 6 337.834
746.1 103.563 0.275 2.34 2.232 6 338.282
746.12 103.083 0.27 2.323 2.245 6 340.077
746.125 102.963 0.268 2.319 2.249 6 340.526
746.145 102.484 0.263 2.302 2.262 6 342.32
746.15 102.364 0.261 2.298 2.265 6 342.769
746.17 101.573 0.272 2.275 2.257 6 345.13
746.176 101.332 0.275 2.268 2.255 6 345.849
746.195 100.575 0.286 2.247 2.247 6 348.105
746.201 100.336 0.289 2.24 2.245 6 348.816
746.22 99.581 0.296 2.212 2.219 6 351.067
746.227 99.301 0.299 2.202 2.209 6 351.899
746.245 98.583 0.306 2.175 2.184 6 354.04
746.252 98.303 0.309 2.165 2.175 6 354.874
746.27 97.585 0.314 2.139 2.126 6 357.014
746.277 97.307 0.316 2.128 2.107 6 357.841
746.295 96.589 0.321 2.102 2.057 6 359.981
746.303 96.272 0.323 2.09 2.036 6 360.911
746.32 95.804 0.356 2.071 2.015 6 361.034
746.328 95.585 0.372 2.061 2.005 6 361.091
746.345 95.119 0.404 2.042 1.984 6 361.213
746.354 94.871 0.421 2.032 1.973 6 361.278
746.37 94.433 0.417 2.021 1.941 6 361.392
746.379 94.186 0.415 2.015 1.923 6 361.457
746.395 93.746 0.411 2.004 1.892 6 361.572
746.404 93.5 0.409 1.998 1.874 6 361.637
746.42 93.061 0.419 2.008 1.874 6 361.751
746.43 92.786 0.426 2.016 1.875 6 361.823
746.445 92.374 0.436 2.026 1.876 6 361.931
746.455 92.099 0.443 2.034 1.876 6 362.003
746.47 91.655 0.435 2.062 1.892 6 361.01
746.481 91.327 0.429 2.083 1.903 6 360.266
746.495 90.912 0.422 2.11 1.918 6 359.324
746.506 90.585 0.416 2.131 1.93 6 358.585
746.52 90.168 0.411 2.16 1.935 6 357.639
746.531 89.842 0.407 2.183 1.94 6 356.9
746.545 89.428 0.402 2.212 1.945 6 355.961
746.557 89.071 0.398 2.236 1.95 6 355.153
746.57 88.685 0.381 2.254 1.949 6 354.277
746.582 88.33 0.365 2.271 1.948 6 353.472
746.595 87.944 0.348 2.288 1.947 6 352.596
746.608 87.567 0.331 2.306 1.947 6 351.695
746.62 87.534 0.33 2.32 1.995 6 350.028
