# Exported from Geomodeling Studio 8.5
# Project: RedLion
# Date: 2023-07-17T09:24:58
# User: xuepi
# Geodetic Coordinate System: NAD27 / UTM zone 12N
# 
~Version
VERS          .          3.0                                         :CWLS LOG ASCII STANDARD - VERSION 3.00
WRAP          .          NO                                          :One line per depth step
DLM           .          SPACE                                       :Delimiter character between data columns
#Delimiting character ( SPACE TAB OR COMMA ).
#----          ----      -------------                                -----------
#MNEM         .UNIT      DATA                                        :DESCRIPTION
~Well
STRT          .m         744.195                                     :FIRST INDEX VALUE
STOP          .m         849.995                                     :LAST INDEX VALUE
STEP          .m         0.0254                                      :STEP
NULL          .          -9999.990                                   :NULL VALUE
COMP          .                                                      :COMPANY
WELL          .          102/06-05-039-03W4/00                       :WELL
FLD           .                                                      :FIELD
LOC           .                  :LOCATION                              
SRVC          .                                                      :SERVICE COMPANY
CTRY          .                                                      :COUNTRY
CNTY          .                                                      :COUNTY
STAT          .                                                      :STATE
API           .                                                      :API NUMBER
DATE          .                                                      :LOG DATE
X             .          540699.200                                  :X OR EAST-WEST COORDINATE
Y             .          5797001.200                                 :Y OR NORTH-SOUTH COORDINATE
HZCS          .                                                      :HORIZONTAL CO-ORDINATE SYSTEM
GDAT          .          NAD27                                       :GEODETIC DATUM
UWI           .          102060503903W400                            :Unique Well Identifier
#----          ----      -----                                        -----------
~Parameter 
#MNEM         .UNIT      VALUE                                        Description
APD           .M         00.00                                       :Above Permanent Datum
DREF          .          KB                                          :Depth Reference (KB,DF,CB)
EREF          .m         671.100                                     :Elevation of Depth Deference
RUN           .          1                                           :Run Number
EKB           .m         671.100                                     :Kelling Bush Elevation
#----          ----      ---------                                    -----------------
#MNEM          UNIT      LOG CODES                                    Curve Description
~Curve
DEPTH         .m                                                     :DEPTH
GR            .GAPI                                                  :
NPHI          .Fraction                                              :
DEN           .g/cm^3                                                :
PEF           .Bar/e                                                 :
Lithology Facies_xueping.                                                      :
AC            .us/m                                                  :
#----          ----      ---------                                    -----------------
~Ascii
# ...
839.521 21.413 0.175 2.363 2.197 3 315.095
839.545 21.011 0.163 2.374 2.201 3 315.098
839.546 20.993 0.162 2.374 2.201 3 315.098
839.57 20.591 0.15 2.385 2.204 3 315.1
839.572 20.561 0.15 2.386 2.204 3 315.1
839.595 20.408 0.148 2.399 2.193 3 315.1
839.597 20.395 0.148 2.4 2.192 3 315.1
839.62 20.241 0.146 2.413 2.18 3 315.1
839.622 20.228 0.146 2.414 2.179 3 315.1
839.645 20.075 0.127 2.439 2.155 3 315.1
839.648 20.055 0.125 2.442 2.151 3 315.1
839.67 19.908 0.106 2.466 2.128 8 315.1
839.673 19.888 0.104 2.469 2.124 8 315.1
839.695 19.741 0.093 2.506 2.228 8 315.1
839.699 19.715 0.091 2.512 2.247 8 315.1
839.72 19.575 0.08 2.547 2.348 8 315.1
839.724 19.548 0.078 2.554 2.367 8 315.1
839.745 19.336 0.064 2.572 2.452 8 315.1
839.749 19.295 0.061 2.576 2.468 8 315.1
839.77 19.082 0.047 2.594 2.552 8 315.1
839.775 19.032 0.044 2.598 2.572 8 315.1
839.795 18.83 0.037 2.607 2.626 8 315.1
839.8 18.779 0.035 2.61 2.64 8 315.1
839.82 18.577 0.027 2.619 2.694 8 315.1
839.826 18.517 0.025 2.622 2.71 8 315.1
839.845 18.325 0.027 2.624 2.742 8 315.1
839.851 18.264 0.027 2.625 2.753 8 315.1
839.87 18.072 0.029 2.627 2.786 8 315.1
839.876 18.011 0.03 2.628 2.796 8 315.1
839.895 18.103 0.031 2.627 2.8 8 315.1
839.902 18.139 0.032 2.627 2.802 8 315.1
839.92 18.231 0.034 2.626 2.805 8 315.1
839.927 18.267 0.034 2.626 2.806 8 315.1
839.945 18.36 0.041 2.627 2.812 8 315.1
839.953 18.401 0.044 2.628 2.814 8 315.1
839.97 18.488 0.05 2.63 2.82 8 315.1
839.978 18.529 0.052 2.63 2.822 8 315.1
839.995 18.616 0.064 2.636 2.858 8 315.1
840.003 18.657 0.069 2.639 2.875 8 315.1
840.02 18.745 0.08 2.645 2.911 8 315.1
840.029 18.791 0.086 2.648 2.931 8 315.1
840.045 18.913 0.097 2.653 3 8 315.1
840.054 18.982 0.103 2.656 3.04 8 315.1
840.07 19.103 0.113 2.661 3.109 8 315.1
840.08 19.179 0.12 2.664 3.151 8 315.1
840.095 19.293 0.126 2.666 3.179 8 315.1
840.105 19.369 0.131 2.667 3.198 8 315.1
840.12 19.483 0.137 2.669 3.226 8 315.1
840.13 19.559 0.142 2.67 3.245 8 315.1
840.145 19.673 0.152 2.67 3.243 8 315.1
840.156 19.756 0.16 2.67 3.241 8 315.1
840.17 19.862 0.17 2.67 3.238 8 315.1
840.181 19.946 0.178 2.67 3.236 8 315.1
840.195 20.001 0.174 2.67 3.234 8 315.1
840.207 20.047 0.17 2.671 3.232 8 315.1
840.22 20.096 0.166 2.671 3.231 8 315.1
840.232 20.142 0.163 2.672 3.229 8 315.1
840.245 20.192 0.166 2.674 3.218 8 315.1
840.257 20.238 0.168 2.676 3.208 8 315.1
840.27 20.288 0.171 2.678 3.198 8 315.1
840.283 20.338 0.174 2.68 3.187 8 315.1
840.295 20.384 0.179 2.682 3.178 8 315.1
840.308 20.434 0.184 2.684 3.169 8 315.1
840.32 20.48 0.189 2.685 3.16 8 315.1
840.334 20.533 0.195 2.687 3.15 8 315.1
840.345 20.554 0.191 2.688 3.168 8 315.1
840.359 20.582 0.187 2.689 3.192 8 315.1
840.37 20.603 0.183 2.69 3.21 8 315.1
840.384 20.63 0.179 2.691 3.233 8 315.1
840.395 20.652 0.175 2.69 3.25 8 315.1
840.41 20.681 0.169 2.688 3.273 8 315.1
840.42 20.701 0.165 2.687 3.288 8 315.1
840.435 20.73 0.159 2.685 3.311 8 315.1
840.445 20.749 0.161 2.683 3.315 8 315.1
840.461 20.781 0.166 2.679 3.321 8 315.1
840.47 20.798 0.168 2.677 3.324 8 315.1
840.486 20.829 0.172 2.674 3.33 8 315.1
840.495 20.812 0.17 2.672 3.339 8 315.1
840.511 20.781 0.167 2.669 3.355 8 315.1
840.52 20.763 0.166 2.667 3.364 8 315.1
840.537 20.73 0.163 2.664 3.382 8 315.1
840.545 20.714 0.165 2.665 3.378 8 315.1
840.562 20.681 0.169 2.668 3.369 8 315.1
840.57 20.665 0.172 2.669 3.365 8 315.1
840.588 20.63 0.176 2.671 3.357 8 315.1
840.595 20.616 0.175 2.671 3.364 8 315.1
840.613 20.581 0.173 2.672 3.383 8 315.1
840.62 20.567 0.172 2.672 3.39 8 315.1
840.638 20.532 0.17 2.672 3.408 8 315.1
840.645 20.556 0.169 2.671 3.406 8 315.1
840.664 20.627 0.165 2.668 3.399 8 315.1
840.67 20.649 0.164 2.667 3.397 8 315.1
840.689 20.721 0.16 2.664 3.39 8 315.1
840.695 20.743 0.16 2.663 3.376 8 315.1
840.715 20.818 0.157 2.659 3.329 8 315.1
840.72 20.837 0.157 2.658 3.317 8 315.1
840.74 20.912 0.154 2.654 3.27 8 315.1
840.745 20.931 0.155 2.654 3.261 8 315.1
840.765 21.006 0.159 2.655 3.225 8 315.1
840.77 21.025 0.16 2.655 3.216 8 315.1
840.791 21.102 0.163 2.655 3.179 8 315.1
840.795 21.096 0.162 2.656 3.178 8 315.1
840.816 21.062 0.158 2.66 3.175 8 315.1
840.82 21.056 0.157 2.66 3.174 8 315.1
840.842 21.021 0.152 2.665 3.171 8 315.1
840.845 21.016 0.152 2.665 3.173 8 315.1
840.867 20.981 0.151 2.667 3.186 8 315.1
840.87 20.976 0.151 2.668 3.188 8 315.1
840.892 20.941 0.151 2.67 3.2 8 315.1
840.895 20.936 0.151 2.671 3.204 8 315.1
840.918 20.899 0.149 2.674 3.232 8 315.1
840.92 20.896 0.149 2.674 3.235 8 315.1
840.943 20.859 0.148 2.678 3.263 8 315.1
840.945 20.859 0.148 2.678 3.261 8 315.1
840.969 20.855 0.148 2.681 3.231 8 315.1
840.97 20.855 0.148 2.681 3.23 8 315.1
840.994 20.852 0.149 2.683 3.201 8 315.1
840.995 20.852 0.149 2.683 3.199 8 315.1
841.019 20.849 0.154 2.683 3.167 8 315.1
841.02 20.849 0.155 2.683 3.166 8 315.1
841.045 20.845 0.16 2.683 3.133 8 315.1
841.07 20.842 0.165 2.682 3.11 8 315.1
841.095 20.839 0.17 2.681 3.087 8 315.1
841.096 20.837 0.17 2.681 3.086 8 315.1
841.12 20.742 0.169 2.68 3.083 8 315.1
841.121 20.739 0.169 2.68 3.083 8 315.1
841.145 20.644 0.169 2.679 3.079 8 315.1
841.146 20.64 0.169 2.679 3.079 8 315.1
841.17 20.545 0.174 2.679 3.103 8 315.1
841.172 20.537 0.175 2.679 3.105 8 315.1
841.195 20.446 0.181 2.679 3.129 8 315.1
841.197 20.438 0.181 2.679 3.131 8 315.1
841.22 20.347 0.181 2.679 3.134 8 315.1
841.223 20.335 0.181 2.678 3.135 8 315.1
841.245 20.248 0.181 2.678 3.138 8 315.1
841.248 20.236 0.181 2.678 3.138 8 315.1
841.27 19.872 0.177 2.674 3.13 8 315.1
841.273 19.822 0.177 2.674 3.129 8 315.1
841.295 19.459 0.173 2.671 3.122 8 315.1
841.299 19.392 0.172 2.67 3.121 8 315.1
841.32 19.045 0.178 2.666 3.149 8 315.1
841.324 18.979 0.179 2.665 3.154 8 315.1
841.345 18.631 0.185 2.66 3.182 8 315.1
841.35 18.548 0.186 2.659 3.188 8 315.1
841.37 18.217 0.18 2.659 3.183 8 315.1
841.375 18.134 0.178 2.658 3.182 8 315.1
841.395 17.802 0.172 2.657 3.176 8 315.1
841.4 17.719 0.17 2.657 3.175 8 315.1
841.42 17.671 0.173 2.659 3.158 8 315.1
841.426 17.659 0.174 2.659 3.153 8 315.1
841.445 17.618 0.177 2.66 3.136 8 315.1
841.451 17.606 0.178 2.661 3.131 8 315.1
841.47 17.565 0.173 2.665 3.142 8 315.1
841.477 17.55 0.17 2.667 3.147 8 315.1
841.495 17.512 0.165 2.672 3.158 8 315.1
841.502 17.497 0.163 2.674 3.163 8 315.1
841.52 17.459 0.16 2.676 3.173 8 315.1
841.527 17.444 0.159 2.677 3.177 8 315.1
841.545 17.406 0.157 2.68 3.187 8 315.1
841.553 17.389 0.156 2.681 3.191 8 315.1
841.57 17.371 0.155 2.682 3.223 8 315.1
841.578 17.362 0.154 2.683 3.238 8 315.1
841.595 17.344 0.153 2.685 3.27 8 315.1
841.604 17.335 0.153 2.686 3.287 8 315.1
841.62 17.318 0.161 2.687 3.307 8 315.1
841.629 17.308 0.165 2.687 3.319 8 315.1
841.645 17.291 0.173 2.688 3.339 8 315.1
841.654 17.282 0.177 2.689 3.351 8 315.1
841.67 17.265 0.178 2.689 3.376 8 315.1
841.68 17.254 0.178 2.689 3.391 8 315.1
841.695 17.238 0.179 2.69 3.414 8 315.1
841.705 17.228 0.18 2.69 3.43 8 315.1
841.72 17.443 0.176 2.69 3.435 8 315.1
841.731 17.603 0.174 2.689 3.438 8 315.1
841.745 17.807 0.17 2.689 3.443 8 315.1
841.756 17.967 0.168 2.689 3.446 8 315.1
841.77 18.171 0.168 2.689 3.452 8 315.1
841.781 18.331 0.169 2.689 3.456 8 315.1
841.795 18.534 0.169 2.689 3.462 8 315.1
841.807 18.709 0.17 2.69 3.466 8 315.1
841.82 18.898 0.172 2.688 3.479 8 315.1
841.832 19.072 0.174 2.687 3.491 8 315.1
841.845 19.261 0.176 2.685 3.504 8 315.1
841.858 19.445 0.178 2.683 3.517 8 315.1
841.87 19.447 0.178 2.681 3.511 8 315.1
841.883 19.448 0.179 2.679 3.504 8 315.1
841.895 19.45 0.179 2.678 3.497 8 315.1
841.908 19.452 0.179 2.676 3.491 8 315.1
841.92 19.453 0.175 2.677 3.49 8 315.1
841.934 19.455 0.169 2.679 3.49 8 315.1
841.945 19.457 0.165 2.68 3.489 8 315.1
841.959 19.458 0.159 2.682 3.489 8 315.1
841.97 19.46 0.16 2.686 3.474 8 315.1
841.985 19.462 0.162 2.693 3.454 8 315.1
841.995 19.463 0.163 2.697 3.44 8 315.1
842.01 19.465 0.164 2.703 3.419 8 315.1
842.02 19.464 0.164 2.703 3.409 8 315.1
842.035 19.462 0.162 2.704 3.394 8 315.1
842.045 19.46 0.162 2.705 3.383 8 315.1
