# Exported from Geomodeling Studio 8.5
# Project: RedLion
# Date: 2023-07-17T09:24:58
# User: xuepi
# Geodetic Coordinate System: NAD27 / UTM zone 12N
# 
~Version
VERS          .          3.0                                         :CWLS LOG ASCII STANDARD - VERSION 3.00
WRAP          .          NO                                          :One line per depth step
DLM           .          SPACE                                       :Delimiter character between data columns
#Delimiting character ( SPACE TAB OR COMMA ).
#----          ----      -------------                                -----------
#MNEM         .UNIT      DATA                                        :DESCRIPTION
~Well
STRT          .m         744.195                                     :FIRST INDEX VALUE
STOP          .m         849.995                                     :LAST INDEX VALUE
STEP          .m         0.0254                                      :STEP
NULL          .          -9999.990                                   :NULL VALUE
COMP          .                                                      :COMPANY
WELL          .          102/06-05-039-03W4/00                       :WELL
FLD           .                                                      :FIELD
LOC           .                  :LOCATION                              
SRVC          .                                                      :SERVICE COMPANY
CTRY          .                                                      :COUNTRY
CNTY          .                                                      :COUNTY
STAT          .                                                      :STATE
API           .                                                      :API NUMBER
DATE          .                                                      :LOG DATE
X             .          540699.200                                  :X OR EAST-WEST COORDINATE
Y             .          5797001.200                                 :Y OR NORTH-SOUTH COORDINATE
HZCS          .                                                      :HORIZONTAL CO-ORDINATE SYSTEM
GDAT          .          NAD27                                       :GEODETIC DATUM
UWI           .          102060503903W400                            :Unique Well Identifier
#----          ----      -----                                        -----------
~Parameter 
#MNEM         .UNIT      VALUE                                        Description
APD           .M         00.00                                       :Above Permanent Datum
DREF          .          KB                                          :Depth Reference (KB,DF,CB)
EREF          .m         671.100                                     :Elevation of Depth Deference
RUN           .          1                                           :Run Number
EKB           .m         671.100                                     :Kelling Bush Elevation
#----          ----      ---------                                    -----------------
#MNEM          UNIT      LOG CODES                                    Curve Description
~Curve
DEPTH         .m                                                     :DEPTH
GR            .GAPI                                                  :
NPHI          .Fraction                                              :
DEN           .g/cm^3                                                :
PEF           .Bar/e                                                 :
Lithology Facies_xueping.                                                      :
AC            .us/m                                                  :
#----          ----      ---------                                    -----------------
~Ascii
# ...
771.07 79.427 0.264 2.335 2.494 4 298.16
771.093 78.826 0.269 2.323 2.563 4 297.002
771.095 78.775 0.269 2.323 2.56 4 296.904
771.119 78.148 0.27 2.326 2.522 4 295.694
771.12 78.122 0.27 2.326 2.521 4 295.645
771.144 77.497 0.272 2.329 2.482 4 294.439
771.145 77.455 0.272 2.33 2.48 4 294.183
771.169 76.483 0.287 2.337 2.417 4 288.278
771.17 76.444 0.288 2.338 2.414 4 288.038
771.195 75.433 0.302 2.346 2.349 4 281.891
771.22 74.422 0.279 2.357 2.352 4 275.745
771.245 73.409 0.256 2.368 2.354 4 269.584
771.246 73.369 0.256 2.369 2.354 4 269.344
771.27 72.396 0.256 2.388 2.373 4 263.423
771.271 72.356 0.256 2.388 2.373 4 263.183
771.295 71.385 0.257 2.407 2.391 4 257.277
771.296 71.343 0.257 2.408 2.392 4 257.022
771.32 69.646 0.25 2.444 2.465 4 252.319
771.322 69.502 0.249 2.447 2.471 4 251.926
771.345 67.872 0.242 2.481 2.541 8 247.456
771.347 67.729 0.241 2.484 2.547 8 247.064
771.37 66.09 0.217 2.525 2.694 8 242.571
771.373 65.877 0.214 2.53 2.713 8 241.987
771.395 64.308 0.191 2.57 2.854 8 237.685
771.398 64.095 0.188 2.575 2.874 8 237.101
771.42 62.53 0.172 2.605 3.006 8 232.81
771.423 62.317 0.17 2.61 3.024 8 232.226
771.445 60.748 0.153 2.64 3.156 8 227.924
771.449 60.472 0.15 2.645 3.18 8 227.151
771.47 59.722 0.133 2.661 3.296 8 223.212
771.474 59.578 0.13 2.664 3.318 8 222.457
771.495 58.828 0.113 2.68 3.434 8 218.518
771.5 58.649 0.11 2.684 3.46 8 217.579
771.52 57.936 0.106 2.684 3.495 8 213.833
771.525 57.757 0.105 2.684 3.504 8 212.896
771.545 57.044 0.101 2.684 3.539 8 209.153
771.55 56.865 0.1 2.684 3.548 8 208.214
771.57 56.15 0.09 2.684 3.564 8 204.458
771.576 55.936 0.087 2.684 3.569 8 203.336
771.595 55.258 0.077 2.684 3.583 8 199.776
771.601 55.042 0.074 2.685 3.588 8 198.642
771.62 54.667 0.078 2.686 3.616 8 196.584
771.627 54.53 0.079 2.687 3.627 8 195.828
771.645 54.177 0.083 2.688 3.654 8 193.89
771.652 54.041 0.084 2.689 3.664 8 193.141
771.67 53.689 0.081 2.687 3.669 8 191.207
771.677 53.552 0.08 2.687 3.672 8 190.453
771.695 53.199 0.077 2.685 3.677 8 188.514
771.703 53.043 0.076 2.684 3.68 8 187.653
771.72 52.71 0.077 2.682 3.682 8 185.827
771.728 52.553 0.077 2.681 3.683 8 184.959
771.745 52.22 0.078 2.678 3.685 8 183.132
771.754 52.052 0.078 2.677 3.685 8 182.207
771.77 52.075 0.075 2.675 3.669 8 182.258
771.779 52.088 0.074 2.674 3.661 8 182.286
771.795 52.11 0.071 2.672 3.645 8 182.337
771.804 52.123 0.07 2.671 3.636 8 182.366
771.82 52.146 0.076 2.671 3.628 8 182.416
771.83 52.16 0.079 2.671 3.623 8 182.448
771.845 52.181 0.085 2.672 3.616 8 182.495
771.855 52.195 0.088 2.672 3.612 8 182.527
771.87 52.216 0.089 2.673 3.608 8 182.575
771.881 52.232 0.089 2.673 3.606 8 182.609
771.895 52.252 0.089 2.674 3.603 8 182.654
771.906 52.267 0.089 2.675 3.6 8 182.689
771.92 52.424 0.087 2.673 3.587 8 185.061
771.931 52.548 0.086 2.672 3.576 8 186.936
771.945 52.704 0.084 2.671 3.563 8 189.308
771.957 52.838 0.083 2.67 3.552 8 191.338
771.97 52.984 0.08 2.668 3.546 8 193.545
771.982 53.119 0.078 2.666 3.541 8 195.585
771.995 53.264 0.075 2.664 3.536 8 197.787
772.008 53.41 0.073 2.663 3.531 8 199.988
772.02 53.544 0.078 2.663 3.525 8 202.029
772.033 53.69 0.084 2.664 3.518 8 204.235
772.045 53.824 0.089 2.664 3.512 8 206.265
772.058 53.97 0.094 2.665 3.505 8 208.472
772.07 54.582 0.095 2.666 3.517 8 211.346
772.084 55.314 0.096 2.666 3.531 8 214.722
772.095 55.889 0.097 2.667 3.543 8 217.376
772.109 56.625 0.098 2.667 3.557 8 220.767
772.12 57.2 0.107 2.659 3.572 8 223.421
772.135 57.987 0.12 2.648 3.591 8 227.048
772.145 58.511 0.129 2.641 3.605 8 229.466
772.16 59.294 0.142 2.63 3.625 8 233.079
772.17 59.817 0.145 2.612 3.624 8 235.491
772.185 60.602 0.148 2.584 3.623 8 239.109
772.195 61.126 0.15 2.565 3.622 8 241.527
772.211 61.964 0.154 2.536 3.619 8 245.378
772.22 62.478 0.159 2.515 3.516 8 246.967
772.236 63.397 0.167 2.479 3.334 8 249.81
772.245 63.911 0.172 2.458 3.232 8 251.399
772.262 64.886 0.18 2.42 3.039 8 254.414
772.27 65.344 0.186 2.411 2.979 4 255.83
772.287 66.315 0.197 2.392 2.849 4 258.835
772.295 66.773 0.202 2.384 2.788 4 260.251
772.312 67.748 0.213 2.365 2.659 4 263.267
772.32 68.205 0.225 2.357 2.603 4 264.68
772.338 69.233 0.253 2.339 2.479 4 267.861
772.345 69.632 0.265 2.332 2.431 4 269.093
772.363 70.663 0.293 2.314 2.306 4 272.281
772.37 70.895 0.294 2.311 2.305 4 273.403
772.389 71.507 0.297 2.306 2.308 4 276.425
772.395 71.702 0.297 2.304 2.309 4 277.387
772.414 72.314 0.299 2.298 2.312 4 280.408
772.42 72.507 0.306 2.301 2.326 4 281.36
772.439 73.121 0.325 2.311 2.371 4 284.392
772.445 73.314 0.331 2.313 2.385 4 285.344
772.465 73.96 0.351 2.323 2.432 4 288.531
772.47 74.12 0.345 2.326 2.444 4 289.318
772.49 74.765 0.32 2.338 2.495 4 292.504
772.495 74.926 0.314 2.341 2.508 4 293.299
772.516 75.585 0.29 2.353 2.561 4 296.547
772.52 75.525 0.293 2.353 2.573 4 296.233
772.541 75.212 0.311 2.352 2.635 4 294.595
772.545 75.153 0.315 2.352 2.647 4 294.286
772.566 74.84 0.333 2.352 2.71 4 292.648
772.57 74.78 0.331 2.351 2.714 4 292.334
772.592 74.452 0.323 2.35 2.735 4 290.62
772.595 74.408 0.322 2.35 2.738 4 290.387
772.617 74.079 0.313 2.348 2.758 4 288.669
772.62 74.035 0.313 2.351 2.758 4 288.435
772.643 73.692 0.311 2.368 2.751 4 286.641
772.645 73.662 0.311 2.369 2.75 4 286.484
772.668 73.32 0.308 2.387 2.744 4 284.694
772.67 73.259 0.308 2.39 2.755 4 284.354
772.693 72.544 0.306 2.426 2.881 4 280.351
772.695 72.482 0.306 2.429 2.892 4 280.001
772.719 71.737 0.304 2.467 3.024 4 275.827
772.72 71.706 0.303 2.468 3.035 8 275.658
772.744 70.959 0.289 2.505 3.297 8 271.474
772.745 70.929 0.289 2.506 3.307 8 271.304
772.77 70.151 0.274 2.544 3.576 8 266.95
772.795 69.376 0.243 2.573 3.6 8 262.607
772.82 68.598 0.211 2.602 3.625 8 258.254
772.845 67.542 0.198 2.613 3.434 8 252.355
772.846 67.498 0.198 2.614 3.426 8 252.109
772.87 66.476 0.186 2.624 3.24 8 246.406
772.871 66.434 0.185 2.625 3.232 8 246.173
772.895 65.41 0.167 2.642 3.236 8 240.456
772.897 65.327 0.165 2.643 3.237 8 239.991
772.92 64.346 0.148 2.659 3.243 8 234.52
772.922 64.261 0.146 2.661 3.243 8 234.041
772.945 63.281 0.134 2.662 3.236 8 228.57
772.947 63.195 0.133 2.662 3.236 8 228.091
772.97 62.217 0.122 2.663 3.229 8 222.634
772.973 62.094 0.12 2.664 3.228 8 221.92
772.995 61.725 0.114 2.675 3.261 8 217.735
772.998 61.675 0.113 2.677 3.265 8 217.166
773.02 61.305 0.106 2.688 3.298 8 212.959
773.024 61.238 0.105 2.69 3.303 8 212.201
773.045 60.886 0.098 2.692 3.321 8 208.193
773.049 60.818 0.096 2.693 3.325 8 207.424
773.07 60.465 0.089 2.695 3.343 8 203.415
773.074 60.398 0.088 2.696 3.347 8 202.658
773.095 60.046 0.088 2.711 3.445 8 198.649
773.1 59.962 0.089 2.715 3.468 8 197.693
773.12 59.625 0.09 2.729 3.563 8 193.871
773.125 59.541 0.09 2.733 3.587 8 192.916
773.145 59.439 0.093 2.756 3.718 8 191.811
773.151 59.409 0.094 2.764 3.758 8 191.489
773.17 59.315 0.096 2.786 3.882 8 190.468
773.176 59.285 0.097 2.793 3.922 8 190.143
773.195 59.19 0.092 2.816 4.157 8 189.12
773.201 59.16 0.091 2.823 4.231 8 188.798
773.22 59.066 0.086 2.846 4.466 8 187.775
773.227 59.031 0.084 2.855 4.552 8 187.396
773.245 58.941 0.085 2.844 4.621 8 186.426
773.252 58.906 0.086 2.84 4.648 8 186.047
773.27 58.816 0.088 2.829 4.717 8 185.077
773.278 58.784 0.088 2.824 4.742 8 184.729
773.295 59.008 0.084 2.794 4.584 8 187.1
773.303 59.113 0.083 2.78 4.51 8 188.217
773.32 59.338 0.079 2.75 4.352 8 190.591
773.328 59.443 0.077 2.736 4.277 8 191.706
773.345 59.667 0.081 2.702 4.132 8 194.077
773.354 59.786 0.083 2.684 4.054 8 195.339
773.37 59.997 0.087 2.652 3.917 8 197.574
773.379 60.117 0.089 2.634 3.84 8 198.836
773.395 60.328 0.094 2.623 3.778 8 201.07
773.405 60.46 0.097 2.616 3.74 8 202.469
773.42 60.657 0.101 2.606 3.684 8 204.559
773.43 60.789 0.105 2.6 3.646 8 205.958
773.445 61.049 0.104 2.589 3.631 8 208.721
773.455 61.223 0.104 2.582 3.621 8 210.563
773.47 61.481 0.104 2.572 3.606 8 213.316
773.481 61.673 0.104 2.564 3.594 8 215.349
773.495 61.914 0.108 2.551 3.569 8 217.915
773.506 62.104 0.111 2.541 3.549 8 219.932
773.52 62.347 0.114 2.527 3.523 8 222.516
