# Exported from Geomodeling Studio 8.5
# Project: RedLion
# Date: 2023-07-17T09:24:58
# User: xuepi
# Geodetic Coordinate System: NAD27 / UTM zone 12N
# 
~Version
VERS          .          3.0                                         :CWLS LOG ASCII STANDARD - VERSION 3.00
WRAP          .          NO                                          :One line per depth step
DLM           .          SPACE                                       :Delimiter character between data columns
#Delimiting character ( SPACE TAB OR COMMA ).
#----          ----      -------------                                -----------
#MNEM         .UNIT      DATA                                        :DESCRIPTION
~Well
STRT          .m         744.195                                     :FIRST INDEX VALUE
STOP          .m         849.995                                     :LAST INDEX VALUE
STEP          .m         0.0254                                      :STEP
NULL          .          -9999.990                                   :NULL VALUE
COMP          .                                                      :COMPANY
WELL          .          102/06-05-039-03W4/00                       :WELL
FLD           .                                                      :FIELD
LOC           .                  :LOCATION                              
SRVC          .                                                      :SERVICE COMPANY
CTRY          .                                                      :COUNTRY
CNTY          .                                                      :COUNTY
STAT          .                                                      :STATE
API           .                                                      :API NUMBER
DATE          .                                                      :LOG DATE
X             .          540699.200                                  :X OR EAST-WEST COORDINATE
Y             .          5797001.200                                 :Y OR NORTH-SOUTH COORDINATE
HZCS          .                                                      :HORIZONTAL CO-ORDINATE SYSTEM
GDAT          .          NAD27                                       :GEODETIC DATUM
UWI           .          102060503903W400                            :Unique Well Identifier
#----          ----      -----                                        -----------
~Parameter 
#MNEM         .UNIT      VALUE                                        Description
APD           .M         00.00                                       :Above Permanent Datum
DREF          .          KB                                          :Depth Reference (KB,DF,CB)
EREF          .m         671.100                                     :Elevation of Depth Deference
RUN           .          1                                           :Run Number
EKB           .m         671.100                                     :Kelling Bush Elevation
#----          ----      ---------                                    -----------------
#MNEM          UNIT      LOG CODES                                    Curve Description
~Curve
DEPTH         .m                                                     :DEPTH
GR            .GAPI                                                  :
NPHI          .Fraction                                              :
DEN           .g/cm^3                                                :
PEF           .Bar/e                                                 :
Lithology Facies_xueping.                                                      :
AC            .us/m                                                  :
#----          ----      ---------                                    -----------------
~Ascii
# ...
819.912 20.039 0.266 2.121 1.553 3 319.591
819.92 19.938 0.263 2.121 1.557 3 319.823
819.937 19.722 0.256 2.121 1.565 3 320.318
819.945 19.621 0.253 2.121 1.569 3 320.55
819.963 19.393 0.246 2.121 1.578 3 321.071
819.97 19.305 0.248 2.121 1.581 3 321.274
819.988 19.077 0.251 2.123 1.589 3 321.797
819.995 18.988 0.253 2.124 1.592 3 322
820.014 18.747 0.257 2.125 1.6 3 322.552
820.02 18.671 0.26 2.126 1.6 3 322.727
820.039 18.43 0.269 2.127 1.599 3 323.279
820.045 18.354 0.272 2.127 1.599 3 323.452
820.064 18.113 0.282 2.129 1.599 3 324.005
820.07 18.076 0.279 2.129 1.596 3 324.032
820.09 17.959 0.27 2.129 1.585 3 324.088
820.095 17.931 0.267 2.13 1.583 3 324.102
820.115 17.814 0.258 2.13 1.572 3 324.158
820.12 17.785 0.258 2.13 1.57 3 324.172
820.141 17.663 0.259 2.131 1.562 3 324.231
820.145 17.64 0.259 2.131 1.561 3 324.243
820.166 17.518 0.26 2.131 1.553 3 324.302
820.17 17.495 0.26 2.131 1.549 3 324.313
820.191 17.373 0.259 2.13 1.525 3 324.372
820.195 17.349 0.259 2.129 1.52 3 324.383
820.217 17.224 0.257 2.128 1.496 3 324.445
820.22 17.239 0.256 2.128 1.496 3 324.45
820.242 17.354 0.247 2.126 1.499 3 324.488
820.245 17.37 0.246 2.126 1.499 3 324.493
820.268 17.49 0.236 2.125 1.502 3 324.533
820.27 17.5 0.236 2.125 1.503 3 324.536
820.293 17.62 0.237 2.131 1.515 3 324.576
820.295 17.63 0.237 2.131 1.516 3 324.58
820.318 17.75 0.238 2.137 1.529 3 324.619
820.32 17.76 0.239 2.137 1.529 3 324.623
820.344 17.886 0.24 2.138 1.535 3 324.664
820.345 17.891 0.24 2.138 1.535 3 324.666
820.369 18.016 0.242 2.14 1.54 3 324.707
820.37 18.021 0.241 2.14 1.541 3 324.705
820.395 18.146 0.234 2.135 1.541 3 324.625
820.42 18.27 0.226 2.13 1.542 3 324.545
820.445 18.395 0.243 2.127 1.541 3 324.465
820.47 18.519 0.261 2.124 1.54 3 324.386
820.471 18.524 0.261 2.124 1.539 3 324.383
820.495 18.644 0.259 2.123 1.537 3 324.306
820.496 18.649 0.259 2.123 1.537 3 324.303
820.52 18.769 0.257 2.123 1.534 3 324.226
820.522 18.779 0.257 2.123 1.534 3 324.221
820.545 18.912 0.263 2.125 1.553 3 324.218
820.547 18.924 0.264 2.125 1.554 3 324.217
820.57 19.058 0.27 2.128 1.573 3 324.215
820.572 19.069 0.27 2.128 1.575 3 324.214
820.595 19.203 0.267 2.125 1.604 3 324.211
820.598 19.22 0.267 2.124 1.608 3 324.211
820.62 19.347 0.264 2.122 1.636 3 324.208
820.623 19.365 0.263 2.121 1.639 3 324.208
820.645 19.493 0.26 2.117 1.652 3 324.205
820.649 19.516 0.259 2.117 1.654 3 324.204
820.67 19.637 0.257 2.113 1.665 3 324.202
820.674 19.661 0.256 2.113 1.668 3 324.201
820.695 19.704 0.261 2.112 1.66 3 324.182
820.699 19.712 0.262 2.112 1.659 3 324.178
820.72 19.755 0.266 2.111 1.652 3 324.158
820.725 19.765 0.267 2.111 1.65 3 324.154
820.745 19.806 0.25 2.113 1.646 3 324.135
820.75 19.816 0.245 2.113 1.645 3 324.13
820.77 19.857 0.228 2.115 1.641 3 324.111
820.776 19.869 0.224 2.116 1.64 3 324.106
820.795 19.908 0.236 2.12 1.613 3 324.088
820.801 19.92 0.24 2.121 1.605 3 324.082
820.82 19.959 0.252 2.125 1.578 3 324.065
820.826 19.971 0.256 2.126 1.569 3 324.059
820.845 19.711 0.26 2.13 1.549 3 324.094
820.852 19.612 0.261 2.131 1.542 3 324.107
820.87 19.358 0.264 2.134 1.523 3 324.141
820.877 19.258 0.265 2.136 1.516 3 324.155
820.895 19.004 0.25 2.137 1.498 3 324.189
820.903 18.892 0.243 2.137 1.49 3 324.204
820.92 18.652 0.229 2.138 1.473 3 324.236
820.928 18.539 0.222 2.138 1.465 3 324.251
820.945 18.3 0.235 2.136 1.484 3 324.284
820.953 18.187 0.241 2.135 1.493 3 324.299
820.97 17.948 0.254 2.132 1.511 3 324.331
820.979 17.822 0.261 2.131 1.522 3 324.348
820.995 17.77 0.259 2.125 1.542 3 324.344
821.004 17.741 0.258 2.122 1.553 3 324.341
821.02 17.688 0.255 2.116 1.573 3 324.337
821.03 17.655 0.254 2.113 1.585 3 324.334
821.045 17.606 0.255 2.11 1.594 3 324.33
821.055 17.574 0.255 2.108 1.599 3 324.328
821.07 17.524 0.256 2.105 1.608 3 324.324
821.08 17.492 0.257 2.103 1.614 3 324.321
821.095 17.443 0.262 2.103 1.62 3 324.317
821.106 17.406 0.265 2.102 1.625 3 324.314
821.12 17.361 0.27 2.102 1.631 3 324.31
821.131 17.325 0.274 2.101 1.636 3 324.307
821.145 17.27 0.268 2.102 1.648 3 324.024
821.157 17.222 0.264 2.103 1.658 3 323.779
821.17 17.171 0.258 2.104 1.668 3 323.512
821.182 17.123 0.254 2.105 1.678 3 323.265
821.195 17.072 0.255 2.106 1.671 3 322.998
821.207 17.024 0.257 2.107 1.664 3 322.753
821.22 16.973 0.258 2.108 1.656 3 322.486
821.233 16.922 0.26 2.109 1.649 3 322.219
821.245 16.874 0.266 2.111 1.649 3 321.972
821.258 16.823 0.273 2.114 1.649 3 321.706
821.27 16.775 0.28 2.117 1.65 3 321.459
821.284 16.728 0.287 2.12 1.65 3 321.179
821.295 16.935 0.276 2.122 1.648 3 321.119
821.309 17.2 0.262 2.125 1.644 3 321.042
821.32 17.407 0.251 2.127 1.642 3 320.983
821.334 17.671 0.238 2.129 1.638 3 320.906
821.345 17.878 0.242 2.131 1.627 3 320.847
821.36 18.161 0.249 2.133 1.612 3 320.765
821.37 18.349 0.253 2.134 1.602 3 320.711
821.385 18.632 0.26 2.136 1.587 3 320.629
821.395 18.821 0.256 2.137 1.581 3 320.574
821.411 19.122 0.249 2.14 1.572 3 320.487
821.42 19.292 0.246 2.141 1.567 3 320.438
821.436 19.593 0.239 2.143 1.558 3 320.351
821.445 19.548 0.24 2.143 1.558 3 320.159
821.461 19.467 0.241 2.144 1.557 3 319.818
821.47 19.422 0.242 2.144 1.557 3 319.626
821.487 19.337 0.244 2.144 1.556 3 319.262
821.495 19.297 0.241 2.145 1.555 3 319.091
821.512 19.211 0.237 2.147 1.553 3 318.727
821.52 19.171 0.235 2.148 1.553 3 318.556
821.538 19.08 0.231 2.149 1.551 3 318.171
821.545 19.045 0.233 2.149 1.552 3 318.022
821.563 18.955 0.238 2.15 1.556 3 317.637
821.57 18.92 0.24 2.15 1.557 3 317.487
821.588 18.829 0.245 2.15 1.56 3 317.103
821.595 18.801 0.241 2.149 1.561 3 317.045
821.614 18.726 0.231 2.148 1.564 3 316.9
821.62 18.702 0.228 2.147 1.565 3 316.854
821.639 18.627 0.219 2.145 1.567 3 316.71
821.645 18.604 0.219 2.145 1.569 3 316.664
821.665 18.525 0.223 2.145 1.574 3 316.512
821.67 18.505 0.224 2.145 1.575 3 316.474
821.69 18.426 0.228 2.144 1.581 3 316.321
821.695 18.406 0.23 2.144 1.579 3 316.283
821.715 18.327 0.239 2.143 1.574 3 316.131
821.72 18.307 0.241 2.143 1.573 3 316.093
821.741 18.221 0.25 2.142 1.568 3 315.942
821.745 18.161 0.248 2.142 1.569 3 316.058
821.766 17.843 0.238 2.142 1.574 3 316.673
821.77 17.782 0.236 2.142 1.575 3 316.791
821.792 17.449 0.226 2.141 1.581 3 317.433
821.795 17.404 0.227 2.141 1.582 3 317.521
821.817 17.069 0.229 2.14 1.59 3 318.167
821.82 17.024 0.23 2.14 1.592 3 318.254
821.842 16.691 0.233 2.139 1.6 3 318.898
821.845 16.645 0.232 2.139 1.601 3 318.986
821.868 16.296 0.231 2.14 1.602 3 319.66
821.87 16.266 0.23 2.14 1.602 3 319.719
821.893 15.917 0.229 2.141 1.602 3 320.393
821.895 15.916 0.23 2.141 1.603 3 320.413
821.919 15.948 0.243 2.142 1.61 3 320.605
821.92 15.95 0.243 2.142 1.61 3 320.613
821.944 15.981 0.256 2.142 1.617 3 320.806
821.945 15.983 0.256 2.142 1.616 3 320.814
821.969 16.015 0.245 2.139 1.599 3 321.006
821.97 16.016 0.245 2.139 1.598 3 321.014
821.995 16.049 0.234 2.137 1.58 3 321.214
822.02 16.083 0.242 2.136 1.579 3 321.415
822.045 16.116 0.249 2.135 1.578 3 321.616
822.046 16.117 0.249 2.135 1.578 3 321.627
822.07 16.133 0.237 2.135 1.549 3 321.995
822.071 16.134 0.236 2.135 1.548 3 322.01
822.095 16.149 0.224 2.135 1.519 3 322.378
822.096 16.15 0.223 2.135 1.518 3 322.394
822.12 16.166 0.226 2.134 1.52 3 322.761
822.122 16.167 0.227 2.134 1.521 3 322.792
822.145 16.182 0.23 2.132 1.523 3 323.145
822.147 16.184 0.23 2.132 1.524 3 323.175
822.17 16.199 0.247 2.13 1.541 3 323.528
822.173 16.201 0.25 2.129 1.544 3 323.574
822.195 16.215 0.267 2.126 1.561 3 323.912
822.198 16.217 0.269 2.126 1.563 3 323.958
822.22 16.61 0.258 2.125 1.583 3 324.275
822.223 16.665 0.256 2.124 1.586 3 324.319
822.245 17.058 0.245 2.123 1.606 3 324.636
822.249 17.13 0.243 2.123 1.609 3 324.694
822.27 17.505 0.244 2.121 1.612 3 324.998
822.274 17.576 0.244 2.12 1.612 3 325.055
822.295 17.95 0.245 2.118 1.615 3 325.357
822.3 18.04 0.245 2.118 1.615 3 325.429
822.32 18.398 0.255 2.117 1.598 3 325.719
822.325 18.487 0.257 2.117 1.593 3 325.791
822.345 18.844 0.266 2.117 1.576 3 326.079
822.35 18.933 0.269 2.117 1.571 3 326.151
822.37 19.216 0.26 2.116 1.562 3 326.163
