# Exported from Geomodeling Studio 8.5
# Project: RedLion
# Date: 2023-07-17T09:24:58
# User: xuepi
# Geodetic Coordinate System: NAD27 / UTM zone 12N
# 
~Version
VERS          .          3.0                                         :CWLS LOG ASCII STANDARD - VERSION 3.00
WRAP          .          NO                                          :One line per depth step
DLM           .          SPACE                                       :Delimiter character between data columns
#Delimiting character ( SPACE TAB OR COMMA ).
#----          ----      -------------                                -----------
#MNEM         .UNIT      DATA                                        :DESCRIPTION
~Well
STRT          .m         744.195                                     :FIRST INDEX VALUE
STOP          .m         849.995                                     :LAST INDEX VALUE
STEP          .m         0.0254                                      :STEP
NULL          .          -9999.990                                   :NULL VALUE
COMP          .                                                      :COMPANY
WELL          .          102/06-05-039-03W4/00                       :WELL
FLD           .                                                      :FIELD
LOC           .                  :LOCATION                              
SRVC          .                                                      :SERVICE COMPANY
CTRY          .                                                      :COUNTRY
CNTY          .                                                      :COUNTY
STAT          .                                                      :STATE
API           .                                                      :API NUMBER
DATE          .                                                      :LOG DATE
X             .          540699.200                                  :X OR EAST-WEST COORDINATE
Y             .          5797001.200                                 :Y OR NORTH-SOUTH COORDINATE
HZCS          .                                                      :HORIZONTAL CO-ORDINATE SYSTEM
GDAT          .          NAD27                                       :GEODETIC DATUM
UWI           .          102060503903W400                            :Unique Well Identifier
#----          ----      -----                                        -----------
~Parameter 
#MNEM         .UNIT      VALUE                                        Description
APD           .M         00.00                                       :Above Permanent Datum
DREF          .          KB                                          :Depth Reference (KB,DF,CB)
EREF          .m         671.100                                     :Elevation of Depth Deference
RUN           .          1                                           :Run Number
EKB           .m         671.100                                     :Kelling Bush Elevation
#----          ----      ---------                                    -----------------
#MNEM          UNIT      LOG CODES                                    Curve Description
~Curve
DEPTH         .m                                                     :DEPTH
GR            .GAPI                                                  :
NPHI          .Fraction                                              :
DEN           .g/cm^3                                                :
PEF           .Bar/e                                                 :
Lithology Facies_xueping.                                                      :
AC            .us/m                                                  :
#----          ----      ---------                                    -----------------
~Ascii
# ...
778.37 92.201 0.258 2.255 2.547 6 340.103
778.383 91.61 0.253 2.253 2.52 6 340.635
778.395 91.063 0.248 2.251 2.496 6 341.127
778.408 90.471 0.243 2.249 2.469 6 341.659
778.42 89.927 0.249 2.248 2.457 6 342.148
778.434 89.288 0.256 2.247 2.442 6 342.722
778.445 88.789 0.262 2.246 2.431 6 343.171
778.459 88.155 0.269 2.245 2.417 6 343.741
778.47 88.033 0.263 2.245 2.412 6 344.074
778.485 87.879 0.255 2.244 2.405 6 344.526
778.495 87.776 0.249 2.243 2.401 6 344.827
778.51 87.622 0.241 2.243 2.394 6 345.279
778.52 87.519 0.247 2.242 2.402 6 345.58
778.535 87.366 0.256 2.241 2.413 6 346.03
778.545 87.263 0.262 2.24 2.421 6 346.332
778.561 87.099 0.272 2.238 2.434 6 346.813
778.57 87.006 0.271 2.237 2.438 6 347.085
778.586 86.842 0.268 2.234 2.445 6 347.566
778.595 86.749 0.266 2.233 2.448 6 347.836
778.612 86.574 0.263 2.23 2.455 6 348.335
778.62 86.489 0.266 2.229 2.447 6 348.326
778.637 86.308 0.272 2.227 2.428 6 348.306
778.645 86.222 0.275 2.226 2.42 6 348.298
778.662 86.041 0.281 2.223 2.401 6 348.279
778.67 85.956 0.281 2.225 2.393 6 348.269
778.688 85.764 0.28 2.228 2.376 6 348.249
778.695 85.689 0.28 2.229 2.369 6 348.241
778.713 85.497 0.28 2.232 2.352 6 348.221
778.72 85.422 0.282 2.236 2.344 6 348.213
778.739 85.219 0.287 2.244 2.323 6 348.192
778.745 85.155 0.288 2.247 2.316 6 348.185
778.764 84.952 0.293 2.256 2.294 6 348.164
778.77 84.835 0.287 2.259 2.296 6 348.658
778.789 84.466 0.267 2.269 2.303 6 350.211
778.795 84.35 0.261 2.272 2.305 6 350.702
778.815 83.96 0.241 2.282 2.313 6 352.344
778.82 83.863 0.244 2.283 2.313 6 352.755
778.84 83.473 0.255 2.287 2.316 6 354.397
778.845 83.377 0.258 2.288 2.317 6 354.803
778.866 82.967 0.269 2.293 2.32 6 356.53
778.87 82.89 0.271 2.291 2.327 6 356.856
778.891 82.481 0.28 2.283 2.362 6 358.578
778.895 82.403 0.282 2.281 2.368 6 358.908
778.916 81.994 0.291 2.273 2.403 6 360.631
778.92 81.679 0.292 2.267 2.404 6 361.174
778.942 79.791 0.294 2.234 2.407 6 364.315
778.945 79.536 0.294 2.23 2.408 4 364.741
778.967 77.658 0.296 2.197 2.41 4 367.865
778.97 77.402 0.298 2.191 2.413 4 368.292
778.993 75.431 0.31 2.143 2.43 4 371.572
778.995 75.259 0.311 2.139 2.432 4 371.859
779.018 73.288 0.324 2.091 2.449 4 375.139
779.02 73.115 0.33 2.085 2.45 4 375.427
779.043 71.144 0.397 2.02 2.46 4 378.707
779.045 70.977 0.403 2.014 2.46 4 378.985
779.069 68.918 0.472 1.946 2.471 4 382.405
779.07 68.804 0.472 1.943 2.477 7 382.55
779.094 66.168 0.484 1.873 2.614 7 385.916
779.095 66.061 0.484 1.87 2.62 7 386.053
779.12 63.318 0.497 1.797 2.762 7 389.556
779.145 60.568 0.575 1.752 2.858 7 393.068
779.17 57.824 0.653 1.707 2.953 7 396.571
779.195 55.074 0.742 1.699 3.26 7 400.083
779.196 54.967 0.746 1.699 3.272 7 400.22
779.22 52.331 0.832 1.691 3.569 7 403.586
779.221 52.217 0.835 1.691 3.582 7 403.732
779.245 50.137 0.842 1.606 3.447 7 407.893
779.247 49.963 0.842 1.599 3.436 7 408.243
779.27 47.972 0.848 1.517 3.304 7 412.24
779.272 47.803 0.849 1.51 3.293 7 412.579
779.295 45.816 0.9 1.464 2.884 7 416.567
779.297 45.642 0.905 1.46 2.848 7 416.916
779.32 43.651 0.957 1.413 2.439 7 420.913
779.323 43.392 0.963 1.407 2.386 7 421.433
779.345 41.491 0.959 1.391 1.988 7 425.25
779.348 41.227 0.958 1.388 1.933 7 425.78
779.37 39.325 0.954 1.372 1.536 7 429.597
779.374 39.018 0.954 1.369 1.469 7 430.2
779.395 39.265 0.962 1.366 1.414 7 429.056
779.399 39.312 0.963 1.365 1.404 7 428.84
779.42 39.558 0.971 1.362 1.349 7 427.696
779.424 39.606 0.973 1.362 1.338 7 427.476
779.445 39.852 0.975 1.36 1.285 7 426.335
779.45 39.91 0.976 1.36 1.273 7 426.063
779.47 40.145 0.978 1.358 1.223 7 424.975
779.475 40.204 0.978 1.358 1.21 7 424.703
779.495 40.439 0.937 1.358 1.158 7 423.612
779.501 40.509 0.924 1.358 1.142 7 423.286
779.52 40.733 0.884 1.358 1.093 7 422.249
779.526 40.803 0.872 1.358 1.077 7 421.923
779.545 42.823 0.862 1.369 1.04 7 420.579
779.551 43.466 0.859 1.373 1.029 7 420.152
779.57 45.485 0.848 1.384 0.992 7 418.808
779.577 46.232 0.844 1.388 0.979 7 418.311
779.595 48.141 0.789 1.431 0.966 7 417.041
779.602 48.888 0.767 1.448 0.961 7 416.544
779.62 50.799 0.712 1.491 0.949 7 415.273
779.628 51.648 0.688 1.511 0.944 7 414.708
779.645 53.46 0.654 1.602 0.981 7 413.503
779.653 54.31 0.638 1.645 0.998 7 412.937
779.67 56.116 0.605 1.736 1.035 7 411.736
779.678 56.966 0.589 1.779 1.053 7 411.17
779.695 58.289 0.58 1.841 1.18 7 410.866
779.704 58.979 0.576 1.873 1.249 7 410.718
779.72 60.208 0.569 1.931 1.37 7 410.454
779.729 60.903 0.564 1.963 1.439 7 410.305
779.745 62.133 0.529 1.957 1.549 7 410.041
779.755 62.903 0.507 1.952 1.617 7 409.875
779.77 64.055 0.474 1.946 1.72 7 409.628
779.78 64.823 0.452 1.941 1.788 7 409.463
779.795 65.973 0.49 1.909 1.781 7 409.216
779.805 66.742 0.514 1.888 1.777 7 409.051
779.82 67.897 0.552 1.855 1.771 7 408.803
779.831 68.725 0.579 1.832 1.765 7 408.623
779.845 68.498 0.574 1.789 1.735 7 408.525
779.856 68.319 0.57 1.756 1.71 7 408.448
779.87 68.092 0.566 1.713 1.68 7 408.35
779.882 67.897 0.562 1.677 1.652 7 408.266
779.895 67.686 0.579 1.645 1.6 7 408.175
779.907 67.492 0.594 1.615 1.551 7 408.091
779.92 67.28 0.61 1.583 1.498 7 408
779.932 67.085 0.625 1.554 1.449 7 407.916
779.945 66.875 0.639 1.532 1.423 7 407.825
779.958 66.664 0.653 1.512 1.398 7 407.734
779.97 66.47 0.666 1.493 1.375 7 407.65
779.983 66.259 0.68 1.472 1.35 7 407.559
779.995 65.398 0.708 1.463 1.358 7 407.428
780.009 64.381 0.741 1.453 1.368 7 407.276
780.02 63.578 0.767 1.445 1.376 7 407.155
780.034 62.561 0.799 1.435 1.387 7 407.002
780.045 61.761 0.785 1.429 1.398 7 406.882
780.059 60.74 0.766 1.422 1.412 7 406.728
780.07 59.941 0.752 1.416 1.423 7 406.608
780.085 58.848 0.733 1.409 1.438 7 406.444
780.095 58.126 0.752 1.403 1.44 7 406.335
780.11 57.037 0.782 1.394 1.443 7 406.171
780.12 56.308 0.802 1.388 1.445 7 406.062
780.136 55.159 0.832 1.379 1.447 7 405.87
780.145 54.859 0.822 1.374 1.419 7 405.351
780.161 54.328 0.803 1.367 1.371 7 404.432
780.17 54.03 0.793 1.362 1.344 7 403.917
780.186 53.499 0.774 1.355 1.295 7 402.998
780.195 53.199 0.78 1.37 1.271 7 402.479
780.212 52.635 0.791 1.401 1.225 7 401.505
780.22 52.37 0.797 1.415 1.204 7 401.046
780.237 51.804 0.808 1.446 1.158 7 400.067
780.245 51.538 0.781 1.474 1.172 7 399.608
780.263 50.94 0.718 1.536 1.204 7 398.574
780.27 50.708 0.693 1.561 1.216 7 398.172
780.288 50.111 0.63 1.623 1.249 7 397.14
780.295 50.268 0.61 1.664 1.274 7 396.457
780.313 50.676 0.559 1.768 1.339 7 394.689
780.32 50.835 0.539 1.809 1.364 7 394
780.339 51.264 0.485 1.919 1.433 7 392.136
780.345 51.4 0.48 1.94 1.458 7 391.549
780.364 51.831 0.465 2.007 1.536 7 389.679
780.37 51.966 0.461 2.027 1.561 4 389.092
780.39 52.419 0.445 2.096 1.642 4 387.127
780.395 52.532 0.439 2.099 1.656 4 386.635
780.415 52.984 0.416 2.114 1.708 4 384.676
780.42 53.097 0.411 2.117 1.721 4 384.186
780.44 53.549 0.388 2.131 1.773 4 382.225
780.445 53.823 0.38 2.13 1.785 4 381.574
780.466 55.034 0.348 2.123 1.835 4 378.779
780.47 55.263 0.342 2.122 1.844 4 378.251
780.491 56.477 0.31 2.116 1.893 4 375.449
780.495 56.706 0.308 2.11 1.9 4 374.921
780.517 57.977 0.297 2.078 1.94 4 371.989
780.52 58.149 0.295 2.074 1.946 4 371.591
780.542 59.416 0.285 2.043 1.985 4 368.666
780.545 59.589 0.287 2.041 1.986 4 368.268
780.567 60.859 0.307 2.029 1.987 4 365.336
780.57 61.032 0.31 2.027 1.988 4 364.938
780.593 62.358 0.33 2.014 1.989 4 361.884
780.595 62.461 0.329 2.013 1.989 4 361.695
780.618 63.68 0.324 2.002 1.983 4 359.458
780.62 63.787 0.324 2.001 1.982 4 359.262
780.644 65.061 0.319 1.989 1.976 4 356.924
780.645 65.116 0.319 1.99 1.977 7 356.823
780.669 66.389 0.32 2.015 1.997 7 354.486
780.67 66.441 0.32 2.016 1.998 4 354.391
780.694 67.715 0.321 2.041 2.017 4 352.053
780.695 67.77 0.321 2.042 2.018 4 351.952
780.72 69.095 0.316 2.086 2.035 4 349.52
780.745 70.424 0.311 2.131 2.053 4 347.081
780.77 71.639 0.339 2.19 2.132 4 346.039
780.771 71.687 0.34 2.192 2.135 4 345.998
780.795 72.854 0.367 2.249 2.212 4 345.007
780.796 72.904 0.368 2.252 2.216 4 344.964
780.82 74.071 0.351 2.284 2.284 4 343.972
