# Exported from Geomodeling Studio 8.5
# Project: RedLion
# Date: 2023-07-17T09:24:58
# User: xuepi
# Geodetic Coordinate System: NAD27 / UTM zone 12N
# 
~Version
VERS          .          3.0                                         :CWLS LOG ASCII STANDARD - VERSION 3.00
WRAP          .          NO                                          :One line per depth step
DLM           .          SPACE                                       :Delimiter character between data columns
#Delimiting character ( SPACE TAB OR COMMA ).
#----          ----      -------------                                -----------
#MNEM         .UNIT      DATA                                        :DESCRIPTION
~Well
STRT          .m         744.195                                     :FIRST INDEX VALUE
STOP          .m         849.995                                     :LAST INDEX VALUE
STEP          .m         0.0254                                      :STEP
NULL          .          -9999.990                                   :NULL VALUE
COMP          .                                                      :COMPANY
WELL          .          102/06-05-039-03W4/00                       :WELL
FLD           .                                                      :FIELD
LOC           .                  :LOCATION                              
SRVC          .                                                      :SERVICE COMPANY
CTRY          .                                                      :COUNTRY
CNTY          .                                                      :COUNTY
STAT          .                                                      :STATE
API           .                                                      :API NUMBER
DATE          .                                                      :LOG DATE
X             .          540699.200                                  :X OR EAST-WEST COORDINATE
Y             .          5797001.200                                 :Y OR NORTH-SOUTH COORDINATE
HZCS          .                                                      :HORIZONTAL CO-ORDINATE SYSTEM
GDAT          .          NAD27                                       :GEODETIC DATUM
UWI           .          102060503903W400                            :Unique Well Identifier
#----          ----      -----                                        -----------
~Parameter 
#MNEM         .UNIT      VALUE                                        Description
APD           .M         00.00                                       :Above Permanent Datum
DREF          .          KB                                          :Depth Reference (KB,DF,CB)
EREF          .m         671.100                                     :Elevation of Depth Deference
RUN           .          1                                           :Run Number
EKB           .m         671.100                                     :Kelling Bush Elevation
#----          ----      ---------                                    -----------------
#MNEM          UNIT      LOG CODES                                    Curve Description
~Curve
DEPTH         .m                                                     :DEPTH
GR            .GAPI                                                  :
NPHI          .Fraction                                              :
DEN           .g/cm^3                                                :
PEF           .Bar/e                                                 :
Lithology Facies_xueping.                                                      :
AC            .us/m                                                  :
#----          ----      ---------                                    -----------------
~Ascii
# ...
785.72 36.913 0.247 2.16 1.739 3 350.765
785.724 36.882 0.246 2.16 1.741 3 350.774
785.745 36.716 0.242 2.163 1.768 3 350.823
785.749 36.684 0.241 2.164 1.773 3 350.833
785.77 36.518 0.236 2.166 1.8 3 350.881
785.774 36.487 0.235 2.167 1.805 3 350.891
785.795 36.542 0.25 2.165 1.833 3 350.728
785.8 36.556 0.254 2.164 1.84 3 350.688
785.82 36.613 0.268 2.162 1.867 3 350.529
785.825 36.627 0.272 2.161 1.874 3 350.489
785.845 36.684 0.262 2.156 1.884 3 350.33
785.851 36.702 0.259 2.154 1.887 3 350.282
785.87 36.756 0.249 2.149 1.895 3 350.131
785.876 36.773 0.246 2.147 1.898 3 350.083
785.895 36.827 0.253 2.144 1.899 3 349.932
785.901 36.844 0.256 2.144 1.899 3 349.884
785.92 36.898 0.263 2.141 1.9 3 349.733
785.927 36.92 0.266 2.14 1.9 3 349.675
785.945 37.184 0.262 2.14 1.875 3 349.241
785.952 37.286 0.261 2.139 1.865 3 349.072
785.97 37.549 0.257 2.139 1.84 3 348.639
785.978 37.667 0.256 2.139 1.829 3 348.445
785.995 37.916 0.257 2.141 1.802 3 348.037
786.003 38.033 0.257 2.143 1.79 3 347.844
786.02 38.282 0.258 2.145 1.764 3 347.434
786.028 38.399 0.259 2.146 1.751 3 347.241
786.045 38.648 0.25 2.154 1.72 3 346.832
786.054 38.78 0.245 2.158 1.704 3 346.615
786.07 39.014 0.237 2.165 1.674 3 346.23
786.079 39.145 0.232 2.169 1.658 3 346.015
786.095 39.458 0.232 2.175 1.663 3 345.771
786.105 39.654 0.232 2.179 1.666 3 345.619
786.12 39.949 0.232 2.185 1.671 3 345.392
786.13 40.146 0.232 2.189 1.674 3 345.241
786.145 40.44 0.23 2.191 1.685 3 345.014
786.155 40.637 0.228 2.192 1.693 3 344.862
786.17 40.931 0.226 2.193 1.704 3 344.636
786.181 41.148 0.225 2.195 1.712 3 344.469
786.195 41.422 0.227 2.191 1.715 3 344.258
786.206 41.638 0.229 2.189 1.718 3 344.092
786.22 41.912 0.232 2.186 1.721 3 343.881
786.232 42.143 0.234 2.183 1.723 3 343.696
786.245 42.26 0.24 2.182 1.717 3 343.365
786.257 42.368 0.246 2.181 1.711 3 343.059
786.27 42.484 0.253 2.179 1.705 3 342.728
786.282 42.592 0.258 2.178 1.699 3 342.424
786.295 42.708 0.259 2.179 1.688 3 342.093
786.308 42.825 0.26 2.18 1.677 3 341.762
786.32 42.933 0.261 2.181 1.667 3 341.456
786.333 43.049 0.262 2.182 1.655 3 341.125
786.345 43.157 0.258 2.184 1.663 3 340.821
786.359 43.283 0.255 2.186 1.673 3 340.464
786.37 43.381 0.252 2.187 1.68 3 340.184
786.384 43.507 0.248 2.19 1.689 3 339.828
786.395 43.404 0.25 2.189 1.7 3 339.806
786.409 43.275 0.253 2.188 1.714 3 339.777
786.42 43.172 0.255 2.187 1.724 3 339.755
786.435 43.033 0.257 2.186 1.739 3 339.724
786.445 42.94 0.259 2.185 1.75 3 339.704
786.46 42.8 0.262 2.184 1.765 3 339.673
786.47 42.707 0.264 2.183 1.776 3 339.653
786.486 42.558 0.266 2.181 1.792 3 339.62
786.495 42.475 0.264 2.179 1.799 3 339.602
786.511 42.326 0.26 2.177 1.811 3 339.569
786.52 42.242 0.258 2.176 1.818 3 339.551
786.536 42.093 0.254 2.174 1.83 3 339.518
786.545 41.865 0.255 2.172 1.829 3 339.563
786.562 41.421 0.257 2.17 1.827 3 339.654
786.57 41.211 0.258 2.169 1.827 3 339.696
786.587 40.767 0.26 2.166 1.825 3 339.787
786.595 40.558 0.256 2.166 1.825 3 339.83
786.613 40.087 0.246 2.165 1.824 3 339.926
786.62 39.903 0.243 2.164 1.824 3 339.963
786.638 39.432 0.233 2.163 1.824 3 340.059
786.645 39.248 0.235 2.163 1.824 3 340.097
786.663 38.777 0.239 2.162 1.825 3 340.193
786.67 38.595 0.24 2.162 1.825 3 340.23
786.689 38.103 0.244 2.161 1.826 3 340.334
786.695 38.093 0.244 2.161 1.82 3 340.421
786.714 38.062 0.243 2.161 1.8 3 340.696
786.72 38.053 0.243 2.161 1.794 3 340.782
786.74 38.02 0.242 2.162 1.774 3 341.071
786.745 38.012 0.244 2.162 1.772 3 341.144
786.765 37.98 0.253 2.163 1.765 3 341.434
786.77 37.972 0.256 2.164 1.763 3 341.506
786.79 37.94 0.265 2.164 1.756 3 341.795
786.795 37.931 0.264 2.165 1.752 3 341.867
786.816 37.898 0.257 2.168 1.738 3 342.172
786.82 37.891 0.256 2.168 1.736 3 342.23
786.841 37.857 0.249 2.171 1.721 3 342.534
786.845 37.856 0.25 2.171 1.722 3 342.486
786.867 37.855 0.254 2.173 1.725 3 342.195
786.87 37.854 0.255 2.174 1.726 3 342.155
786.892 37.852 0.259 2.176 1.729 3 341.864
786.895 37.852 0.26 2.176 1.729 3 341.825
786.917 37.85 0.26 2.174 1.727 3 341.534
786.92 37.85 0.26 2.174 1.727 3 341.494
786.943 37.848 0.261 2.173 1.726 3 341.189
786.945 37.848 0.262 2.172 1.726 3 341.163
786.968 37.846 0.269 2.169 1.725 3 340.858
786.97 37.846 0.27 2.168 1.725 3 340.832
786.994 37.854 0.277 2.164 1.725 3 340.513
786.995 37.876 0.276 2.164 1.725 3 340.499
787.019 38.43 0.258 2.163 1.725 3 340.144
787.02 38.454 0.258 2.163 1.725 3 340.129
787.044 39.007 0.239 2.162 1.726 3 339.774
787.045 39.03 0.24 2.162 1.726 3 339.76
787.07 39.606 0.254 2.164 1.751 3 339.391
787.095 40.182 0.268 2.166 1.776 3 339.022
787.12 40.759 0.251 2.167 1.812 3 338.652
787.121 40.782 0.25 2.167 1.813 3 338.638
787.145 41.337 0.233 2.168 1.848 3 338.282
787.146 41.359 0.232 2.168 1.85 3 338.268
787.17 41.655 0.234 2.167 1.873 3 337.672
787.171 41.668 0.234 2.166 1.874 3 337.646
787.195 41.963 0.237 2.165 1.898 3 337.05
787.197 41.988 0.237 2.165 1.9 3 337
787.22 42.27 0.235 2.165 1.923 3 336.431
787.222 42.295 0.235 2.165 1.925 3 336.381
787.245 42.578 0.232 2.165 1.949 3 335.809
787.248 42.615 0.232 2.165 1.952 3 335.734
787.27 42.886 0.237 2.168 1.944 3 335.187
787.273 42.923 0.237 2.168 1.943 3 335.112
787.295 43.194 0.242 2.171 1.935 3 334.566
787.298 43.231 0.243 2.171 1.934 3 334.492
787.32 44.021 0.245 2.177 1.912 3 334.472
787.324 44.165 0.245 2.179 1.908 3 334.47
787.345 44.927 0.247 2.185 1.887 3 334.462
787.349 45.073 0.248 2.186 1.882 3 334.46
787.37 45.836 0.253 2.197 1.878 4 334.451
787.375 46.018 0.254 2.199 1.877 4 334.449
787.395 46.743 0.259 2.21 1.873 4 334.44
787.4 46.924 0.261 2.212 1.872 4 334.438
787.42 47.649 0.255 2.219 1.888 4 334.43
787.425 47.831 0.253 2.221 1.892 4 334.428
787.445 48.558 0.247 2.229 1.907 4 334.419
787.451 48.767 0.245 2.231 1.912 4 334.416
787.47 48.667 0.239 2.231 1.956 4 334.304
787.476 48.635 0.236 2.231 1.971 4 334.268
787.495 48.535 0.23 2.232 2.015 4 334.157
787.502 48.498 0.228 2.232 2.031 4 334.115
787.52 48.402 0.229 2.231 2.049 4 334.009
787.527 48.366 0.229 2.231 2.056 4 333.968
787.545 48.27 0.23 2.23 2.075 4 333.862
787.552 48.233 0.23 2.23 2.082 4 333.821
787.57 48.138 0.233 2.235 2.055 4 333.715
787.578 48.096 0.234 2.237 2.043 4 333.668
787.595 48.006 0.236 2.243 2.016 4 333.568
787.603 47.964 0.237 2.245 2.004 4 333.521
787.62 47.745 0.238 2.254 1.968 4 333.678
787.629 47.627 0.238 2.259 1.948 4 333.763
787.645 47.42 0.238 2.267 1.914 4 333.914
787.654 47.303 0.238 2.272 1.894 4 333.999
787.67 47.095 0.233 2.274 1.897 4 334.15
787.679 46.978 0.229 2.275 1.899 4 334.235
787.695 46.771 0.223 2.277 1.902 4 334.386
787.705 46.641 0.22 2.278 1.905 4 334.48
787.72 46.447 0.216 2.271 1.929 4 334.621
787.73 46.317 0.214 2.266 1.946 4 334.715
787.745 46.122 0.211 2.258 1.97 4 334.857
787.756 45.979 0.208 2.253 1.987 4 334.964
787.77 45.783 0.22 2.245 1.98 4 335.244
787.781 45.63 0.23 2.238 1.974 4 335.463
787.795 45.435 0.242 2.23 1.967 4 335.741
787.806 45.281 0.251 2.224 1.962 4 335.961
787.82 45.086 0.26 2.215 1.938 4 336.24
787.832 44.919 0.268 2.208 1.917 4 336.478
787.845 44.738 0.276 2.201 1.895 3 336.737
787.857 44.57 0.284 2.193 1.875 3 336.977
787.87 44.39 0.272 2.186 1.871 3 337.236
787.883 44.209 0.26 2.179 1.867 3 337.494
787.895 44.041 0.249 2.172 1.864 3 337.734
787.908 43.86 0.236 2.165 1.86 3 337.993
787.92 43.952 0.247 2.164 1.855 3 338.01
787.933 44.051 0.259 2.163 1.85 3 338.03
787.945 44.144 0.27 2.162 1.844 3 338.047
787.959 44.251 0.282 2.161 1.838 3 338.068
787.97 44.335 0.281 2.162 1.84 3 338.084
787.984 44.443 0.279 2.163 1.842 3 338.105
787.995 44.528 0.277 2.164 1.843 3 338.121
788.01 44.643 0.275 2.165 1.845 3 338.144
788.02 44.72 0.274 2.167 1.845 3 338.158
788.035 44.834 0.273 2.169 1.844 3 338.181
788.045 44.911 0.272 2.171 1.844 3 338.195
788.06 45.026 0.271 2.173 1.844 3 338.217
788.07 45.14 0.264 2.175 1.85 4 338.39
788.086 45.324 0.252 2.178 1.859 4 338.677
788.095 45.427 0.246 2.18 1.864 4 338.838
788.111 45.611 0.235 2.183 1.873 4 339.127
788.12 45.715 0.231 2.184 1.873 4 339.288
