# Exported from Geomodeling Studio 8.5
# Project: RedLion
# Date: 2023-07-17T09:24:58
# User: xuepi
# Geodetic Coordinate System: NAD27 / UTM zone 12N
# 
~Version
VERS          .          3.0                                         :CWLS LOG ASCII STANDARD - VERSION 3.00
WRAP          .          NO                                          :One line per depth step
DLM           .          SPACE                                       :Delimiter character between data columns
#Delimiting character ( SPACE TAB OR COMMA ).
#----          ----      -------------                                -----------
#MNEM         .UNIT      DATA                                        :DESCRIPTION
~Well
STRT          .m         744.195                                     :FIRST INDEX VALUE
STOP          .m         849.995                                     :LAST INDEX VALUE
STEP          .m         0.0254                                      :STEP
NULL          .          -9999.990                                   :NULL VALUE
COMP          .                                                      :COMPANY
WELL          .          102/06-05-039-03W4/00                       :WELL
FLD           .                                                      :FIELD
LOC           .                  :LOCATION                              
SRVC          .                                                      :SERVICE COMPANY
CTRY          .                                                      :COUNTRY
CNTY          .                                                      :COUNTY
STAT          .                                                      :STATE
API           .                                                      :API NUMBER
DATE          .                                                      :LOG DATE
X             .          540699.200                                  :X OR EAST-WEST COORDINATE
Y             .          5797001.200                                 :Y OR NORTH-SOUTH COORDINATE
HZCS          .                                                      :HORIZONTAL CO-ORDINATE SYSTEM
GDAT          .          NAD27                                       :GEODETIC DATUM
UWI           .          102060503903W400                            :Unique Well Identifier
#----          ----      -----                                        -----------
~Parameter 
#MNEM         .UNIT      VALUE                                        Description
APD           .M         00.00                                       :Above Permanent Datum
DREF          .          KB                                          :Depth Reference (KB,DF,CB)
EREF          .m         671.100                                     :Elevation of Depth Deference
RUN           .          1                                           :Run Number
EKB           .m         671.100                                     :Kelling Bush Elevation
#----          ----      ---------                                    -----------------
#MNEM          UNIT      LOG CODES                                    Curve Description
~Curve
DEPTH         .m                                                     :DEPTH
GR            .GAPI                                                  :
NPHI          .Fraction                                              :
DEN           .g/cm^3                                                :
PEF           .Bar/e                                                 :
Lithology Facies_xueping.                                                      :
AC            .us/m                                                  :
#----          ----      ---------                                    -----------------
~Ascii
# ...
847.17 15.826 0.206 2.586 3.273 8 315.1
847.192 15.827 0.206 2.583 3.304 8 315.1
847.195 15.827 0.206 2.583 3.306 8 315.1
847.217 15.827 0.206 2.584 3.328 8 315.1
847.22 15.827 0.206 2.585 3.331 8 315.1
847.242 15.827 0.206 2.585 3.353 8 315.1
847.245 15.827 0.206 2.586 3.354 8 315.1
847.268 15.827 0.206 2.587 3.361 8 315.1
847.27 15.827 0.206 2.588 3.362 8 315.1
847.293 15.827 0.206 2.589 3.369 8 315.1
847.295 15.827 0.206 2.59 3.369 8 315.1
847.319 15.827 0.206 2.592 3.37 8 315.1
847.32 15.827 0.206 2.592 3.37 8 315.1
847.344 15.827 0.206 2.594 3.371 8 315.1
847.345 15.827 0.206 2.594 3.371 8 315.1
847.369 15.827 0.206 2.596 3.371 8 315.1
847.37 15.827 0.206 2.596 3.371 8 315.1
847.395 15.827 0.206 2.598 3.37 8 315.1
847.42 15.827 0.206 2.6 3.37 8 315.1
847.445 15.827 0.206 2.601 3.369 8 315.1
847.446 15.827 0.206 2.601 3.369 8 315.1
847.47 15.827 0.206 2.602 3.368 8 315.1
847.471 15.827 0.206 2.602 3.368 8 315.1
847.495 15.827 0.206 2.603 3.367 8 315.1
847.496 15.827 0.206 2.604 3.367 8 315.1
847.52 15.827 0.206 2.604 3.366 8 315.1
847.522 15.827 0.206 2.604 3.366 8 315.1
847.545 15.827 0.206 2.605 3.365 8 315.1
847.547 15.827 0.206 2.605 3.365 8 315.1
847.57 15.827 0.206 2.606 3.364 8 315.1
847.573 15.827 0.206 2.606 3.364 8 315.1
847.595 15.827 0.206 2.606 3.363 8 315.1
847.598 15.827 0.206 2.606 3.363 8 315.1
847.62 15.827 0.206 2.606 3.362 8 315.1
847.623 15.827 0.206 2.606 3.362 8 315.1
847.645 15.827 0.206 2.607 3.361 8 315.1
847.649 15.827 0.206 2.607 3.361 8 315.1
847.67 15.827 0.206 2.607 3.36 8 315.1
847.674 15.827 0.206 2.607 3.36 8 315.1
847.695 15.827 0.206 2.607 3.359 8 315.1
847.7 15.827 0.206 2.607 3.359 8 315.1
847.72 15.827 0.206 2.607 3.358 8 315.1
847.725 15.827 0.206 2.607 3.358 8 315.1
847.745 15.827 0.206 2.607 3.357 8 315.1
847.75 15.827 0.206 2.607 3.357 8 315.1
847.77 15.827 0.206 2.607 3.356 8 315.1
847.776 15.827 0.206 2.607 3.356 8 315.1
847.795 15.827 0.206 2.607 3.355 8 315.1
847.801 15.827 0.206 2.607 3.355 8 315.1
847.82 15.827 0.206 2.607 3.354 8 315.1
847.827 15.827 0.206 2.607 3.353 8 315.1
847.845 15.827 0.206 2.607 3.353 8 315.1
847.852 15.827 0.206 2.608 3.352 8 315.1
847.87 15.827 0.206 2.608 3.352 8 315.1
847.877 15.827 0.206 2.608 3.351 8 315.1
847.895 15.827 0.206 2.608 3.351 8 315.1
847.903 15.827 0.206 2.608 3.35 8 315.1
847.92 15.827 0.206 2.608 3.349 8 315.1
847.928 15.827 0.206 2.608 3.349 8 315.1
847.945 15.827 0.206 2.608 3.348 8 315.1
847.954 15.827 0.206 2.608 3.348 8 315.1
847.97 15.827 0.206 2.608 3.347 8 315.1
847.979 15.827 0.206 2.608 3.347 8 315.1
847.995 15.827 0.206 2.608 3.346 8 315.1
848.004 15.827 0.206 2.608 3.346 8 315.1
848.02 15.827 0.206 2.608 3.345 8 315.1
848.03 15.827 0.206 2.608 3.345 8 315.1
848.045 15.827 0.206 2.608 3.344 8 315.1
848.055 15.827 0.206 2.608 3.344 8 315.1
848.07 15.827 0.206 2.608 3.343 8 315.1
848.081 15.827 0.206 2.608 3.342 8 315.1
848.095 15.827 0.206 2.608 3.342 8 315.1
848.106 15.827 0.206 2.608 3.341 8 315.1
848.12 15.827 0.206 2.608 3.341 8 315.1
848.131 15.827 0.206 2.608 3.34 8 315.1
848.145 15.827 0.206 2.608 3.339 8 315.1
848.157 15.827 0.206 2.608 3.339 8 315.1
848.17 15.827 0.206 2.608 3.338 8 315.1
848.182 15.827 0.206 2.608 3.338 8 315.1
848.195 15.827 0.206 2.608 3.337 8 315.1
848.208 15.827 0.206 2.608 3.337 8 315.1
848.22 15.827 0.206 2.608 3.336 8 315.1
848.233 15.827 0.206 2.608 3.336 8 315.1
848.245 15.827 0.206 2.608 3.335 8 315.1
848.258 15.827 0.206 2.608 3.334 8 315.1
848.27 15.827 0.206 2.608 3.334 8 315.1
848.284 15.827 0.206 2.608 3.333 8 315.1
848.295 15.827 0.206 2.608 3.333 8 315.1
848.309 15.827 0.206 2.608 3.332 8 315.1
848.32 15.827 0.206 2.608 3.332 8 315.1
848.335 15.827 0.206 2.608 3.331 8 315.1
848.345 15.827 0.206 2.608 3.331 8 315.1
848.36 15.827 0.206 2.608 3.33 8 315.1
848.37 15.827 0.206 2.608 3.329 8 315.1
848.385 15.827 0.206 2.608 3.329 8 315.1
848.395 15.827 0.206 2.608 3.328 8 315.1
848.411 15.827 0.206 2.608 3.327 8 315.1
848.42 15.827 0.206 2.608 3.327 8 315.1
848.436 15.827 0.206 2.608 3.326 8 315.1
848.445 15.827 0.206 2.608 3.326 8 315.1
848.462 15.827 0.206 2.608 3.325 8 315.1
848.47 15.827 0.206 2.608 3.325 8 315.1
848.487 15.827 0.206 2.608 3.324 8 315.1
848.495 15.827 0.206 2.608 3.324 8 315.1
848.512 15.827 0.206 2.608 3.323 8 315.1
848.52 15.827 0.206 2.608 3.323 8 315.1
848.538 15.827 0.206 2.608 3.322 8 315.1
848.545 15.827 0.206 2.608 3.321 8 315.1
848.563 15.827 0.206 2.608 3.321 8 315.1
848.57 15.827 0.206 2.608 3.32 8 315.1
848.589 15.827 0.206 2.608 3.319 8 315.1
848.595 15.827 0.206 2.608 3.319 8 315.1
848.614 15.827 0.206 2.608 3.318 8 315.1
848.62 15.827 0.206 2.608 3.318 8 315.1
848.639 15.827 0.206 2.608 3.317 8 315.1
848.645 15.827 0.206 2.608 3.317 8 315.1
848.665 15.827 0.206 2.608 3.316 8 315.1
848.67 15.827 0.206 2.608 3.316 8 315.1
848.69 15.827 0.206 2.608 3.315 8 315.1
848.695 15.827 0.206 2.608 3.315 8 315.1
848.716 15.827 0.206 2.608 3.314 8 315.1
848.72 15.827 0.206 2.608 3.314 8 315.1
848.741 15.827 0.206 2.608 3.313 8 315.1
848.745 15.827 0.206 2.608 3.312 8 315.1
848.766 15.827 0.206 2.608 3.311 8 315.1
848.77 15.827 0.206 2.608 3.311 8 315.1
848.792 15.827 0.206 2.608 3.31 8 315.1
848.795 15.827 0.206 2.608 3.31 8 315.1
848.817 15.827 0.206 2.608 3.309 8 315.1
848.82 15.827 0.206 2.608 3.309 8 315.1
848.843 15.827 0.206 2.608 3.308 8 315.1
848.845 15.827 0.206 2.608 3.308 8 315.1
848.868 15.827 0.206 2.608 3.307 8 315.1
848.87 15.827 0.206 2.608 3.307 8 315.1
848.893 15.827 0.206 2.608 3.306 8 315.1
848.895 15.827 0.206 2.608 3.306 8 315.1
848.919 15.827 0.206 2.608 3.304 8 315.1
848.92 15.827 0.206 2.608 3.304 8 315.1
848.944 15.827 0.206 2.608 3.303 8 315.1
848.945 15.827 0.206 2.608 3.303 8 315.1
848.97 15.827 0.206 2.608 3.302 8 315.1
848.995 15.827 0.206 2.608 3.301 8 315.1
849.02 15.827 0.206 2.608 3.3 8 315.1
849.045 15.827 0.206 2.608 3.299 8 315.1
849.046 15.827 0.206 2.608 3.299 8 315.1
849.07 15.827 0.206 2.608 3.298 8 315.1
849.071 15.827 0.206 2.608 3.298 8 315.1
849.095 15.827 0.206 2.608 3.296 8 315.1
849.097 15.827 0.206 2.608 3.296 8 315.1
849.12 15.827 0.206 2.608 3.295 8 315.1
849.122 15.827 0.206 2.608 3.295 8 315.1
849.145 15.827 0.206 2.608 3.294 8 315.1
849.147 15.827 0.206 2.608 3.294 8 315.1
849.17 15.827 0.206 2.608 3.293 8 315.1
849.173 15.827 0.206 2.608 3.293 8 315.1
849.195 15.827 0.206 2.608 3.292 8 315.1
849.198 15.827 0.206 2.608 3.292 8 315.1
849.22 15.827 0.206 2.608 3.291 8 315.1
849.224 15.827 0.206 2.608 3.29 8 315.1
849.245 15.827 0.206 2.608 3.289 8 315.1
849.249 15.827 0.206 2.608 3.289 8 315.1
849.27 15.827 0.206 2.608 3.288 8 315.1
849.274 15.827 0.206 2.608 3.288 8 315.1
849.295 15.827 0.206 2.608 3.287 8 315.1
849.3 15.827 0.206 2.608 3.287 8 315.1
849.32 15.827 0.206 2.608 3.286 8 315.1
849.325 15.827 0.206 2.608 3.286 8 315.1
849.345 15.827 0.206 2.608 3.285 8 315.1
849.351 15.827 0.206 2.608 3.285 8 315.1
849.37 15.827 0.206 2.608 3.284 8 315.1
849.376 15.827 0.206 2.608 3.283 8 315.1
849.395 15.827 0.206 2.608 3.283 8 315.1
849.401 15.827 0.206 2.608 3.282 8 315.1
849.42 15.827 0.206 2.608 3.281 8 315.1
849.427 15.827 0.206 2.608 3.281 8 315.1
849.445 15.827 0.206 2.608 3.28 8 315.1
849.452 15.827 0.206 2.608 3.28 8 315.1
849.47 15.827 0.206 2.608 3.279 8 315.1
849.478 15.827 0.206 2.608 3.279 8 315.1
849.495 15.827 0.206 2.608 3.278 8 315.1
849.503 15.827 0.206 2.608 3.277 8 315.1
849.52 15.827 0.206 2.608 3.277 8 315.1
849.528 15.827 0.206 2.608 3.276 8 315.1
849.545 15.827 0.206 2.608 3.276 8 315.1
849.554 15.827 0.206 2.608 3.275 8 315.1
849.57 15.827 0.206 2.608 3.274 8 315.1
849.579 15.827 0.206 2.608 3.274 8 315.1
849.595 15.827 0.206 2.608 3.273 8 315.1
849.605 15.827 0.206 2.608 3.273 8 315.1
849.62 15.827 0.206 2.608 3.272 8 315.1
849.63 15.827 0.206 2.608 3.272 8 315.1
849.645 15.827 0.206 2.609 3.271 8 315.1
849.655 15.827 0.206 2.609 3.27 8 315.1
849.67 15.827 0.206 2.609 3.27 8 315.1
849.681 15.827 0.206 2.609 3.269 8 315.1
849.695 15.827 0.206 2.609 3.268 8 315.1
849.706 15.827 0.206 2.609 3.268 8 315.1
849.72 15.827 0.206 2.609 3.267 8 315.1
