# Exported from Geomodeling Studio 8.5
# Project: RedLion
# Date: 2023-07-17T09:24:58
# User: xuepi
# Geodetic Coordinate System: NAD27 / UTM zone 12N
# 
~Version
VERS          .          3.0                                         :CWLS LOG ASCII STANDARD - VERSION 3.00
WRAP          .          NO                                          :One line per depth step
DLM           .          SPACE                                       :Delimiter character between data columns
#Delimiting character ( SPACE TAB OR COMMA ).
#----          ----      -------------                                -----------
#MNEM         .UNIT      DATA                                        :DESCRIPTION
~Well
STRT          .m         744.195                                     :FIRST INDEX VALUE
STOP          .m         849.995                                     :LAST INDEX VALUE
STEP          .m         0.0254                                      :STEP
NULL          .          -9999.990                                   :NULL VALUE
COMP          .                                                      :COMPANY
WELL          .          102/06-05-039-03W4/00                       :WELL
FLD           .                                                      :FIELD
LOC           .                  :LOCATION                              
SRVC          .                                                      :SERVICE COMPANY
CTRY          .                                                      :COUNTRY
CNTY          .                                                      :COUNTY
STAT          .                                                      :STATE
API           .                                                      :API NUMBER
DATE          .                                                      :LOG DATE
X             .          540699.200                                  :X OR EAST-WEST COORDINATE
Y             .          5797001.200                                 :Y OR NORTH-SOUTH COORDINATE
HZCS          .                                                      :HORIZONTAL CO-ORDINATE SYSTEM
GDAT          .          NAD27                                       :GEODETIC DATUM
UWI           .          102060503903W400                            :Unique Well Identifier
#----          ----      -----                                        -----------
~Parameter 
#MNEM         .UNIT      VALUE                                        Description
APD           .M         00.00                                       :Above Permanent Datum
DREF          .          KB                                          :Depth Reference (KB,DF,CB)
EREF          .m         671.100                                     :Elevation of Depth Deference
RUN           .          1                                           :Run Number
EKB           .m         671.100                                     :Kelling Bush Elevation
#----          ----      ---------                                    -----------------
#MNEM          UNIT      LOG CODES                                    Curve Description
~Curve
DEPTH         .m                                                     :DEPTH
GR            .GAPI                                                  :
NPHI          .Fraction                                              :
DEN           .g/cm^3                                                :
PEF           .Bar/e                                                 :
Lithology Facies_xueping.                                                      :
AC            .us/m                                                  :
#----          ----      ---------                                    -----------------
~Ascii
# ...
805.22 60.582 0.214 2.381 1.805 4 324.21
805.231 61.02 0.215 2.399 1.847 4 324.779
805.245 61.574 0.213 2.422 1.949 4 325.497
805.256 62.009 0.211 2.44 2.029 4 326.061
805.27 62.566 0.208 2.463 2.131 8 326.784
805.282 63.022 0.207 2.482 2.219 8 327.385
805.295 62.908 0.208 2.485 2.33 8 327.536
805.307 62.803 0.208 2.487 2.434 8 327.676
805.32 62.689 0.209 2.49 2.545 8 327.827
805.332 62.584 0.21 2.493 2.647 8 327.966
805.345 62.47 0.217 2.472 2.647 8 328.117
805.358 62.355 0.225 2.451 2.643 8 328.268
805.37 62.25 0.231 2.431 2.64 4 328.408
805.383 62.136 0.238 2.409 2.636 4 328.559
805.395 62.031 0.242 2.388 2.598 4 328.699
805.409 61.908 0.245 2.364 2.553 4 328.861
805.42 61.812 0.248 2.345 2.518 4 328.989
805.434 61.688 0.252 2.32 2.473 4 329.152
805.445 61.672 0.248 2.305 2.396 4 329.099
805.459 61.652 0.242 2.286 2.298 4 329.031
805.47 61.636 0.238 2.27 2.221 4 328.978
805.485 61.614 0.232 2.25 2.116 4 328.906
805.495 61.599 0.24 2.242 2.061 4 328.858
805.51 61.577 0.252 2.231 1.98 4 328.785
805.52 61.563 0.259 2.224 1.925 4 328.737
805.536 61.539 0.271 2.212 1.84 4 328.66
805.545 61.526 0.271 2.21 1.819 4 328.616
805.561 61.503 0.269 2.206 1.783 4 328.539
805.57 61.489 0.268 2.203 1.762 4 328.496
805.586 61.466 0.267 2.199 1.725 4 328.419
805.595 61.189 0.267 2.2 1.73 4 328.296
805.612 60.638 0.266 2.2 1.742 4 328.054
805.62 60.379 0.266 2.2 1.747 4 327.941
805.637 59.829 0.266 2.201 1.759 4 327.699
805.645 59.57 0.264 2.205 1.767 4 327.586
805.663 58.987 0.26 2.213 1.785 4 327.331
805.67 58.762 0.258 2.216 1.792 4 327.232
805.688 58.18 0.254 2.224 1.81 4 326.977
805.695 57.953 0.246 2.23 1.82 4 326.877
805.713 57.37 0.224 2.246 1.847 4 326.622
805.72 57.145 0.216 2.252 1.857 4 326.523
805.739 56.548 0.193 2.269 1.886 4 326.24
805.745 56.806 0.195 2.276 1.902 4 325.818
805.764 57.626 0.202 2.297 1.953 4 324.48
805.77 57.888 0.204 2.304 1.97 4 324.053
805.79 58.753 0.211 2.327 2.025 4 322.643
805.795 58.97 0.212 2.333 2.052 4 322.289
805.815 59.837 0.217 2.358 2.157 4 320.875
805.82 60.054 0.218 2.364 2.184 4 320.521
805.84 60.921 0.223 2.389 2.29 4 319.106
805.845 61.135 0.222 2.393 2.301 4 318.757
805.866 62.047 0.214 2.412 2.345 4 317.269
805.87 62.219 0.212 2.415 2.353 4 316.989
805.891 63.129 0.204 2.434 2.396 4 315.505
805.895 63.314 0.203 2.436 2.399 4 315.219
805.917 64.326 0.194 2.45 2.413 4 313.66
805.92 64.464 0.193 2.452 2.415 8 313.448
805.942 65.481 0.185 2.466 2.429 8 311.881
805.945 65.62 0.186 2.468 2.436 8 311.668
805.967 66.634 0.193 2.481 2.492 8 310.105
805.97 66.772 0.194 2.482 2.5 8 309.893
805.993 67.835 0.202 2.496 2.558 8 308.256
805.995 67.928 0.202 2.496 2.563 8 308.113
806.018 68.99 0.196 2.504 2.613 8 306.477
806.02 69.083 0.196 2.504 2.617 8 306.333
806.044 70.186 0.191 2.512 2.669 8 304.638
806.045 70.22 0.191 2.512 2.67 8 304.593
806.069 71.063 0.21 2.517 2.691 8 303.48
806.07 71.099 0.21 2.518 2.692 8 303.432
806.094 71.94 0.229 2.523 2.713 8 302.322
806.095 71.974 0.229 2.523 2.714 8 302.276
806.12 72.854 0.216 2.519 2.756 8 301.115
806.145 73.733 0.204 2.515 2.798 8 299.954
806.17 74.61 0.207 2.501 2.791 8 298.796
806.171 74.646 0.207 2.501 2.791 8 298.748
806.195 75.489 0.21 2.488 2.784 8 297.635
806.196 75.523 0.21 2.487 2.784 8 297.59
806.22 76.362 0.216 2.477 2.749 8 297.93
806.221 76.398 0.216 2.476 2.748 8 297.945
806.245 77.234 0.222 2.466 2.713 8 298.285
806.247 77.305 0.223 2.465 2.71 8 298.313
806.27 78.109 0.228 2.458 2.632 8 298.64
806.272 78.177 0.229 2.458 2.626 8 298.667
806.295 78.981 0.235 2.451 2.548 8 298.994
806.298 79.086 0.235 2.45 2.539 8 299.036
806.32 79.856 0.226 2.452 2.514 8 299.349
806.323 79.961 0.225 2.452 2.511 8 299.391
806.345 80.729 0.216 2.454 2.486 6 299.703
806.348 80.835 0.215 2.455 2.482 6 299.746
806.37 80.76 0.21 2.458 2.495 6 299.915
806.374 80.744 0.209 2.459 2.498 6 299.946
806.395 80.658 0.204 2.463 2.511 6 300.105
806.399 80.642 0.203 2.463 2.513 6 300.135
806.42 80.556 0.208 2.463 2.547 6 300.294
806.425 80.536 0.21 2.463 2.555 6 300.331
806.445 80.455 0.215 2.463 2.588 6 300.483
806.45 80.434 0.216 2.463 2.596 6 300.521
806.47 80.353 0.203 2.46 2.603 6 300.672
806.475 80.332 0.2 2.46 2.605 6 300.71
806.495 80.251 0.187 2.457 2.612 6 300.862
806.501 80.223 0.184 2.457 2.614 6 300.905
806.52 79.77 0.19 2.459 2.585 8 300.812
806.526 79.628 0.192 2.459 2.576 8 300.782
806.545 79.177 0.198 2.461 2.547 8 300.689
806.552 79.01 0.201 2.462 2.537 8 300.655
806.57 78.583 0.207 2.468 2.533 8 300.567
806.577 78.416 0.209 2.471 2.531 8 300.533
806.595 77.99 0.215 2.477 2.527 8 300.445
806.602 77.823 0.217 2.48 2.526 8 300.411
806.62 77.395 0.215 2.487 2.546 8 300.322
806.628 77.205 0.213 2.49 2.556 8 300.283
806.645 76.8 0.211 2.496 2.576 8 300.2
806.653 76.61 0.21 2.499 2.586 8 300.161
806.67 75.618 0.204 2.498 2.606 8 300.394
806.679 75.087 0.2 2.498 2.617 8 300.52
806.695 74.146 0.195 2.498 2.636 8 300.744
806.704 73.618 0.191 2.497 2.647 8 300.869
806.72 72.677 0.192 2.49 2.61 8 301.092
806.729 72.145 0.192 2.486 2.589 8 301.218
806.745 71.206 0.193 2.478 2.552 8 301.441
806.755 70.619 0.194 2.474 2.529 8 301.581
806.77 69.735 0.195 2.468 2.492 8 301.79
806.78 69.146 0.196 2.464 2.468 8 301.93
806.795 68.266 0.197 2.458 2.431 8 302.139
806.806 67.637 0.198 2.454 2.406 8 302.3
806.82 67.504 0.196 2.457 2.428 8 302.709
806.831 67.399 0.194 2.458 2.446 8 303.031
806.845 67.266 0.192 2.461 2.468 8 303.441
806.856 67.16 0.191 2.463 2.486 8 303.764
806.87 67.027 0.199 2.465 2.509 8 304.174
806.882 66.912 0.206 2.467 2.529 8 304.526
806.895 66.789 0.214 2.47 2.55 8 304.906
806.907 66.675 0.221 2.472 2.57 8 305.256
806.92 66.551 0.214 2.467 2.622 8 305.637
806.933 66.427 0.206 2.463 2.674 8 306.018
806.945 66.312 0.199 2.459 2.722 8 306.37
806.958 66.188 0.192 2.454 2.774 8 306.751
806.97 66.164 0.195 2.44 2.803 4 306.728
806.983 66.137 0.198 2.424 2.835 4 306.702
806.995 66.113 0.201 2.41 2.865 4 306.678
807.009 66.084 0.204 2.393 2.898 4 306.65
807.02 66.062 0.205 2.38 2.845 4 306.628
807.034 66.033 0.206 2.363 2.778 4 306.601
807.045 66.011 0.207 2.35 2.726 4 306.579
807.06 65.98 0.208 2.332 2.653 4 306.549
807.07 65.959 0.208 2.328 2.577 4 306.529
807.085 65.929 0.209 2.321 2.464 4 306.5
807.095 65.908 0.21 2.316 2.389 4 306.48
807.11 65.878 0.211 2.309 2.275 4 306.45
807.12 66.023 0.212 2.312 2.237 4 306.439
807.136 66.267 0.214 2.317 2.178 4 306.423
807.145 66.405 0.215 2.319 2.145 4 306.414
807.161 66.65 0.217 2.324 2.087 4 306.397
807.17 66.787 0.22 2.333 2.105 4 306.388
807.187 67.047 0.228 2.349 2.142 4 306.371
807.195 67.169 0.231 2.357 2.159 4 306.363
807.212 67.428 0.239 2.373 2.195 4 306.345
807.22 67.55 0.231 2.381 2.225 4 306.337
807.237 67.809 0.215 2.398 2.289 4 306.32
807.245 67.931 0.207 2.406 2.319 4 306.312
807.263 68.2 0.19 2.424 2.386 4 306.297
807.27 68.078 0.191 2.428 2.41 4 306.452
807.288 67.766 0.193 2.439 2.472 4 306.847
807.295 67.645 0.194 2.443 2.495 4 307
807.314 67.315 0.196 2.454 2.56 4 307.418
807.32 67.211 0.198 2.456 2.573 8 307.549
807.339 66.882 0.201 2.462 2.613 8 307.966
807.345 66.778 0.202 2.464 2.626 8 308.097
807.364 66.448 0.206 2.469 2.667 8 308.515
807.37 66.344 0.205 2.47 2.671 8 308.646
807.39 65.997 0.202 2.471 2.682 8 309.086
807.395 65.91 0.201 2.471 2.685 8 309.195
807.415 65.565 0.197 2.472 2.696 8 309.632
807.42 65.418 0.196 2.47 2.696 8 309.708
807.441 64.791 0.192 2.458 2.695 8 310.017
807.445 64.67 0.191 2.456 2.695 8 310.077
807.466 64.043 0.187 2.444 2.695 8 310.386
807.47 63.924 0.188 2.439 2.674 4 310.444
807.491 63.295 0.193 2.412 2.565 4 310.754
807.495 63.177 0.194 2.407 2.545 4 310.813
807.517 62.518 0.2 2.379 2.431 4 311.137
807.52 62.429 0.201 2.377 2.42 4 311.181
807.542 61.772 0.212 2.362 2.341 4 311.505
807.545 61.683 0.213 2.36 2.33 4 311.549
807.568 60.998 0.223 2.344 2.248 4 311.884
807.57 60.943 0.223 2.343 2.244 4 311.9
807.593 60.312 0.215 2.332 2.198 4 312.08
807.595 60.258 0.214 2.331 2.195 4 312.096
807.618 59.627 0.206 2.32 2.149 4 312.276
807.62 59.571 0.206 2.319 2.15 4 312.292
807.644 58.913 0.21 2.313 2.17 4 312.48
