# Exported from Geomodeling Studio 8.5
# Project: RedLion
# Date: 2023-07-17T09:24:58
# User: xuepi
# Geodetic Coordinate System: NAD27 / UTM zone 12N
# 
~Version
VERS          .          3.0                                         :CWLS LOG ASCII STANDARD - VERSION 3.00
WRAP          .          NO                                          :One line per depth step
DLM           .          SPACE                                       :Delimiter character between data columns
#Delimiting character ( SPACE TAB OR COMMA ).
#----          ----      -------------                                -----------
#MNEM         .UNIT      DATA                                        :DESCRIPTION
~Well
STRT          .m         744.195                                     :FIRST INDEX VALUE
STOP          .m         849.995                                     :LAST INDEX VALUE
STEP          .m         0.0254                                      :STEP
NULL          .          -9999.990                                   :NULL VALUE
COMP          .                                                      :COMPANY
WELL          .          102/06-05-039-03W4/00                       :WELL
FLD           .                                                      :FIELD
LOC           .                  :LOCATION                              
SRVC          .                                                      :SERVICE COMPANY
CTRY          .                                                      :COUNTRY
CNTY          .                                                      :COUNTY
STAT          .                                                      :STATE
API           .                                                      :API NUMBER
DATE          .                                                      :LOG DATE
X             .          540699.200                                  :X OR EAST-WEST COORDINATE
Y             .          5797001.200                                 :Y OR NORTH-SOUTH COORDINATE
HZCS          .                                                      :HORIZONTAL CO-ORDINATE SYSTEM
GDAT          .          NAD27                                       :GEODETIC DATUM
UWI           .          102060503903W400                            :Unique Well Identifier
#----          ----      -----                                        -----------
~Parameter 
#MNEM         .UNIT      VALUE                                        Description
APD           .M         00.00                                       :Above Permanent Datum
DREF          .          KB                                          :Depth Reference (KB,DF,CB)
EREF          .m         671.100                                     :Elevation of Depth Deference
RUN           .          1                                           :Run Number
EKB           .m         671.100                                     :Kelling Bush Elevation
#----          ----      ---------                                    -----------------
#MNEM          UNIT      LOG CODES                                    Curve Description
~Curve
DEPTH         .m                                                     :DEPTH
GR            .GAPI                                                  :
NPHI          .Fraction                                              :
DEN           .g/cm^3                                                :
PEF           .Bar/e                                                 :
Lithology Facies_xueping.                                                      :
AC            .us/m                                                  :
#----          ----      ---------                                    -----------------
~Ascii
# ...
827.295 16.059 0.245 2.104 1.569 3 332.553
827.303 15.991 0.248 2.103 1.573 3 332.341
827.32 15.846 0.254 2.101 1.58 3 331.888
827.329 15.77 0.257 2.1 1.583 3 331.65
827.345 15.633 0.247 2.101 1.584 3 331.225
827.354 15.556 0.242 2.102 1.585 3 330.984
827.37 15.42 0.232 2.104 1.586 3 330.559
827.38 15.34 0.227 2.105 1.586 3 330.299
827.395 15.392 0.239 2.109 1.594 3 330.089
827.405 15.428 0.248 2.112 1.599 3 329.95
827.42 15.48 0.261 2.117 1.606 3 329.741
827.43 15.516 0.269 2.12 1.611 3 329.601
827.445 15.569 0.261 2.119 1.614 3 329.391
827.456 15.607 0.255 2.119 1.616 3 329.237
827.47 15.657 0.248 2.118 1.619 3 329.042
827.481 15.696 0.242 2.118 1.621 3 328.887
827.495 15.745 0.239 2.118 1.623 3 328.692
827.507 15.788 0.238 2.117 1.625 3 328.524
827.52 15.833 0.235 2.117 1.627 3 328.342
827.532 15.876 0.234 2.117 1.629 3 328.175
827.545 15.798 0.227 2.118 1.632 3 327.938
827.557 15.726 0.22 2.119 1.635 3 327.719
827.57 15.649 0.213 2.121 1.638 3 327.483
827.583 15.572 0.207 2.122 1.641 3 327.247
827.595 15.5 0.209 2.125 1.637 3 327.03
827.608 15.423 0.211 2.128 1.634 3 326.793
827.62 15.351 0.213 2.131 1.63 3 326.574
827.634 15.268 0.215 2.135 1.626 3 326.32
827.645 15.202 0.218 2.138 1.619 3 326.119
827.659 15.118 0.222 2.141 1.611 3 325.865
827.67 15.053 0.225 2.144 1.605 3 325.665
827.684 14.969 0.23 2.148 1.597 3 325.409
827.695 15.001 0.231 2.15 1.588 3 325.182
827.71 15.05 0.234 2.153 1.577 3 324.87
827.72 15.082 0.235 2.155 1.569 3 324.664
827.735 15.13 0.238 2.158 1.557 3 324.353
827.745 15.162 0.235 2.159 1.55 3 324.145
827.761 15.214 0.232 2.159 1.539 3 323.813
827.77 15.243 0.23 2.16 1.533 3 323.625
827.786 15.295 0.226 2.16 1.522 3 323.293
827.795 15.323 0.226 2.16 1.521 3 323.106
827.811 15.375 0.226 2.16 1.52 3 322.774
827.82 15.404 0.226 2.16 1.519 3 322.587
827.837 15.459 0.226 2.16 1.518 3 322.236
827.845 15.505 0.229 2.158 1.525 3 322.16
827.862 15.604 0.233 2.154 1.539 3 321.999
827.87 15.65 0.236 2.152 1.545 3 321.923
827.888 15.754 0.241 2.148 1.56 3 321.752
827.895 15.794 0.241 2.145 1.563 3 321.685
827.913 15.898 0.243 2.139 1.571 3 321.515
827.92 15.938 0.244 2.136 1.574 3 321.449
827.938 16.042 0.245 2.13 1.582 3 321.278
827.945 16.083 0.244 2.128 1.583 3 321.211
827.964 16.192 0.24 2.121 1.586 3 321.031
827.97 16.227 0.238 2.119 1.586 3 320.974
827.989 16.337 0.234 2.112 1.589 3 320.793
827.995 16.363 0.236 2.112 1.591 3 320.761
828.015 16.448 0.244 2.111 1.597 3 320.655
828.02 16.47 0.246 2.11 1.599 3 320.628
828.04 16.555 0.254 2.109 1.605 3 320.522
828.045 16.576 0.251 2.11 1.605 3 320.496
828.065 16.661 0.243 2.113 1.605 3 320.39
828.07 16.683 0.241 2.114 1.605 3 320.363
828.091 16.772 0.232 2.117 1.605 3 320.252
828.095 16.789 0.232 2.117 1.603 3 320.231
828.116 16.879 0.231 2.118 1.594 3 320.119
828.12 16.896 0.231 2.118 1.592 3 320.098
828.142 16.991 0.229 2.119 1.583 3 319.985
828.145 17.013 0.229 2.119 1.582 3 319.998
828.167 17.172 0.227 2.118 1.579 3 320.095
828.17 17.194 0.227 2.118 1.578 3 320.108
828.192 17.353 0.225 2.118 1.574 3 320.206
828.195 17.375 0.226 2.118 1.575 3 320.219
828.218 17.541 0.239 2.116 1.578 3 320.32
828.22 17.555 0.24 2.116 1.579 3 320.329
828.243 17.721 0.253 2.115 1.582 3 320.43
828.245 17.736 0.253 2.115 1.581 3 320.439
828.269 17.91 0.249 2.119 1.563 3 320.545
828.27 17.917 0.249 2.119 1.562 3 320.549
828.294 18.091 0.246 2.123 1.544 3 320.655
828.295 18.1 0.246 2.123 1.544 3 320.657
828.319 18.329 0.246 2.128 1.539 3 320.706
828.32 18.339 0.246 2.128 1.538 3 320.708
828.345 18.578 0.247 2.133 1.533 3 320.759
828.37 18.817 0.253 2.137 1.524 3 320.81
828.395 19.056 0.259 2.141 1.516 3 320.861
828.396 19.065 0.259 2.141 1.516 3 320.863
828.42 19.295 0.265 2.141 1.533 3 320.911
828.421 19.305 0.265 2.141 1.534 3 320.914
828.445 19.534 0.271 2.14 1.551 3 320.962
828.446 19.543 0.271 2.14 1.551 3 320.964
828.47 19.618 0.264 2.138 1.557 3 320.959
828.472 19.624 0.264 2.138 1.558 3 320.958
828.495 19.693 0.257 2.136 1.563 3 320.952
828.497 19.699 0.256 2.136 1.563 3 320.952
828.52 19.768 0.258 2.135 1.556 3 320.945
828.523 19.777 0.258 2.135 1.555 3 320.945
828.545 19.843 0.259 2.134 1.547 3 320.939
828.548 19.852 0.26 2.134 1.546 3 320.938
828.57 19.918 0.259 2.133 1.548 3 320.932
828.573 19.927 0.259 2.133 1.548 3 320.931
828.595 19.993 0.258 2.131 1.549 3 320.925
828.599 20.005 0.258 2.131 1.549 3 320.924
828.62 20.046 0.261 2.127 1.561 3 320.824
828.624 20.055 0.261 2.127 1.564 3 320.805
828.645 20.096 0.264 2.123 1.576 3 320.705
828.65 20.106 0.265 2.122 1.578 3 320.682
828.67 20.146 0.267 2.12 1.584 3 320.587
828.675 20.156 0.268 2.12 1.586 3 320.564
828.695 20.196 0.271 2.119 1.592 3 320.469
828.7 20.206 0.271 2.118 1.593 3 320.445
828.72 20.246 0.265 2.12 1.583 3 320.351
828.726 20.258 0.263 2.121 1.58 3 320.322
828.745 20.296 0.257 2.123 1.569 3 320.232
828.751 20.308 0.255 2.123 1.566 3 320.204
828.77 20.188 0.249 2.129 1.564 3 319.758
828.777 20.144 0.246 2.131 1.563 3 319.594
828.795 20.029 0.24 2.137 1.561 3 319.169
828.802 19.984 0.238 2.139 1.56 3 319.003
828.82 19.869 0.245 2.141 1.547 3 318.577
828.827 19.824 0.248 2.141 1.542 3 318.411
828.845 19.709 0.255 2.143 1.53 3 317.987
828.853 19.658 0.258 2.144 1.524 3 317.797
828.87 19.549 0.252 2.146 1.524 3 317.396
828.878 19.498 0.25 2.147 1.524 3 317.207
828.895 19.39 0.244 2.149 1.523 3 316.805
828.904 19.335 0.241 2.151 1.523 3 316.597
828.92 19.322 0.244 2.152 1.517 3 316.339
828.929 19.315 0.245 2.152 1.514 3 316.193
828.945 19.302 0.248 2.154 1.509 3 315.935
828.954 19.295 0.249 2.154 1.506 3 315.79
828.97 19.283 0.251 2.155 1.51 3 315.532
828.98 19.275 0.251 2.156 1.513 3 315.371
828.995 19.263 0.253 2.156 1.518 3 315.128
829.005 19.255 0.253 2.157 1.521 3 314.967
829.02 19.243 0.244 2.158 1.535 3 314.724
829.031 19.235 0.237 2.158 1.545 3 314.547
829.045 19.224 0.228 2.159 1.558 3 314.322
829.056 19.215 0.22 2.16 1.568 3 314.144
829.07 19.231 0.23 2.157 1.573 3 314.044
829.081 19.243 0.237 2.155 1.577 3 313.965
829.095 19.259 0.247 2.152 1.583 3 313.864
829.107 19.272 0.255 2.15 1.587 3 313.777
829.12 19.287 0.251 2.148 1.596 3 313.684
829.132 19.3 0.247 2.145 1.604 3 313.597
829.145 19.315 0.243 2.143 1.613 3 313.504
829.158 19.33 0.24 2.14 1.622 3 313.41
829.17 19.343 0.242 2.139 1.619 3 313.324
829.183 19.358 0.245 2.138 1.615 3 313.23
829.195 19.371 0.248 2.136 1.612 3 313.144
829.208 19.386 0.25 2.135 1.609 3 313.05
829.22 19.44 0.25 2.137 1.608 3 312.948
829.234 19.504 0.25 2.14 1.607 3 312.827
829.245 19.555 0.249 2.142 1.606 3 312.733
829.259 19.619 0.249 2.145 1.605 3 312.613
829.27 19.67 0.251 2.147 1.606 3 312.518
829.285 19.739 0.253 2.151 1.607 3 312.389
829.295 19.785 0.255 2.153 1.608 3 312.303
829.31 19.854 0.257 2.157 1.609 3 312.174
829.32 19.9 0.258 2.157 1.61 3 312.088
829.335 19.97 0.26 2.157 1.612 3 311.959
829.345 20.015 0.261 2.157 1.614 3 311.873
829.361 20.088 0.262 2.157 1.616 3 311.74
829.37 20.088 0.255 2.157 1.617 3 311.82
829.386 20.088 0.244 2.156 1.619 3 311.963
829.395 20.088 0.238 2.155 1.621 3 312.043
829.412 20.088 0.226 2.154 1.623 3 312.195
829.42 20.088 0.228 2.152 1.616 3 312.267
829.437 20.088 0.233 2.15 1.602 3 312.419
829.445 20.088 0.235 2.149 1.595 3 312.491
829.462 20.088 0.239 2.147 1.581 3 312.643
829.47 20.088 0.24 2.145 1.581 3 312.714
829.488 20.088 0.243 2.141 1.583 3 312.875
829.495 20.088 0.244 2.14 1.583 3 312.938
829.513 20.088 0.246 2.136 1.585 3 313.099
829.52 20.019 0.245 2.137 1.581 3 313.121
829.539 19.828 0.241 2.14 1.571 3 313.176
829.545 19.768 0.24 2.14 1.568 3 313.193
829.564 19.576 0.237 2.143 1.558 3 313.248
829.57 19.516 0.236 2.144 1.554 3 313.266
829.589 19.325 0.234 2.146 1.541 3 313.321
829.595 19.265 0.234 2.147 1.537 3 313.338
829.615 19.063 0.232 2.15 1.523 3 313.396
829.62 19.012 0.233 2.15 1.525 3 313.411
829.64 18.81 0.24 2.149 1.53 3 313.469
829.645 18.76 0.242 2.149 1.532 3 313.483
829.666 18.55 0.248 2.148 1.537 3 313.54
829.67 18.529 0.247 2.147 1.538 3 313.514
829.691 18.418 0.24 2.144 1.544 3 313.378
829.695 18.397 0.239 2.143 1.546 3 313.352
