# Exported from Geomodeling Studio 8.5
# Project: RedLion
# Date: 2023-07-17T09:24:58
# User: xuepi
# Geodetic Coordinate System: NAD27 / UTM zone 12N
# 
~Version
VERS          .          3.0                                         :CWLS LOG ASCII STANDARD - VERSION 3.00
WRAP          .          NO                                          :One line per depth step
DLM           .          SPACE                                       :Delimiter character between data columns
#Delimiting character ( SPACE TAB OR COMMA ).
#----          ----      -------------                                -----------
#MNEM         .UNIT      DATA                                        :DESCRIPTION
~Well
STRT          .m         744.195                                     :FIRST INDEX VALUE
STOP          .m         849.995                                     :LAST INDEX VALUE
STEP          .m         0.0254                                      :STEP
NULL          .          -9999.990                                   :NULL VALUE
COMP          .                                                      :COMPANY
WELL          .          102/06-05-039-03W4/00                       :WELL
FLD           .                                                      :FIELD
LOC           .                  :LOCATION                              
SRVC          .                                                      :SERVICE COMPANY
CTRY          .                                                      :COUNTRY
CNTY          .                                                      :COUNTY
STAT          .                                                      :STATE
API           .                                                      :API NUMBER
DATE          .                                                      :LOG DATE
X             .          540699.200                                  :X OR EAST-WEST COORDINATE
Y             .          5797001.200                                 :Y OR NORTH-SOUTH COORDINATE
HZCS          .                                                      :HORIZONTAL CO-ORDINATE SYSTEM
GDAT          .          NAD27                                       :GEODETIC DATUM
UWI           .          102060503903W400                            :Unique Well Identifier
#----          ----      -----                                        -----------
~Parameter 
#MNEM         .UNIT      VALUE                                        Description
APD           .M         00.00                                       :Above Permanent Datum
DREF          .          KB                                          :Depth Reference (KB,DF,CB)
EREF          .m         671.100                                     :Elevation of Depth Deference
RUN           .          1                                           :Run Number
EKB           .m         671.100                                     :Kelling Bush Elevation
#----          ----      ---------                                    -----------------
#MNEM          UNIT      LOG CODES                                    Curve Description
~Curve
DEPTH         .m                                                     :DEPTH
GR            .GAPI                                                  :
NPHI          .Fraction                                              :
DEN           .g/cm^3                                                :
PEF           .Bar/e                                                 :
Lithology Facies_xueping.                                                      :
AC            .us/m                                                  :
#----          ----      ---------                                    -----------------
~Ascii
# ...
763.77 90.334 0.259 2.422 2.162 6 301.362
763.778 90.542 0.255 2.425 2.172 6 301.041
763.795 90.983 0.256 2.426 2.188 6 300.359
763.803 91.191 0.257 2.427 2.196 6 300.038
763.82 91.633 0.259 2.428 2.212 6 299.355
763.829 91.862 0.26 2.429 2.22 6 298.996
763.845 91.909 0.252 2.428 2.219 6 298.539
763.854 91.935 0.247 2.427 2.218 6 298.281
763.87 91.982 0.239 2.426 2.217 6 297.824
763.88 92.011 0.235 2.425 2.216 6 297.537
763.895 92.054 0.245 2.423 2.202 6 297.109
763.905 92.083 0.251 2.422 2.193 6 296.824
763.92 92.127 0.261 2.42 2.179 6 296.396
763.93 92.156 0.268 2.419 2.17 6 296.11
763.945 92.2 0.274 2.418 2.157 6 295.68
763.956 92.232 0.279 2.418 2.148 6 295.366
763.97 92.273 0.286 2.417 2.136 6 294.967
763.981 92.305 0.291 2.417 2.127 6 294.651
763.995 92.395 0.279 2.415 2.125 6 295.269
764.007 92.472 0.27 2.414 2.122 6 295.812
764.02 92.557 0.259 2.413 2.12 6 296.4
764.032 92.634 0.249 2.412 2.118 6 296.94
764.045 92.718 0.249 2.41 2.136 6 297.528
764.057 92.796 0.25 2.409 2.152 6 298.071
764.07 92.88 0.25 2.407 2.17 6 298.658
764.083 92.964 0.25 2.406 2.188 6 299.244
764.095 93.042 0.255 2.405 2.177 6 299.784
764.108 93.126 0.26 2.403 2.165 6 300.372
764.12 93.204 0.264 2.402 2.155 6 300.915
764.134 93.283 0.269 2.401 2.143 6 301.555
764.145 93.024 0.266 2.4 2.139 6 302.294
764.159 92.696 0.263 2.398 2.135 6 303.229
764.17 92.439 0.26 2.397 2.132 6 303.964
764.184 92.109 0.256 2.396 2.128 6 304.904
764.195 91.852 0.254 2.395 2.122 6 305.639
764.21 91.499 0.252 2.394 2.115 6 306.643
764.22 91.267 0.25 2.393 2.11 6 307.307
764.235 90.915 0.247 2.391 2.102 6 308.31
764.245 90.68 0.242 2.388 2.081 6 308.979
764.261 90.305 0.234 2.382 2.045 6 310.049
764.27 90.093 0.229 2.379 2.026 6 310.654
764.286 89.718 0.22 2.373 1.99 6 311.724
764.295 89.644 0.219 2.369 2.007 6 312.145
764.311 89.512 0.215 2.361 2.036 6 312.897
764.32 89.438 0.214 2.356 2.053 6 313.322
764.337 89.297 0.211 2.347 2.084 6 314.12
764.345 89.231 0.211 2.346 2.087 6 314.495
764.362 89.091 0.213 2.342 2.093 6 315.296
764.37 89.025 0.214 2.341 2.096 6 315.672
764.388 88.876 0.215 2.337 2.103 6 316.518
764.395 88.818 0.216 2.336 2.103 6 316.847
764.413 88.67 0.219 2.333 2.102 6 317.692
764.42 88.612 0.22 2.332 2.101 6 318.019
764.438 88.464 0.223 2.33 2.101 6 318.865
764.445 88.367 0.228 2.329 2.1 6 319.104
764.464 88.099 0.242 2.329 2.097 6 319.734
764.47 88.014 0.247 2.328 2.096 6 319.932
764.489 87.745 0.261 2.328 2.093 6 320.564
764.495 87.66 0.258 2.328 2.095 6 320.762
764.515 87.377 0.244 2.332 2.101 6 321.426
764.52 87.306 0.241 2.332 2.102 6 321.592
764.54 87.024 0.227 2.335 2.108 6 322.254
764.545 86.953 0.23 2.337 2.11 6 322.42
764.565 86.671 0.241 2.343 2.119 6 323.082
764.57 86.6 0.244 2.345 2.121 6 323.248
764.591 86.302 0.255 2.351 2.131 6 323.936
764.595 86.215 0.255 2.352 2.137 6 323.89
764.616 85.753 0.255 2.358 2.172 6 323.645
764.62 85.666 0.255 2.359 2.178 6 323.599
764.642 85.184 0.255 2.366 2.213 6 323.342
764.645 85.118 0.255 2.366 2.216 6 323.307
764.667 84.636 0.259 2.371 2.238 6 323.051
764.67 84.571 0.26 2.372 2.241 6 323.016
764.692 84.088 0.264 2.376 2.263 6 322.759
764.695 84.022 0.263 2.377 2.272 6 322.724
764.718 83.518 0.252 2.381 2.347 6 322.456
764.72 83.475 0.251 2.381 2.353 6 322.433
764.743 82.972 0.241 2.385 2.427 6 322.166
764.745 82.899 0.24 2.385 2.431 6 322.218
764.769 81.979 0.23 2.381 2.476 6 322.964
764.77 81.939 0.23 2.381 2.478 6 322.996
764.794 81.018 0.221 2.378 2.522 6 323.741
764.795 80.981 0.221 2.377 2.522 6 323.772
764.819 80.06 0.226 2.365 2.511 6 324.517
764.82 80.021 0.227 2.365 2.511 6 324.55
764.845 79.063 0.233 2.352 2.499 4 325.326
764.87 78.103 0.238 2.34 2.461 4 326.104
764.895 77.145 0.244 2.327 2.424 4 326.88
764.896 77.084 0.244 2.326 2.424 4 326.912
764.92 74.621 0.242 2.33 2.506 4 327.825
764.921 74.515 0.242 2.33 2.51 4 327.865
764.945 72.052 0.241 2.333 2.592 4 328.777
764.946 71.952 0.241 2.333 2.595 4 328.815
764.97 69.49 0.256 2.355 2.771 4 329.727
764.972 69.283 0.258 2.357 2.786 4 329.804
764.995 66.921 0.273 2.379 2.957 4 330.68
764.997 66.714 0.275 2.381 2.972 4 330.756
765.02 64.352 0.304 2.361 3.274 4 331.632
765.023 64.045 0.308 2.359 3.313 4 331.746
765.045 61.789 0.336 2.34 3.603 4 332.582
765.048 61.482 0.34 2.337 3.642 4 332.696
765.07 59.868 0.372 2.279 4.383 4 337.629
765.073 59.649 0.376 2.272 4.484 4 338.298
765.095 58.035 0.408 2.214 5.225 4 343.229
765.099 57.739 0.414 2.204 5.359 4 344.133
765.12 56.197 0.429 2.188 5.855 4 348.845
765.124 55.901 0.432 2.185 5.95 4 349.749
765.145 54.359 0.447 2.169 6.446 4 354.462
765.15 53.992 0.451 2.167 6.557 4 355.585
765.17 52.526 0.46 2.196 6.715 4 360.064
765.175 52.158 0.462 2.203 6.754 4 361.187
765.195 50.688 0.472 2.232 6.912 4 365.68
765.2 50.32 0.474 2.24 6.951 4 366.803
765.22 49.722 0.471 2.273 6.951 4 369.171
765.226 49.545 0.47 2.283 6.95 4 369.876
765.245 48.99 0.467 2.315 6.946 4 372.095
765.251 48.815 0.466 2.325 6.945 4 372.794
765.27 48.258 0.472 2.211 6.625 4 375.021
765.277 48.054 0.475 2.168 6.507 4 375.834
765.295 47.528 0.481 2.059 6.201 4 377.94
765.302 47.322 0.484 2.016 6.081 4 378.76
765.32 46.796 0.513 1.885 4.824 7 380.866
765.327 46.59 0.524 1.834 4.333 7 381.686
765.345 46.065 0.553 1.704 3.08 7 383.784
765.353 45.843 0.565 1.647 2.527 7 384.716
765.37 46.283 0.541 1.631 2.029 7 385.956
765.378 46.491 0.529 1.624 1.794 7 386.54
765.395 46.931 0.505 1.609 1.295 7 387.781
765.404 47.163 0.493 1.602 1.042 7 388.436
765.42 47.578 0.496 1.638 0.997 7 389.604
765.429 47.812 0.498 1.658 0.971 7 390.264
765.445 48.227 0.502 1.693 0.926 7 391.433
765.454 48.46 0.504 1.713 0.901 7 392.089
765.47 48.874 0.508 1.738 0.967 7 393.257
765.48 49.134 0.51 1.754 1.01 7 393.989
765.495 49.523 0.513 1.777 1.075 7 395.086
765.505 49.783 0.515 1.792 1.118 7 395.818
765.52 50.767 0.498 1.79 1.265 7 395.997
765.531 51.492 0.485 1.788 1.373 7 396.12
765.545 52.413 0.468 1.786 1.511 7 396.277
765.556 53.14 0.455 1.784 1.619 7 396.4
765.57 54.063 0.477 1.76 1.634 7 396.557
765.581 54.789 0.494 1.741 1.647 7 396.68
765.595 55.711 0.516 1.717 1.662 7 396.837
765.607 56.505 0.534 1.697 1.673 7 396.971
765.62 57.364 0.542 1.686 1.566 7 397.117
765.632 58.157 0.548 1.676 1.466 7 397.252
765.645 59.016 0.556 1.665 1.359 7 397.398
765.658 59.877 0.563 1.655 1.252 7 397.49
765.67 60.752 0.55 1.676 1.191 7 396.117
765.683 61.702 0.537 1.7 1.124 7 394.625
765.695 62.582 0.524 1.721 1.062 7 393.245
765.708 63.532 0.511 1.745 0.995 7 391.753
765.72 64.405 0.509 1.781 1.009 7 390.384
765.734 65.429 0.508 1.824 1.029 7 388.776
765.745 66.232 0.507 1.858 1.045 7 387.516
765.759 67.254 0.506 1.901 1.064 7 385.912
765.77 68.062 0.507 1.927 1.145 7 384.644
765.785 69.156 0.508 1.963 1.256 7 382.928
765.795 69.888 0.509 1.986 1.331 7 381.779
765.81 70.985 0.511 2.022 1.443 7 380.056
765.82 71.747 0.508 2.033 1.497 4 379.571
765.835 72.888 0.504 2.048 1.578 4 378.843
765.845 73.645 0.501 2.059 1.632 4 378.361
765.861 74.865 0.496 2.076 1.718 4 377.582
765.87 75.546 0.482 2.084 1.72 4 377.148
765.886 76.759 0.456 2.099 1.725 4 376.375
765.895 77.446 0.442 2.108 1.728 4 375.937
765.912 78.736 0.415 2.124 1.734 4 375.114
765.92 79.344 0.407 2.138 1.756 4 374.726
765.937 80.639 0.391 2.168 1.803 4 373.901
765.945 81.247 0.384 2.182 1.824 6 373.513
765.962 82.537 0.367 2.212 1.871 6 372.69
765.97 82.665 0.367 2.224 1.897 6 372.023
765.988 82.892 0.367 2.25 1.956 6 370.483
765.995 82.98 0.367 2.26 1.98 6 369.883
766.013 83.206 0.367 2.287 2.039 6 368.344
766.02 83.295 0.365 2.29 2.045 6 367.743
766.039 83.533 0.361 2.299 2.06 6 366.121
766.045 83.609 0.36 2.301 2.064 6 365.61
766.064 83.848 0.356 2.31 2.079 6 363.986
766.07 83.923 0.353 2.309 2.064 6 363.475
766.089 84.162 0.345 2.307 2.017 6 361.852
766.095 84.237 0.343 2.307 2.003 6 361.34
766.115 84.476 0.334 2.305 1.954 6 359.654
766.12 84.204 0.33 2.302 1.951 6 359.931
766.14 83.114 0.317 2.29 1.94 6 361.039
766.145 82.842 0.313 2.287 1.937 6 361.316
766.166 81.699 0.299 2.275 1.925 6 362.479
766.17 81.483 0.299 2.271 1.926 6 362.698
